rosbagTimestamp,x,y,z,roll,pitch,yaw,front,back,up,left,right,zrange,deltaX,deltaY,outlierCount,accX,accY,accZ,gyroX,gyroY,gyroZ,ref_x,ref_y,ref_z,ref_roll,ref_pitch,ref_yaw
[nsec],[meter],[meter],[meter],[rad],[rad],[rad],[mm],[mm],[mm],[mm],[mm],[mm],[pixel],[pixel],[unitless],[m/s^2],[m/s^2],[m/s^2],[rad/s],[rad/s],[rad/s],[meter],[meter],[meter],[radian],[radian],[radian],
,world coord,world coord,world coord,world coord,world coord,world coord,world coord,LC,LC,LC,LC,LC,LC,LC,LC,LC,LC,LC,LC,LC,LC,LC,WC,WC,WC,LC,LC,
1551185461.31,0.0,0.0,0.0,0.0,0.0,0.0,0.0,0.0,0.0,0.0,0.0,0.0,0.0,0.0,0.0,0.0,0.0,0.0,0.0,0.0,0.0,-0.10398953408,2.62456226349,0.235275432467,-3.1369779027,-3.1287286101,-0.0354667518251
1551185461.32,0.0,0.0,0.0,0.0,0.0,0.0,0.0,0.0,0.0,0.0,0.0,0.0,0.0,0.0,0.0,0.0,0.0,0.0,0.0,0.0,0.0,-0.103977128863,2.62455582619,0.235272988677,-3.13670334107,-3.12885422881,-0.0350507251965
1551185461.33,0.0,0.0,0.0,0.0,0.0,0.0,0.0,0.0,0.0,0.0,0.0,0.0,0.0,0.0,0.0,0.0,0.0,0.0,0.0,0.0,0.0,-0.103955693543,2.62456297874,0.23525723815,-3.1374985769,-3.12886246699,-0.0348153678991
1551185461.34,0.0,0.0,0.0,0.0,0.0,0.0,0.0,0.0,0.0,0.0,0.0,0.0,0.0,0.0,0.0,0.0,0.0,0.0,0.0,0.0,0.0,-0.104004710913,2.62456727028,0.235288992524,-3.13650967618,-3.1284106244,-0.0355278193673
1551185461.35,0.0,0.0,0.0,0.0,0.0,0.0,0.0,0.0,0.0,0.0,0.0,0.0,0.0,0.0,0.0,0.0,0.0,0.0,0.0,0.0,0.0,-0.103980861604,2.62457227707,0.235284328461,-3.13647719047,-3.12905607848,-0.0351723888336
1551185461.36,0.0,0.0,0.0,0.0,0.0,0.0,0.0,0.0,0.0,0.0,0.0,0.0,0.0,0.0,0.0,0.0,0.0,0.0,0.0,0.0,0.0,-0.103972323239,2.62457108498,0.235280841589,-3.13722740989,-3.12856245186,-0.0350219467539
1551185461.37,0.0,0.0,0.0,0.0,0.0,0.0,0.0,0.0,0.0,0.0,0.0,0.0,0.0,0.0,0.0,0.0,0.0,0.0,0.0,0.0,0.0,-0.103972323239,2.62457108498,0.235280841589,-3.13722740989,-3.12856245186,-0.0350219467539
1551185461.38,0.0,0.0,0.0,0.0,0.0,0.0,0.0,0.0,0.0,0.0,0.0,0.0,0.0,0.0,0.0,0.0,0.0,0.0,0.0,0.0,0.0,-0.103962168097,2.624563694,0.235263898969,-3.13728617939,-3.12878766049,-0.0351655344533
1551185461.39,0.0,0.0,0.0,0.0,0.0,0.0,0.0,0.0,0.0,0.0,0.0,0.0,0.0,0.0,0.0,0.0,0.0,0.0,0.0,0.0,0.0,-0.103962168097,2.624563694,0.235263898969,-3.13728617939,-3.12878766049,-0.0351655344533
1551185461.4,0.0,0.0,0.0,0.0,0.0,0.0,0.0,0.0,0.0,0.0,0.0,0.0,0.0,0.0,0.0,0.0,0.0,0.0,0.0,0.0,0.0,-0.103985965252,2.62454891205,0.235280364752,-3.13684162871,-3.12873804038,-0.0354637635474
1551185461.41,0.0,0.0,0.0,0.0,0.0,0.0,0.0,0.0,0.0,0.0,0.0,0.0,0.0,0.0,0.0,0.0,0.0,0.0,0.0,0.0,0.0,-0.103985965252,2.62454891205,0.235280364752,-3.13684162871,-3.12873804038,-0.0354637635474
1551185461.42,0.0,0.0,0.0,0.0,0.0,0.0,0.0,0.0,0.0,0.0,0.0,0.0,0.0,0.0,0.0,0.0,0.0,0.0,0.0,0.0,0.0,-0.103964626789,2.62455320358,0.235261231661,-3.13712967059,-3.12861607823,-0.0353142092805
1551185461.43,0.0,0.0,0.0,0.0,0.0,0.0,0.0,0.0,0.0,0.0,0.0,0.0,0.0,0.0,0.0,0.0,0.0,0.0,0.0,0.0,0.0,-0.103964626789,2.62455320358,0.235261231661,-3.13712967059,-3.12861607823,-0.0353142092805
1551185461.44,0.0,0.0,0.0,0.0,0.0,0.0,0.0,0.0,0.0,0.0,0.0,0.0,0.0,0.0,0.0,0.0,0.0,0.0,0.0,0.0,0.0,-0.103960327804,2.6245610714,0.235266834497,-3.13664902738,-3.12907264811,-0.0350604370663
1551185461.45,0.0,0.0,0.0,0.0,0.0,0.0,0.0,0.0,0.0,0.0,0.0,0.0,0.0,0.0,0.0,0.0,0.0,0.0,0.0,0.0,0.0,-0.103974670172,2.62457799911,0.235264003277,-3.13704234077,-3.1287848146,-0.0352758033632
1551185461.46,0.0,0.0,0.0,0.0,0.0,0.0,0.0,0.0,0.0,0.0,0.0,0.0,0.0,0.0,0.0,0.0,0.0,0.0,0.0,0.0,0.0,-0.103971704841,2.62456583977,0.235262393951,-3.13708436296,-3.12877251399,-0.0352819075583
1551185461.47,0.0,0.0,0.0,0.0,0.0,0.0,0.0,0.0,0.0,0.0,0.0,0.0,0.0,0.0,0.0,0.0,0.0,0.0,0.0,0.0,0.0,-0.103971518576,2.62455749512,0.235270828009,-3.13654978726,-3.12915175634,-0.0354427154457
1551185461.48,0.0,0.0,0.0,0.0,0.0,0.0,0.0,0.0,0.0,0.0,0.0,0.0,0.0,0.0,0.0,0.0,0.0,0.0,0.0,0.0,0.0,-0.10398209095,2.62455654144,0.235303893685,-3.13679034381,-3.12885037538,-0.0356704253508
1551185461.49,0.0,0.0,0.0,0.0,0.0,0.0,0.0,0.0,0.0,0.0,0.0,0.0,0.0,0.0,0.0,0.0,0.0,0.0,0.0,0.0,0.0,-0.10397849977,2.62456011772,0.235289722681,-3.13637321967,-3.12893268767,-0.0355247463582
1551185461.5,0.0,0.0,0.0,0.0,0.0,0.0,0.0,0.0,0.0,0.0,0.0,0.0,0.0,0.0,0.0,0.0,0.0,0.0,0.0,0.0,0.0,-0.10397849977,2.62456011772,0.235289722681,-3.13637321967,-3.12893268767,-0.0355247463582
1551185461.51,0.0,0.0,0.0,0.0,0.0,0.0,0.0,0.0,0.0,0.0,0.0,0.0,0.0,0.0,0.0,0.0,0.0,0.0,0.0,0.0,0.0,-0.103950716555,2.62457442284,0.235268816352,-3.13654512515,-3.1290609923,-0.0352375075337
1551185461.52,0.0,0.0,0.0,0.0,0.0,0.0,0.0,0.0,0.0,0.0,0.0,0.0,0.0,0.0,0.0,0.0,0.0,0.0,0.0,0.0,0.0,-0.103950716555,2.62457442284,0.235268816352,-3.13654512515,-3.1290609923,-0.0352375075337
1551185461.53,0.0,0.0,0.0,0.0,0.0,0.0,0.0,0.0,0.0,0.0,0.0,0.0,0.0,0.0,0.0,0.0,0.0,0.0,0.0,0.0,0.0,-0.103984728456,2.62456560135,0.235273823142,-3.13640928619,-3.12844622684,-0.0358189553393
1551185461.54,0.0,0.0,0.0,0.0,0.0,0.0,0.0,0.0,0.0,0.0,0.0,0.0,0.0,0.0,0.0,0.0,0.0,0.0,0.0,0.0,0.0,-0.103953942657,2.62456393242,0.235265702009,-3.13650637323,-3.12875543267,-0.0352995265613
1551185461.55,0.0,0.0,0.0,0.0,0.0,0.0,0.0,0.0,0.0,0.0,0.0,0.0,0.0,0.0,0.0,0.0,0.0,0.0,0.0,0.0,0.0,-0.103953942657,2.62456393242,0.235265702009,-3.13650637323,-3.12875543267,-0.0352995265613
1551185461.56,0.0,0.0,0.0,0.0,0.0,0.0,0.0,0.0,0.0,0.0,0.0,0.0,0.0,0.0,0.0,0.0,0.0,0.0,0.0,0.0,0.0,-0.103970311582,2.62456154823,0.235260888934,-3.13666819301,-3.12883744589,-0.0355222702686
1551185461.57,0.0,0.0,0.0,0.0,0.0,0.0,0.0,0.0,0.0,0.0,0.0,0.0,0.0,0.0,0.0,0.0,0.0,0.0,0.0,0.0,0.0,-0.103962406516,2.62455773354,0.235254958272,-3.13731787124,-3.12880297476,-0.0348901479121
1551185461.58,0.0,0.0,0.0,0.0,0.0,0.0,0.0,0.0,0.0,0.0,0.0,0.0,0.0,0.0,0.0,0.0,0.0,0.0,0.0,0.0,0.0,-0.103972285986,2.624553442,0.235282316804,-3.13677842455,-3.12871105322,-0.0354135928062
1551185461.59,0.0,0.0,0.0,0.0,0.0,0.0,0.0,0.0,0.0,0.0,0.0,0.0,0.0,0.0,0.0,0.0,0.0,0.0,0.0,0.0,0.0,-0.103964425623,2.62454748154,0.235260680318,-3.13668937188,-3.1290496094,-0.035317061912
1551185461.6,0.0,0.0,0.0,0.0,0.0,0.0,0.0,0.0,0.0,0.0,0.0,0.0,0.0,0.0,0.0,0.0,0.0,0.0,0.0,0.0,0.0,-0.103947803378,2.62455415726,0.235260561109,-3.1368448435,-3.12902367091,-0.0351109999763
1551185461.61,0.0,0.0,0.0,0.0,0.0,0.0,0.0,0.0,0.0,0.0,0.0,0.0,0.0,0.0,0.0,0.0,0.0,0.0,0.0,0.0,0.0,-0.103947803378,2.62455415726,0.235260561109,-3.1368448435,-3.12902367091,-0.0351109999763
1551185461.62,0.0,0.0,0.0,0.0,0.0,0.0,0.0,0.0,0.0,0.0,0.0,0.0,0.0,0.0,0.0,0.0,0.0,0.0,0.0,0.0,0.0,-0.10395758599,2.62456154823,0.235257565975,-3.13672636984,-3.12886635823,-0.0353146276109
1551185461.63,0.0,0.0,0.0,0.0,0.0,0.0,0.0,0.0,0.0,0.0,0.0,0.0,0.0,0.0,0.0,0.0,0.0,0.0,0.0,0.0,0.0,-0.10395758599,2.62456154823,0.235257565975,-3.13672636984,-3.12886635823,-0.0353146276109
1551185461.64,0.0,0.0,0.0,0.0,0.0,0.0,0.0,0.0,0.0,0.0,0.0,0.0,0.0,0.0,0.0,0.0,0.0,0.0,0.0,0.0,0.0,-0.103948377073,2.62455368042,0.23525865376,-3.13691345002,-3.12849523906,-0.0354103903496
1551185461.65,0.0,0.0,0.0,0.0,0.0,0.0,0.0,0.0,0.0,0.0,0.0,0.0,0.0,0.0,0.0,0.0,0.0,0.0,0.0,0.0,0.0,-0.103965416551,2.62455439568,0.235268399119,-3.1368388466,-3.12852176021,-0.0355767893339
1551185461.66,0.0,0.0,0.0,0.0,0.0,0.0,0.0,0.0,0.0,0.0,0.0,0.0,0.0,0.0,0.0,0.0,0.0,0.0,0.0,0.0,0.0,-0.103965416551,2.62455439568,0.235268399119,-3.1368388466,-3.12852176021,-0.0355767893339
1551185461.67,0.0,0.0,0.0,0.0,0.0,0.0,0.0,0.0,0.0,0.0,0.0,0.0,0.0,0.0,0.0,0.0,0.0,0.0,0.0,0.0,0.0,-0.103933311999,2.62454843521,0.23526121676,-3.137090852,-3.12902443156,-0.0351267043268
1551185461.68,0.0,0.0,0.0,0.0,0.0,0.0,0.0,0.0,0.0,0.0,0.0,0.0,0.0,0.0,0.0,0.0,0.0,0.0,0.0,0.0,0.0,-0.103933311999,2.62454843521,0.23526121676,-3.137090852,-3.12902443156,-0.0351267043268
1551185461.69,0.0,0.0,0.0,0.0,0.0,0.0,0.0,0.0,0.0,0.0,0.0,0.0,0.0,0.0,0.0,0.0,0.0,0.0,0.0,0.0,0.0,-0.103951565921,2.62455439568,0.235268875957,-3.13666852199,-3.12867973329,-0.0354296637214
1551185461.7,0.0,0.0,0.0,0.0,0.0,0.0,0.0,0.0,0.0,0.0,0.0,0.0,0.0,0.0,0.0,0.0,0.0,0.0,0.0,0.0,0.0,-0.103946715593,2.62454915047,0.235266312957,-3.13704162681,-3.1286216072,-0.0353116238864
1551185461.71,0.0,0.0,0.0,0.0,0.0,0.0,0.0,0.0,0.0,0.0,0.0,0.0,0.0,0.0,0.0,0.0,0.0,0.0,0.0,0.0,0.0,-0.103953890502,2.62454986572,0.235276028514,-3.13646936905,-3.12885272499,-0.0355453314123
1551185461.72,0.0,0.0,0.0,0.0,0.0,0.0,0.0,0.0,0.0,0.0,0.0,0.0,0.0,0.0,0.0,0.0,0.0,0.0,0.0,0.0,0.0,-0.103953890502,2.62454986572,0.235276028514,-3.13646936905,-3.12885272499,-0.0355453314123
1551185461.73,0.0,0.0,0.0,0.0,0.0,0.0,0.0,0.0,0.0,0.0,0.0,0.0,0.0,0.0,0.0,0.0,0.0,0.0,0.0,0.0,0.0,-0.10396964103,2.62455701828,0.235274061561,-3.13652859885,-3.12862167709,-0.035748557747
1551185461.74,0.0,0.0,0.0,0.0,0.0,0.0,0.0,0.0,0.0,0.0,0.0,0.0,0.0,0.0,0.0,0.0,0.0,0.0,0.0,0.0,0.0,-0.103956483305,2.62456226349,0.235286235809,-3.13654664538,-3.1288838508,-0.0353998191524
1551185461.75,0.0,0.0,0.0,0.0,0.0,0.0,0.0,0.0,0.0,0.0,0.0,0.0,0.0,0.0,0.0,0.0,0.0,0.0,0.0,0.0,0.0,-0.103966653347,2.62455320358,0.235287934542,-3.13681864294,-3.12891323524,-0.0357562387378
1551185461.76,0.0,0.0,0.0,0.0,0.0,0.0,0.0,0.0,0.0,0.0,0.0,0.0,0.0,0.0,0.0,0.0,0.0,0.0,0.0,0.0,0.0,-0.103949852288,2.62454724312,0.235261321068,-3.13694866597,-3.1288879073,-0.035274436011
1551185461.77,0.0,0.0,0.0,0.0,0.0,0.0,0.0,0.0,0.0,0.0,0.0,0.0,0.0,0.0,0.0,0.0,0.0,0.0,0.0,0.0,0.0,-0.103949852288,2.62454724312,0.235261321068,-3.13694866597,-3.1288879073,-0.035274436011
1551185461.78,0.0,0.0,0.0,0.0,0.0,0.0,0.0,0.0,0.0,0.0,0.0,0.0,0.0,0.0,0.0,0.0,0.0,0.0,0.0,0.0,0.0,-0.103962138295,2.6245496273,0.235278889537,-3.13694012449,-3.128437102,-0.035586872691
1551185461.79,0.0,0.0,0.0,0.0,0.0,0.0,0.0,0.0,0.0,0.0,0.0,0.0,0.0,0.0,0.0,0.0,0.0,0.0,0.0,0.0,0.0,-0.103942431509,2.62456440926,0.235260546207,-3.13718933678,-3.12874916446,-0.0350850756838
1551185461.8,0.0,0.0,0.0,0.0,0.0,0.0,0.0,0.0,0.0,0.0,0.0,0.0,0.0,0.0,0.0,0.0,0.0,0.0,0.0,0.0,0.0,-0.103947721422,2.62457180023,0.235258847475,-3.13689628207,-3.12900559128,-0.0353413017227
1551185461.81,0.0,0.0,0.0,0.0,0.0,0.0,0.0,0.0,0.0,0.0,0.0,0.0,0.0,0.0,0.0,0.0,0.0,0.0,0.0,0.0,0.0,-0.103943914175,2.62455272675,0.235244899988,-3.13733368522,-3.12853514826,-0.0351470961512
1551185461.82,0.0,0.0,0.0,0.0,0.0,0.0,0.0,0.0,0.0,0.0,0.0,0.0,0.0,0.0,0.0,0.0,0.0,0.0,0.0,0.0,0.0,-0.103943914175,2.62455272675,0.235244899988,-3.13733368522,-3.12853514826,-0.0351470961512
1551185461.83,0.0,0.0,0.0,0.0,0.0,0.0,0.0,0.0,0.0,0.0,0.0,0.0,0.0,0.0,0.0,0.0,0.0,0.0,0.0,0.0,0.0,-0.103967219591,2.62455677986,0.235272690654,-3.13647274966,-3.1290671875,-0.0356614304815
1551185461.84,0.0,0.0,0.0,0.0,0.0,0.0,0.0,0.0,0.0,0.0,0.0,0.0,0.0,0.0,0.0,0.0,0.0,0.0,0.0,0.0,0.0,-0.103967219591,2.62455677986,0.235272690654,-3.13647274966,-3.1290671875,-0.0356614304815
1551185461.85,0.0,0.0,0.0,0.0,0.0,0.0,0.0,0.0,0.0,0.0,0.0,0.0,0.0,0.0,0.0,0.0,0.0,0.0,0.0,0.0,0.0,-0.103970564902,2.62455534935,0.235275670886,-3.13711796802,-3.1284306492,-0.0352173081454
1551185461.86,0.0,0.0,0.0,0.0,0.0,0.0,0.0,0.0,0.0,0.0,0.0,0.0,0.0,0.0,0.0,0.0,0.0,0.0,0.0,0.0,0.0,-0.103975705802,2.62456321716,0.235282182693,-3.13678858278,-3.12862120795,-0.0354827393013
1551185461.87,0.0,0.0,0.0,0.0,0.0,0.0,0.0,0.0,0.0,0.0,0.0,0.0,0.0,0.0,0.0,0.0,0.0,0.0,0.0,0.0,0.0,-0.103975705802,2.62456321716,0.235282182693,-3.13678858278,-3.12862120795,-0.0354827393013
1551185461.88,0.0,0.0,0.0,0.0,0.0,0.0,0.0,0.0,0.0,0.0,0.0,0.0,0.0,0.0,0.0,0.0,0.0,0.0,0.0,0.0,0.0,-0.103922888637,2.62455224991,0.235239431262,-3.13718394904,-3.1289604194,-0.0349058888982
1551185461.89,0.0,0.0,0.0,0.0,0.0,0.0,0.0,0.0,0.0,0.0,0.0,0.0,0.0,0.0,0.0,0.0,0.0,0.0,0.0,0.0,0.0,-0.103922888637,2.62455224991,0.235239431262,-3.13718394904,-3.1289604194,-0.0349058888982
1551185461.9,0.0,0.0,0.0,0.0,0.0,0.0,0.0,0.0,0.0,0.0,0.0,0.0,0.0,0.0,0.0,0.0,0.0,0.0,0.0,0.0,0.0,-0.103976003826,2.62456345558,0.235272392631,-3.13686290082,-3.12846546746,-0.0352469211852
1551185461.91,0.0,0.0,0.0,0.0,0.0,0.0,0.0,0.0,0.0,0.0,0.0,0.0,0.0,0.0,0.0,0.0,0.0,0.0,0.0,0.0,0.0,-0.103976003826,2.62456345558,0.235272392631,-3.13686290082,-3.12846546746,-0.0352469211852
1551185461.92,0.0,0.0,0.0,0.0,0.0,0.0,0.0,0.0,0.0,0.0,0.0,0.0,0.0,0.0,0.0,0.0,0.0,0.0,0.0,0.0,0.0,-0.103964142501,2.62453961372,0.235270231962,-3.13704794532,-3.12871888181,-0.0354191360346
1551185461.93,0.0,0.0,0.0,0.0,0.0,0.0,0.0,0.0,0.0,0.0,0.0,0.0,0.0,0.0,0.0,0.0,0.0,0.0,0.0,0.0,0.0,-0.103964142501,2.62453961372,0.235270231962,-3.13704794532,-3.12871888181,-0.0354191360346
1551185461.94,0.0,0.0,0.0,0.0,0.0,0.0,0.0,0.0,0.0,0.0,0.0,0.0,0.0,0.0,0.0,0.0,0.0,0.0,0.0,0.0,0.0,-0.103972844779,2.6245598793,0.235272914171,-3.13691714446,-3.12852127121,-0.0353671553533
1551185461.95,0.0,0.0,0.0,0.0,0.0,0.0,0.0,0.0,0.0,0.0,0.0,0.0,0.0,0.0,0.0,0.0,0.0,0.0,0.0,0.0,0.0,-0.103972844779,2.6245598793,0.235272914171,-3.13691714446,-3.12852127121,-0.0353671553533
1551185461.96,0.0,0.0,0.0,0.0,0.0,0.0,0.0,0.0,0.0,0.0,0.0,0.0,0.0,0.0,0.0,0.0,0.0,0.0,0.0,0.0,0.0,-0.103978574276,2.62455654144,0.235284000635,-3.13670228147,-3.1287760824,-0.0349374866543
1551185461.97,0.0,0.0,0.0,0.0,0.0,0.0,0.0,0.0,0.0,0.0,0.0,0.0,0.0,0.0,0.0,0.0,0.0,0.0,0.0,0.0,0.0,-0.103978574276,2.62455654144,0.235284000635,-3.13670228147,-3.1287760824,-0.0349374866543
1551185461.98,0.0,0.0,0.0,0.0,0.0,0.0,0.0,0.0,0.0,0.0,0.0,0.0,0.0,0.0,0.0,0.0,0.0,0.0,0.0,0.0,0.0,-0.103960290551,2.62455701828,0.235270485282,-3.13739887992,-3.12872049153,-0.0351452536241
1551185461.99,0.0,0.0,0.0,0.0,0.0,0.0,0.0,0.0,0.0,0.0,0.0,0.0,0.0,0.0,0.0,0.0,0.0,0.0,0.0,0.0,0.0,-0.103960290551,2.62455701828,0.235270485282,-3.13739887992,-3.12872049153,-0.0351452536241
1551185462.0,0.0,0.0,0.0,0.0,0.0,0.0,0.0,0.0,0.0,0.0,0.0,0.0,0.0,0.0,0.0,0.0,0.0,0.0,0.0,0.0,0.0,-0.103960551322,2.62455511093,0.235262781382,-3.13720940748,-3.12861891498,-0.0351038915218
1551185462.01,0.0,0.0,0.0,0.0,0.0,0.0,0.0,0.0,0.0,0.0,0.0,0.0,0.0,0.0,0.0,0.0,0.0,0.0,0.0,0.0,0.0,-0.103960551322,2.62455511093,0.235262781382,-3.13720940748,-3.12861891498,-0.0351038915218
1551185462.02,0.0,0.0,0.0,0.0,0.0,0.0,0.0,0.0,0.0,0.0,0.0,0.0,0.0,0.0,0.0,0.0,0.0,0.0,0.0,0.0,0.0,-0.103977568448,2.62454771996,0.235278919339,-3.13695787575,-3.12903469904,-0.034977418263
1551185462.03,0.0,0.0,0.0,0.0,0.0,0.0,0.0,0.0,0.0,0.0,0.0,0.0,0.0,0.0,0.0,0.0,0.0,0.0,0.0,0.0,0.0,-0.103977568448,2.62454771996,0.235278919339,-3.13695787575,-3.12903469904,-0.034977418263
1551185462.04,0.0,0.0,0.0,0.0,0.0,0.0,0.0,0.0,0.0,0.0,0.0,0.0,0.0,0.0,0.0,0.0,0.0,0.0,0.0,0.0,0.0,-0.103981308639,2.62455201149,0.235297381878,-3.13608589134,-3.12873026745,-0.0357087456027
1551185462.05,0.0,0.0,0.0,0.0,0.0,0.0,0.0,0.0,0.0,0.0,0.0,0.0,0.0,0.0,0.0,0.0,0.0,0.0,0.0,0.0,0.0,-0.10397361964,2.62455606461,0.23526930809,-3.13714410716,-3.12845431955,-0.0351621718693
1551185462.06,0.0,0.0,0.0,0.0,0.0,0.0,0.0,0.0,0.0,0.0,0.0,0.0,0.0,0.0,0.0,0.0,0.0,0.0,0.0,0.0,0.0,-0.103986978531,2.62455844879,0.235288858414,-3.13664030829,-3.12907694237,-0.0352859897376
1551185462.07,0.0,0.0,0.0,0.0,0.0,0.0,0.0,0.0,0.0,0.0,0.0,0.0,0.0,0.0,0.0,0.0,0.0,0.0,0.0,0.0,0.0,-0.103986978531,2.62455844879,0.235288858414,-3.13664030829,-3.12907694237,-0.0352859897376
1551185462.08,0.0,0.0,0.0,0.0,0.0,0.0,0.0,0.0,0.0,0.0,0.0,0.0,0.0,0.0,0.0,0.0,0.0,0.0,0.0,0.0,0.0,-0.103988446295,2.62456798553,0.235276177526,-3.13656629525,-3.12891158762,-0.0353887084574
1551185462.09,0.0,0.0,0.0,0.0,0.0,0.0,0.0,0.0,0.0,0.0,0.0,0.0,0.0,0.0,0.0,0.0,0.0,0.0,0.0,0.0,0.0,-0.103988446295,2.62456798553,0.235276177526,-3.13656629525,-3.12891158762,-0.0353887084574
1551185462.1,0.0,0.0,0.0,0.0,0.0,0.0,0.0,0.0,0.0,0.0,0.0,0.0,0.0,0.0,0.0,0.0,0.0,0.0,0.0,0.0,0.0,-0.103983983397,2.6245663166,0.235285669565,-3.13667010851,-3.12872356852,-0.0354947315167
1551185462.11,0.0,0.0,0.0,0.0,0.0,0.0,0.0,0.0,0.0,0.0,0.0,0.0,0.0,0.0,0.0,0.0,0.0,0.0,0.0,0.0,0.0,-0.103985711932,2.62455964088,0.235272884369,-3.13683447437,-3.12881226478,-0.0351431055936
1551185462.12,0.0,0.0,0.0,0.0,0.0,0.0,0.0,0.0,0.0,0.0,0.0,0.0,0.0,0.0,0.0,0.0,0.0,0.0,0.0,0.0,0.0,-0.103968255222,2.62454223633,0.235273301601,-3.13723653403,-3.12874592578,-0.0350009408959
1551185462.13,0.0,0.0,0.0,0.0,0.0,0.0,0.0,0.0,0.0,0.0,0.0,0.0,0.0,0.0,0.0,0.0,0.0,0.0,0.0,0.0,0.0,-0.103968255222,2.62454223633,0.235273301601,-3.13723653403,-3.12874592578,-0.0350009408959
1551185462.14,0.0,0.0,0.0,0.0,0.0,0.0,0.0,0.0,0.0,0.0,0.0,0.0,0.0,0.0,0.0,0.0,0.0,0.0,0.0,0.0,0.0,-0.103985063732,2.62456154823,0.235274270177,-3.1365294725,-3.1287348221,-0.0355204772454
1551185462.15,0.0,0.0,0.0,0.0,0.0,0.0,0.0,0.0,0.0,0.0,0.0,0.0,0.0,0.0,0.0,0.0,0.0,0.0,0.0,0.0,0.0,-0.103972539306,2.6245572567,0.235280394554,-3.13662258186,-3.12913372089,-0.0351341333746
1551185462.16,0.0,0.0,0.0,0.0,0.0,0.0,0.0,0.0,0.0,0.0,0.0,0.0,0.0,0.0,0.0,0.0,0.0,0.0,0.0,0.0,0.0,-0.103972539306,2.6245572567,0.235280394554,-3.13662258186,-3.12913372089,-0.0351341333746
1551185462.17,0.0,0.0,0.0,0.0,0.0,0.0,0.0,0.0,0.0,0.0,0.0,0.0,0.0,0.0,0.0,0.0,0.0,0.0,0.0,0.0,0.0,-0.103994600475,2.62456512451,0.235290244222,-3.13669195036,-3.12872114518,-0.0351088021038
1551185462.18,0.0,0.0,0.0,0.0,0.0,0.0,0.0,0.0,0.0,0.0,0.0,0.0,0.0,0.0,0.0,0.0,0.0,0.0,0.0,0.0,0.0,-0.103991493583,2.62455749512,0.235280498862,-3.13685102745,-3.12854871915,-0.0352296029869
1551185462.19,0.0,0.0,0.0,0.0,0.0,0.0,0.0,0.0,0.0,0.0,0.0,0.0,0.0,0.0,0.0,0.0,0.0,0.0,0.0,0.0,0.0,-0.103991493583,2.62455749512,0.235280498862,-3.13685102745,-3.12854871915,-0.0352296029869
1551185462.2,0.0,0.0,0.0,0.0,0.0,0.0,0.0,0.0,0.0,0.0,0.0,0.0,0.0,0.0,0.0,0.0,0.0,0.0,0.0,0.0,0.0,-0.103999391198,2.62456512451,0.235286995769,-3.13688232169,-3.1287425736,-0.0351427356788
1551185462.21,0.0,0.0,0.0,0.0,0.0,0.0,0.0,0.0,0.0,0.0,0.0,0.0,0.0,0.0,0.0,0.0,0.0,0.0,0.0,0.0,0.0,-0.103997245431,2.62455224991,0.235295146704,-3.13630724188,-3.12873585181,-0.0354561901871
1551185462.22,0.0,0.0,0.0,0.0,0.0,0.0,0.0,0.0,0.0,0.0,0.0,0.0,0.0,0.0,0.0,0.0,0.0,0.0,0.0,0.0,0.0,-0.103997245431,2.62455224991,0.235295146704,-3.13630724188,-3.12873585181,-0.0354561901871
1551185462.23,0.0,0.0,0.0,0.0,0.0,0.0,0.0,0.0,0.0,0.0,0.0,0.0,0.0,0.0,0.0,0.0,0.0,0.0,0.0,0.0,0.0,-0.103979505599,2.62456917763,0.235272437334,-3.13643779147,-3.12900091352,-0.0354708920075
1551185462.24,0.0,0.0,0.0,0.0,0.0,0.0,0.0,0.0,0.0,0.0,0.0,0.0,0.0,0.0,0.0,0.0,0.0,0.0,0.0,0.0,0.0,-0.103979505599,2.62456917763,0.235272437334,-3.13643779147,-3.12900091352,-0.0354708920075
1551185462.25,0.0,0.0,0.0,0.0,0.0,0.0,0.0,0.0,0.0,0.0,0.0,0.0,0.0,0.0,0.0,0.0,0.0,0.0,0.0,0.0,0.0,-0.103983588517,2.62455892563,0.235289350152,-3.13647709196,-3.12862883321,-0.0356034896313
1551185462.26,0.0,0.0,0.0,0.0,0.0,0.0,0.0,0.0,0.0,0.0,0.0,0.0,0.0,0.0,0.0,0.0,0.0,0.0,0.0,0.0,0.0,-0.103984385729,2.62455821037,0.235287189484,-3.13654257167,-3.12910448434,-0.0353247216061
1551185462.27,0.0,0.0,0.0,0.0,0.0,0.0,0.0,0.0,0.0,0.0,0.0,0.0,0.0,0.0,0.0,0.0,0.0,0.0,0.0,0.0,0.0,-0.103984385729,2.62455821037,0.235287189484,-3.13654257167,-3.12910448434,-0.0353247216061
1551185462.28,0.0,0.0,0.0,0.0,0.0,0.0,0.0,0.0,0.0,0.0,0.0,0.0,0.0,0.0,0.0,0.0,0.0,0.0,0.0,0.0,0.0,-0.103980742395,2.62456536293,0.235279455781,-3.13679893546,-3.12876298249,-0.0354114006161
1551185462.29,0.0,0.0,0.0,0.0,0.0,0.0,0.0,0.0,0.0,0.0,0.0,0.0,0.0,0.0,0.0,0.0,0.0,0.0,0.0,0.0,0.0,-0.103998981416,2.62455773354,0.235274448991,-3.13694524976,-3.12880774574,-0.0353562398104
1551185462.3,0.0,0.0,0.0,0.0,0.0,0.0,0.0,0.0,0.0,0.0,0.0,0.0,0.0,0.0,0.0,0.0,0.0,0.0,0.0,0.0,0.0,-0.103987574577,2.62455034256,0.235274553299,-3.13680806179,-3.12881997516,-0.0353825341506
1551185462.31,0.0,0.0,0.0,0.0,0.0,0.0,0.0,0.0,0.0,0.0,0.0,0.0,0.0,0.0,0.0,0.0,0.0,0.0,0.0,0.0,0.0,-0.103985071182,2.62457585335,0.235275998712,-3.13633727973,-3.12866239044,-0.0353077861199
1551185462.32,0.0,0.0,0.0,0.0,0.0,0.0,0.0,0.0,0.0,0.0,0.0,0.0,0.0,0.0,0.0,0.0,0.0,0.0,0.0,0.0,0.0,-0.103985071182,2.62457585335,0.235275998712,-3.13633727973,-3.12866239044,-0.0353077861199
1551185462.33,0.0,0.0,0.0,0.0,0.0,0.0,0.0,0.0,0.0,0.0,0.0,0.0,0.0,0.0,0.0,0.0,0.0,0.0,0.0,0.0,0.0,-0.10398298502,2.62456893921,0.235269680619,-3.13673394868,-3.12876486349,-0.0352780546506
1551185462.34,0.0,0.0,0.0,0.0,0.0,0.0,0.0,0.0,0.0,0.0,0.0,0.0,0.0,0.0,0.0,0.0,0.0,0.0,0.0,0.0,0.0,-0.103983797133,2.62456607819,0.235290169716,-3.13620583313,-3.12819761399,-0.0355599693031
1551185462.35,0.0,0.0,0.0,0.0,0.0,0.0,0.0,0.0,0.0,0.0,0.0,0.0,0.0,0.0,0.0,0.0,0.0,0.0,0.0,0.0,0.0,-0.103975735605,2.62456989288,0.235276892781,-3.13677800339,-3.12884613132,-0.0352053470237
1551185462.36,0.0,0.0,0.0,0.0,0.0,0.0,0.0,0.0,0.0,0.0,0.0,0.0,0.0,0.0,0.0,0.0,0.0,0.0,0.0,0.0,0.0,-0.103980541229,2.62456011772,0.235271766782,-3.13672313366,-3.12864112459,-0.0354999297776
1551185462.37,0.0,0.0,0.0,0.0,0.0,0.0,0.0,0.0,0.0,0.0,0.0,0.0,0.0,0.0,0.0,0.0,0.0,0.0,0.0,0.0,0.0,-0.103970043361,2.6245610714,0.235264360905,-3.13684413714,-3.12905696607,-0.0351266871216
1551185462.38,0.0,0.0,0.0,0.0,0.0,0.0,0.0,0.0,0.0,0.0,0.0,0.0,0.0,0.0,0.0,0.0,0.0,0.0,0.0,0.0,0.0,-0.103981584311,2.62456965446,0.2352630198,-3.13681787438,-3.12870147164,-0.0351858392673
1551185462.39,0.0,0.0,0.0,0.0,0.0,0.0,0.0,0.0,0.0,0.0,0.0,0.0,0.0,0.0,0.0,0.0,0.0,0.0,0.0,0.0,0.0,-0.103981584311,2.62456965446,0.2352630198,-3.13681787438,-3.12870147164,-0.0351858392673
1551185462.4,0.0,0.0,0.0,0.0,0.0,0.0,0.0,0.0,0.0,0.0,0.0,0.0,0.0,0.0,0.0,0.0,0.0,0.0,0.0,0.0,0.0,-0.103997938335,2.62456917763,0.235291942954,-3.13641086901,-3.12871291406,-0.0357748903993
1551185462.41,0.0,0.0,0.0,0.0,0.0,0.0,0.0,0.0,0.0,0.0,0.0,0.0,0.0,0.0,0.0,0.0,0.0,0.0,0.0,0.0,0.0,-0.103997938335,2.62456917763,0.235291942954,-3.13641086901,-3.12871291406,-0.0357748903993
1551185462.42,0.0,0.0,0.0,0.0,0.0,0.0,0.0,0.0,0.0,0.0,0.0,0.0,0.0,0.0,0.0,0.0,0.0,0.0,0.0,0.0,0.0,-0.10397182405,2.62456035614,0.235263898969,-3.13656931837,-3.12883672297,-0.0352336250389
1551185462.43,0.0,0.0,0.0,0.0,0.0,0.0,0.0,0.0,0.0,0.0,0.0,0.0,0.0,0.0,0.0,0.0,0.0,0.0,0.0,0.0,0.0,-0.10397182405,2.62456035614,0.235263898969,-3.13656931837,-3.12883672297,-0.0352336250389
1551185462.44,0.0,0.0,0.0,0.0,0.0,0.0,0.0,0.0,0.0,0.0,0.0,0.0,0.0,0.0,0.0,0.0,0.0,0.0,0.0,0.0,0.0,-0.103960752487,2.62456583977,0.235261499882,-3.13661681355,-3.12876168048,-0.0352676837096
1551185462.45,0.0,0.0,0.0,0.0,0.0,0.0,0.0,0.0,0.0,0.0,0.0,0.0,0.0,0.0,0.0,0.0,0.0,0.0,0.0,0.0,0.0,-0.103960752487,2.62456583977,0.235261499882,-3.13661681355,-3.12876168048,-0.0352676837096
1551185462.46,0.0,0.0,0.0,0.0,0.0,0.0,0.0,0.0,0.0,0.0,0.0,0.0,0.0,0.0,0.0,0.0,0.0,0.0,0.0,0.0,0.0,-0.103967681527,2.62454628944,0.235272958875,-3.13662829602,-3.12873538627,-0.0353634122707
1551185462.47,0.0,0.0,0.0,0.0,0.0,0.0,0.0,0.0,0.0,0.0,0.0,0.0,0.0,0.0,0.0,0.0,0.0,0.0,0.0,0.0,0.0,-0.103959098458,2.62456297874,0.235271677375,-3.13699604887,-3.12878871013,-0.0352892508665
1551185462.48,0.0,0.0,0.0,0.0,0.0,0.0,0.0,0.0,0.0,0.0,0.0,0.0,0.0,0.0,0.0,0.0,0.0,0.0,0.0,0.0,0.0,-0.103959098458,2.62456297874,0.235271677375,-3.13699604887,-3.12878871013,-0.0352892508665
1551185462.49,0.0,0.0,0.0,0.0,0.0,0.0,0.0,0.0,0.0,0.0,0.0,0.0,0.0,0.0,0.0,0.0,0.0,0.0,0.0,0.0,0.0,-0.103955224156,2.62456130981,0.235251829028,-3.13714980041,-3.12860514949,-0.0351360680134
1551185462.5,0.0,0.0,0.0,0.0,0.0,0.0,0.0,0.0,0.0,0.0,0.0,0.0,0.0,0.0,0.0,0.0,0.0,0.0,0.0,0.0,0.0,-0.103955224156,2.62456130981,0.235251829028,-3.13714980041,-3.12860514949,-0.0351360680134
1551185462.51,0.0,0.0,0.0,0.0,0.0,0.0,0.0,0.0,0.0,0.0,0.0,0.0,0.0,0.0,0.0,0.0,0.0,0.0,0.0,0.0,0.0,-0.103944376111,2.62455701828,0.235264480114,-3.13674746218,-3.12870962717,-0.0354867374212
1551185462.52,0.0,0.0,0.0,0.0,0.0,0.0,0.0,0.0,0.0,0.0,0.0,0.0,0.0,0.0,0.0,0.0,0.0,0.0,0.0,0.0,0.0,-0.10396745801,2.62455916405,0.235270991921,-3.13661794894,-3.1288008583,-0.0354693281801
1551185462.53,0.0,0.0,0.0,0.0,0.0,0.0,0.0,0.0,0.0,0.0,0.0,0.0,0.0,0.0,0.0,0.0,0.0,0.0,0.0,0.0,0.0,-0.10396745801,2.62455916405,0.235270991921,-3.13661794894,-3.1288008583,-0.0354693281801
1551185462.54,0.0,0.0,0.0,0.0,0.0,0.0,0.0,0.0,0.0,0.0,0.0,0.0,0.0,0.0,0.0,0.0,0.0,0.0,0.0,0.0,0.0,-0.103964827955,2.62455320358,0.235275790095,-3.13654995197,-3.12870892548,-0.0356305612576
1551185462.55,0.0,0.0,0.0,0.0,0.0,0.0,0.0,0.0,0.0,0.0,0.0,0.0,0.0,0.0,0.0,0.0,0.0,0.0,0.0,0.0,0.0,-0.103939540684,2.62455034256,0.235248163342,-3.13713031084,-3.12883292449,-0.0350802197172
1551185462.56,0.0,0.0,0.0,0.0,0.0,0.0,0.0,0.0,0.0,0.0,0.0,0.0,0.0,0.0,0.0,0.0,0.0,0.0,0.0,0.0,0.0,-0.10398811847,2.62454748154,0.23529227078,-3.13659273935,-3.12839164973,-0.0356809336022
1551185462.57,0.0,0.0,0.0,0.0,0.0,0.0,0.0,0.0,0.0,0.0,0.0,0.0,0.0,0.0,0.0,0.0,0.0,0.0,0.0,0.0,0.0,-0.10398811847,2.62454748154,0.23529227078,-3.13659273935,-3.12839164973,-0.0356809336022
1551185462.58,0.0,0.0,0.0,0.0,0.0,0.0,0.0,0.0,0.0,0.0,0.0,0.0,0.0,0.0,0.0,0.0,0.0,0.0,0.0,0.0,0.0,-0.103947542608,2.62455630302,0.235258027911,-3.13691383089,-3.12863715354,-0.0355314085673
1551185462.59,0.0,0.0,0.0,0.0,0.0,0.0,0.0,0.0,0.0,0.0,0.0,0.0,0.0,0.0,0.0,0.0,0.0,0.0,0.0,0.0,0.0,-0.103947542608,2.62455630302,0.235258027911,-3.13691383089,-3.12863715354,-0.0355314085673
1551185462.6,0.0,0.0,0.0,0.0,0.0,0.0,0.0,0.0,0.0,0.0,0.0,0.0,0.0,0.0,0.0,0.0,0.0,0.0,0.0,0.0,0.0,-0.103980667889,2.62456488609,0.235282257199,-3.1358965293,-3.12834500566,-0.0358497943712
1551185462.61,0.0,0.0,0.0,0.0,0.0,0.0,0.0,0.0,0.0,0.0,0.0,0.0,0.0,0.0,0.0,0.0,0.0,0.0,0.0,0.0,0.0,-0.103974953294,2.62457346916,0.235287487507,-3.13627689539,-3.12859802022,-0.035680556999
1551185462.62,0.0,0.0,0.0,0.0,0.0,0.0,0.0,0.0,0.0,0.0,0.0,0.0,0.0,0.0,0.0,0.0,0.0,0.0,0.0,0.0,0.0,-0.103974953294,2.62457346916,0.235287487507,-3.13627689539,-3.12859802022,-0.035680556999
1551185462.63,0.0,0.0,0.0,0.0,0.0,0.0,0.0,0.0,0.0,0.0,0.0,0.0,0.0,0.0,0.0,0.0,0.0,0.0,0.0,0.0,0.0,-0.103971377015,2.62456941605,0.235256701708,-3.13640336952,-3.12893077051,-0.0356885856224
1551185462.64,0.0,0.0,0.0,0.0,0.0,0.0,0.0,0.0,0.0,0.0,0.0,0.0,0.0,0.0,0.0,0.0,0.0,0.0,0.0,0.0,0.0,-0.103971377015,2.62456941605,0.235256701708,-3.13640336952,-3.12893077051,-0.0356885856224
1551185462.65,0.0,0.0,0.0,0.0,0.0,0.0,0.0,0.0,0.0,0.0,0.0,0.0,0.0,0.0,0.0,0.0,0.0,0.0,0.0,0.0,0.0,-0.103964082897,2.6245610714,0.235289394855,-3.13662887742,-3.12843965812,-0.0354904752886
1551185462.66,0.0,0.0,0.0,0.0,0.0,0.0,0.0,0.0,0.0,0.0,0.0,0.0,0.0,0.0,0.0,0.0,0.0,0.0,0.0,0.0,0.0,-0.103944867849,2.62454581261,0.235264748335,-3.13711316315,-3.12893467759,-0.035254024186
1551185462.67,0.0,0.0,0.0,0.0,0.0,0.0,0.0,0.0,0.0,0.0,0.0,0.0,0.0,0.0,0.0,0.0,0.0,0.0,0.0,0.0,0.0,-0.103969424963,2.62455797195,0.235279098153,-3.13647556105,-3.12883224738,-0.0354802532443
1551185462.68,0.0,0.0,0.0,0.0,0.0,0.0,0.0,0.0,0.0,0.0,0.0,0.0,0.0,0.0,0.0,0.0,0.0,0.0,0.0,0.0,0.0,-0.103969424963,2.62455797195,0.235279098153,-3.13647556105,-3.12883224738,-0.0354802532443
1551185462.69,0.0,0.0,0.0,0.0,0.0,0.0,0.0,0.0,0.0,0.0,0.0,0.0,0.0,0.0,0.0,0.0,0.0,0.0,0.0,0.0,0.0,-0.103976033628,2.62455487251,0.235260039568,-3.13607841925,-3.12885939105,-0.0355556152864
1551185462.7,0.0,0.0,0.0,0.0,0.0,0.0,0.0,0.0,0.0,0.0,0.0,0.0,0.0,0.0,0.0,0.0,0.0,0.0,0.0,0.0,0.0,-0.103963620961,2.62455940247,0.235265359282,-3.13670854636,-3.12869471373,-0.0352896874341
1551185462.71,0.0,0.0,0.0,0.0,0.0,0.0,0.0,0.0,0.0,0.0,0.0,0.0,0.0,0.0,0.0,0.0,0.0,0.0,0.0,0.0,0.0,-0.103966966271,2.62455868721,0.235267817974,-3.13674832008,-3.12848432812,-0.0356063664664
1551185462.72,0.0,0.0,0.0,0.0,0.0,0.0,0.0,0.0,0.0,0.0,0.0,0.0,0.0,0.0,0.0,0.0,0.0,0.0,0.0,0.0,0.0,-0.103966966271,2.62455868721,0.235267817974,-3.13674832008,-3.12848432812,-0.0356063664664
1551185462.73,0.0,0.0,0.0,0.0,0.0,0.0,0.0,0.0,0.0,0.0,0.0,0.0,0.0,0.0,0.0,0.0,0.0,0.0,0.0,0.0,0.0,-0.103971838951,2.62454080582,0.23525801301,-3.13670708355,-3.12912202436,-0.0352288162676
1551185462.74,0.0,0.0,0.0,0.0,0.0,0.0,0.0,0.0,0.0,0.0,0.0,0.0,0.0,0.0,0.0,0.0,0.0,0.0,0.0,0.0,0.0,-0.103948868811,2.62454199791,0.235252439976,-3.13667340187,-3.12860806,-0.0353292769817
1551185462.75,0.0,0.0,0.0,0.0,0.0,0.0,0.0,0.0,0.0,0.0,0.0,0.0,0.0,0.0,0.0,0.0,0.0,0.0,0.0,0.0,0.0,-0.103937454522,2.6245470047,0.235246241093,-3.136984494,-3.12944928748,-0.0348089216676
1551185462.76,0.0,0.0,0.0,0.0,0.0,0.0,0.0,0.0,0.0,0.0,0.0,0.0,0.0,0.0,0.0,0.0,0.0,0.0,0.0,0.0,0.0,-0.103937454522,2.6245470047,0.235246241093,-3.136984494,-3.12944928748,-0.0348089216676
1551185462.77,0.0,0.0,0.0,0.0,0.0,0.0,0.0,0.0,0.0,0.0,0.0,0.0,0.0,0.0,0.0,0.0,0.0,0.0,0.0,0.0,0.0,-0.103976450861,2.62454628944,0.235282674432,-3.13646020951,-3.12875684235,-0.0357184495525
1551185462.78,0.0,0.0,0.0,0.0,0.0,0.0,0.0,0.0,0.0,0.0,0.0,0.0,0.0,0.0,0.0,0.0,0.0,0.0,0.0,0.0,0.0,-0.103976450861,2.62454628944,0.235282674432,-3.13646020951,-3.12875684235,-0.0357184495525
1551185462.79,0.0,0.0,0.0,0.0,0.0,0.0,0.0,0.0,0.0,0.0,0.0,0.0,0.0,0.0,0.0,0.0,0.0,0.0,0.0,0.0,0.0,-0.103954568505,2.62455749512,0.235268041492,-3.13657733624,-3.12848476031,-0.0354374020309
1551185462.8,0.0,0.0,0.0,0.0,0.0,0.0,0.0,0.0,0.0,0.0,0.0,0.0,0.0,0.0,0.0,0.0,0.0,0.0,0.0,0.0,0.0,-0.103975512087,2.62457060814,0.235275045037,-3.13596076425,-3.12901036704,-0.0354434389419
1551185462.81,0.0,0.0,0.0,0.0,0.0,0.0,0.0,0.0,0.0,0.0,0.0,0.0,0.0,0.0,0.0,0.0,0.0,0.0,0.0,0.0,0.0,-0.103968992829,2.62454938889,0.235267132521,-3.13683868076,-3.12875326584,-0.0353608955046
1551185462.82,0.0,0.0,0.0,0.0,0.0,0.0,0.0,0.0,0.0,0.0,0.0,0.0,0.0,0.0,0.0,0.0,0.0,0.0,0.0,0.0,0.0,-0.103968992829,2.62454938889,0.235267132521,-3.13683868076,-3.12875326584,-0.0353608955046
1551185462.83,0.0,0.0,0.0,0.0,0.0,0.0,0.0,0.0,0.0,0.0,0.0,0.0,0.0,0.0,0.0,0.0,0.0,0.0,0.0,0.0,0.0,-0.103955507278,2.62452936172,0.235252991319,-3.13744420511,-3.12893363593,-0.0349768604373
1551185462.84,0.0,0.0,0.0,0.0,0.0,0.0,0.0,0.0,0.0,0.0,0.0,0.0,0.0,0.0,0.0,0.0,0.0,0.0,0.0,0.0,0.0,-0.103955507278,2.62452936172,0.235252991319,-3.13744420511,-3.12893363593,-0.0349768604373
1551185462.85,0.0,0.0,0.0,0.0,0.0,0.0,0.0,0.0,0.0,0.0,0.0,0.0,0.0,0.0,0.0,0.0,0.0,0.0,0.0,0.0,0.0,-0.103962264955,2.62455034256,0.235263586044,-3.13692798448,-3.12874616704,-0.0353318019889
1551185462.86,0.0,0.0,0.0,0.0,0.0,0.0,0.0,0.0,0.0,0.0,0.0,0.0,0.0,0.0,0.0,0.0,0.0,0.0,0.0,0.0,0.0,-0.103962264955,2.62455034256,0.235263586044,-3.13692798448,-3.12874616704,-0.0353318019889
1551185462.87,0.0,0.0,0.0,0.0,0.0,0.0,0.0,0.0,0.0,0.0,0.0,0.0,0.0,0.0,0.0,0.0,0.0,0.0,0.0,0.0,0.0,-0.103979632258,2.62456536293,0.235282987356,-3.13656039677,-3.12872907879,-0.0357777675593
1551185462.88,0.0,0.0,0.0,0.0,0.0,0.0,0.0,0.0,0.0,0.0,0.0,0.0,0.0,0.0,0.0,0.0,0.0,0.0,0.0,0.0,0.0,-0.103979632258,2.62456536293,0.235282987356,-3.13656039677,-3.12872907879,-0.0357777675593
1551185462.89,0.0,0.0,0.0,0.0,0.0,0.0,0.0,0.0,0.0,0.0,0.0,0.0,0.0,0.0,0.0,0.0,0.0,0.0,0.0,0.0,0.0,-0.104003682733,2.62454819679,0.235286444426,-3.13636730338,-3.12861859047,-0.0357424516717
1551185462.9,0.0,0.0,0.0,0.0,0.0,0.0,0.0,0.0,0.0,0.0,0.0,0.0,0.0,0.0,0.0,0.0,0.0,0.0,0.0,0.0,0.0,-0.103985257447,2.62454462051,0.235276371241,-3.1366869779,-3.12839814578,-0.0356536734008
1551185462.91,0.0,0.0,0.0,0.0,0.0,0.0,0.0,0.0,0.0,0.0,0.0,0.0,0.0,0.0,0.0,0.0,0.0,0.0,0.0,0.0,0.0,-0.103983834386,2.62454319,0.235274493694,-3.13657159474,-3.12933043853,-0.0354283000582
1551185462.92,0.0,0.0,0.0,0.0,0.0,0.0,0.0,0.0,0.0,0.0,0.0,0.0,0.0,0.0,0.0,0.0,0.0,0.0,0.0,0.0,0.0,-0.103982269764,2.62455105782,0.235273167491,-3.13718783201,-3.12863580252,-0.0352686380682
1551185462.93,0.0,0.0,0.0,0.0,0.0,0.0,0.0,0.0,0.0,0.0,0.0,0.0,0.0,0.0,0.0,0.0,0.0,0.0,0.0,0.0,0.0,-0.103982269764,2.62455105782,0.235273167491,-3.13718783201,-3.12863580252,-0.0352686380682
1551185462.94,0.0,0.0,0.0,0.0,0.0,0.0,0.0,0.0,0.0,0.0,0.0,0.0,0.0,0.0,0.0,0.0,0.0,0.0,0.0,0.0,0.0,-0.103987492621,2.62455511093,0.235302597284,-3.13679698182,-3.12860522741,-0.0354885289976
1551185462.95,0.0,0.0,0.0,0.0,0.0,0.0,0.0,0.0,0.0,0.0,0.0,0.0,0.0,0.0,0.0,0.0,0.0,0.0,0.0,0.0,0.0,-0.103979386389,2.62455177307,0.235272184014,-3.13695192897,-3.12903854812,-0.0350582365537
1551185462.96,0.0,0.0,0.0,0.0,0.0,0.0,0.0,0.0,0.0,0.0,0.0,0.0,0.0,0.0,0.0,0.0,0.0,0.0,0.0,0.0,0.0,-0.103978075087,2.62456345558,0.235267102718,-3.13696241615,-3.12879615992,-0.0350944974931
1551185462.97,0.0,0.0,0.0,0.0,0.0,0.0,0.0,0.0,0.0,0.0,0.0,0.0,0.0,0.0,0.0,0.0,0.0,0.0,0.0,0.0,0.0,-0.103991225362,2.62456417084,0.235264420509,-3.136870427,-3.12881317633,-0.0352975815161
1551185462.98,0.0,0.0,0.0,0.0,0.0,0.0,0.0,0.0,0.0,0.0,0.0,0.0,0.0,0.0,0.0,0.0,0.0,0.0,0.0,0.0,0.0,-0.103977262974,2.62455892563,0.235267609358,-3.13706608005,-3.12881792502,-0.0348981254685
1551185462.99,0.0,0.0,0.0,0.0,0.0,0.0,0.0,0.0,0.0,0.0,0.0,0.0,0.0,0.0,0.0,0.0,0.0,0.0,0.0,0.0,0.0,-0.103977262974,2.62455892563,0.235267609358,-3.13706608005,-3.12881792502,-0.0348981254685
1551185463.0,0.0,0.0,0.0,0.0,0.0,0.0,0.0,0.0,0.0,0.0,0.0,0.0,0.0,0.0,0.0,0.0,0.0,0.0,0.0,0.0,0.0,-0.104001186788,2.62457442284,0.235300719738,-3.13628277226,-3.12821982548,-0.0357171919091
1551185463.01,0.0,0.0,0.0,0.0,0.0,0.0,0.0,0.0,0.0,0.0,0.0,0.0,0.0,0.0,0.0,0.0,0.0,0.0,0.0,0.0,0.0,-0.103982694447,2.62454533577,0.235273882747,-3.13657930604,-3.12886923251,-0.035569626098
1551185463.02,0.0,0.0,0.0,0.0,0.0,0.0,0.0,0.0,0.0,0.0,0.0,0.0,0.0,0.0,0.0,0.0,0.0,0.0,0.0,0.0,0.0,-0.103967912495,2.62455439568,0.235279604793,-3.13722103032,-3.12859626273,-0.0351402513585
1551185463.03,0.0,0.0,0.0,0.0,0.0,0.0,0.0,0.0,0.0,0.0,0.0,0.0,0.0,0.0,0.0,0.0,0.0,0.0,0.0,0.0,0.0,-0.103967912495,2.62455439568,0.235279604793,-3.13722103032,-3.12859626273,-0.0351402513585
1551185463.04,0.0,0.0,0.0,0.0,0.0,0.0,0.0,0.0,0.0,0.0,0.0,0.0,0.0,0.0,0.0,0.0,0.0,0.0,0.0,0.0,0.0,-0.103988967836,2.62456321716,0.235271453857,-3.13719540619,-3.12877960801,-0.0351474084101
1551185463.05,0.0,0.0,0.0,0.0,0.0,0.0,0.0,0.0,0.0,0.0,0.0,0.0,0.0,0.0,0.0,0.0,0.0,0.0,0.0,0.0,0.0,-0.103988967836,2.62456321716,0.235271453857,-3.13719540619,-3.12877960801,-0.0351474084101
1551185463.06,0.0,0.0,0.0,0.0,0.0,0.0,0.0,0.0,0.0,0.0,0.0,0.0,0.0,0.0,0.0,0.0,0.0,0.0,0.0,0.0,0.0,-0.103971257806,2.62456583977,0.235270246863,-3.13719107745,-3.12921938009,-0.0347709075314
1551185463.07,0.0,0.0,0.0,0.0,0.0,0.0,0.0,0.0,0.0,0.0,0.0,0.0,0.0,0.0,0.0,0.0,0.0,0.0,0.0,0.0,0.0,-0.103986270726,2.62456393242,0.235271498561,-3.13685818034,-3.12901311165,-0.0351856373358
1551185463.08,0.0,0.0,0.0,0.0,0.0,0.0,0.0,0.0,0.0,0.0,0.0,0.0,0.0,0.0,0.0,0.0,0.0,0.0,0.0,0.0,0.0,-0.103986270726,2.62456393242,0.235271498561,-3.13685818034,-3.12901311165,-0.0351856373358
1551185463.09,0.0,0.0,0.0,0.0,0.0,0.0,0.0,0.0,0.0,0.0,0.0,0.0,0.0,0.0,0.0,0.0,0.0,0.0,0.0,0.0,0.0,-0.103994734585,2.62455630302,0.235284611583,-3.13704871734,-3.12883351999,-0.0353540740831
1551185463.1,0.0,0.0,0.0,0.0,0.0,0.0,0.0,0.0,0.0,0.0,0.0,0.0,0.0,0.0,0.0,0.0,0.0,0.0,0.0,0.0,0.0,-0.103994734585,2.62455630302,0.235284611583,-3.13704871734,-3.12883351999,-0.0353540740831
1551185463.11,0.0,0.0,0.0,0.0,0.0,0.0,0.0,0.0,0.0,0.0,0.0,0.0,0.0,0.0,0.0,0.0,0.0,0.0,0.0,0.0,0.0,-0.103996813297,2.62455558777,0.235285118222,-3.13669054249,-3.12901988486,-0.0353316438712
1551185463.12,0.0,0.0,0.0,0.0,0.0,0.0,0.0,0.0,0.0,0.0,0.0,0.0,0.0,0.0,0.0,0.0,0.0,0.0,0.0,0.0,0.0,-0.103996813297,2.62455558777,0.235285118222,-3.13669054249,-3.12901988486,-0.0353316438712
1551185463.13,0.0,0.0,0.0,0.0,0.0,0.0,0.0,0.0,0.0,0.0,0.0,0.0,0.0,0.0,0.0,0.0,0.0,0.0,0.0,0.0,0.0,-0.103983856738,2.62455844879,0.235268965364,-3.13718607689,-3.12870556949,-0.0351409945058
1551185463.14,0.0,0.0,0.0,0.0,0.0,0.0,0.0,0.0,0.0,0.0,0.0,0.0,0.0,0.0,0.0,0.0,0.0,0.0,0.0,0.0,0.0,-0.103983856738,2.62455844879,0.235268965364,-3.13718607689,-3.12870556949,-0.0351409945058
1551185463.15,0.0,0.0,0.0,0.0,0.0,0.0,0.0,0.0,0.0,0.0,0.0,0.0,0.0,0.0,0.0,0.0,0.0,0.0,0.0,0.0,0.0,-0.103986367583,2.62455272675,0.235276460648,-3.13760003225,-3.12860477959,-0.0352034396096
1551185463.16,0.0,0.0,0.0,0.0,0.0,0.0,0.0,0.0,0.0,0.0,0.0,0.0,0.0,0.0,0.0,0.0,0.0,0.0,0.0,0.0,0.0,-0.103986367583,2.62455272675,0.235276460648,-3.13760003225,-3.12860477959,-0.0352034396096
1551185463.17,0.0,0.0,0.0,0.0,0.0,0.0,0.0,0.0,0.0,0.0,0.0,0.0,0.0,0.0,0.0,0.0,0.0,0.0,0.0,0.0,0.0,-0.103989504278,2.62456488609,0.23526135087,-3.13683373882,-3.12859836352,-0.0353364426104
1551185463.18,0.0,0.0,0.0,0.0,0.0,0.0,0.0,0.0,0.0,0.0,0.0,0.0,0.0,0.0,0.0,0.0,0.0,0.0,0.0,0.0,0.0,-0.103989504278,2.62456488609,0.23526135087,-3.13683373882,-3.12859836352,-0.0353364426104
1551185463.19,0.0,0.0,0.0,0.0,0.0,0.0,0.0,0.0,0.0,0.0,0.0,0.0,0.0,0.0,0.0,0.0,0.0,0.0,0.0,0.0,0.0,-0.103989653289,2.62455582619,0.235272541642,-3.13701463014,-3.12854614104,-0.03520500199
1551185463.2,0.0,0.0,0.0,0.0,0.0,0.0,0.0,0.0,0.0,0.0,0.0,0.0,0.0,0.0,0.0,0.0,0.0,0.0,0.0,0.0,0.0,-0.103991039097,2.62455511093,0.235270395875,-3.13766162858,-3.12873144498,-0.0350675764463
1551185463.21,0.0,0.0,0.0,0.0,0.0,0.0,0.0,0.0,0.0,0.0,0.0,0.0,0.0,0.0,0.0,0.0,0.0,0.0,0.0,0.0,0.0,-0.103986598551,2.62455606461,0.23527674377,-3.13693783693,-3.12873999113,-0.0353545162979
1551185463.22,0.0,0.0,0.0,0.0,0.0,0.0,0.0,0.0,0.0,0.0,0.0,0.0,0.0,0.0,0.0,0.0,0.0,0.0,0.0,0.0,0.0,-0.104004703462,2.6245598793,0.235275655985,-3.13630602083,-3.12880471904,-0.035612371372
1551185463.23,0.0,0.0,0.0,0.0,0.0,0.0,0.0,0.0,0.0,0.0,0.0,0.0,0.0,0.0,0.0,0.0,0.0,0.0,0.0,0.0,0.0,-0.103993415833,2.62457442284,0.235287874937,-3.13633380925,-3.12852556524,-0.035591302225
1551185463.24,0.0,0.0,0.0,0.0,0.0,0.0,0.0,0.0,0.0,0.0,0.0,0.0,0.0,0.0,0.0,0.0,0.0,0.0,0.0,0.0,0.0,-0.103993415833,2.62457442284,0.235287874937,-3.13633380925,-3.12852556524,-0.035591302225
1551185463.25,0.0,0.0,0.0,0.0,0.0,0.0,0.0,0.0,0.0,0.0,0.0,0.0,0.0,0.0,0.0,0.0,0.0,0.0,0.0,0.0,0.0,-0.103986874223,2.62457036972,0.235258683562,-3.13620027233,-3.12878751037,-0.0352404969179
1551185463.26,0.0,0.0,0.0,0.0,0.0,0.0,0.0,0.0,0.0,0.0,0.0,0.0,0.0,0.0,0.0,0.0,0.0,0.0,0.0,0.0,0.0,-0.103990331292,2.62456607819,0.235270351171,-3.13664599288,-3.12901081846,-0.0350425514993
1551185463.27,0.0,0.0,0.0,0.0,0.0,0.0,0.0,0.0,0.0,0.0,0.0,0.0,0.0,0.0,0.0,0.0,0.0,0.0,0.0,0.0,0.0,-0.103990331292,2.62456607819,0.235270351171,-3.13664599288,-3.12901081846,-0.0350425514993
1551185463.28,0.0,0.0,0.0,0.0,0.0,0.0,0.0,0.0,0.0,0.0,0.0,0.0,0.0,0.0,0.0,0.0,0.0,0.0,0.0,0.0,0.0,-0.104019790888,2.62457084656,0.235308617353,-3.13622024432,-3.12862180181,-0.0357931787305
1551185463.29,0.0,0.0,0.0,0.0,0.0,0.0,0.0,0.0,0.0,0.0,0.0,0.0,0.0,0.0,0.0,0.0,0.0,0.0,0.0,0.0,0.0,-0.104019790888,2.62457084656,0.235308617353,-3.13622024432,-3.12862180181,-0.0357931787305
1551185463.3,0.0,0.0,0.0,0.0,0.0,0.0,0.0,0.0,0.0,0.0,0.0,0.0,0.0,0.0,0.0,0.0,0.0,0.0,0.0,0.0,0.0,-0.103972621262,2.62455248833,0.235247448087,-3.13725470052,-3.12903002925,-0.0348260480865
1551185463.31,0.0,0.0,0.0,0.0,0.0,0.0,0.0,0.0,0.0,0.0,0.0,0.0,0.0,0.0,0.0,0.0,0.0,0.0,0.0,0.0,0.0,-0.103972621262,2.62455248833,0.235247448087,-3.13725470052,-3.12903002925,-0.0348260480865
1551185463.32,0.0,0.0,0.0,0.0,0.0,0.0,0.0,0.0,0.0,0.0,0.0,0.0,0.0,0.0,0.0,0.0,0.0,0.0,0.0,0.0,0.0,-0.103981301188,2.62456679344,0.235276728868,-3.13639927923,-3.12877023989,-0.0353418537952
1551185463.33,0.0,0.0,0.0,0.0,0.0,0.0,0.0,0.0,0.0,0.0,0.0,0.0,0.0,0.0,0.0,0.0,0.0,0.0,0.0,0.0,0.0,-0.103981301188,2.62456679344,0.235276728868,-3.13639927923,-3.12877023989,-0.0353418537952
1551185463.34,0.0,0.0,0.0,0.0,0.0,0.0,0.0,0.0,0.0,0.0,0.0,0.0,0.0,0.0,0.0,0.0,0.0,0.0,0.0,0.0,0.0,-0.104003980756,2.62455296516,0.235282704234,-3.13617104637,-3.12891728803,-0.0355466171329
1551185463.35,0.0,0.0,0.0,0.0,0.0,0.0,0.0,0.0,0.0,0.0,0.0,0.0,0.0,0.0,0.0,0.0,0.0,0.0,0.0,0.0,0.0,-0.104003980756,2.62455296516,0.235282704234,-3.13617104637,-3.12891728803,-0.0355466171329
1551185463.36,0.0,0.0,0.0,0.0,0.0,0.0,0.0,0.0,0.0,0.0,0.0,0.0,0.0,0.0,0.0,0.0,0.0,0.0,0.0,0.0,0.0,-0.104017145932,2.624563694,0.235291600227,-3.13613965556,-3.12867725678,-0.0359943595412
1551185463.37,0.0,0.0,0.0,0.0,0.0,0.0,0.0,0.0,0.0,0.0,0.0,0.0,0.0,0.0,0.0,0.0,0.0,0.0,0.0,0.0,0.0,-0.103991575539,2.6245598793,0.235269963741,-3.13698567434,-3.12883169981,-0.0353361500251
1551185463.38,0.0,0.0,0.0,0.0,0.0,0.0,0.0,0.0,0.0,0.0,0.0,0.0,0.0,0.0,0.0,0.0,0.0,0.0,0.0,0.0,0.0,-0.103969581425,2.62455821037,0.235265091062,-3.13698297691,-3.12891524938,-0.035210153398
1551185463.39,0.0,0.0,0.0,0.0,0.0,0.0,0.0,0.0,0.0,0.0,0.0,0.0,0.0,0.0,0.0,0.0,0.0,0.0,0.0,0.0,0.0,-0.103969581425,2.62455821037,0.235265091062,-3.13698297691,-3.12891524938,-0.035210153398
1551185463.4,0.0,0.0,0.0,0.0,0.0,0.0,0.0,0.0,0.0,0.0,0.0,0.0,0.0,0.0,0.0,0.0,0.0,0.0,0.0,0.0,0.0,-0.103967063129,2.62455296516,0.235260158777,-3.13658969041,-3.12917267942,-0.0352511839898
1551185463.41,0.0,0.0,0.0,0.0,0.0,0.0,0.0,0.0,0.0,0.0,0.0,0.0,0.0,0.0,0.0,0.0,0.0,0.0,0.0,0.0,0.0,-0.103969149292,2.62455534935,0.235263302922,-3.13701429034,-3.12892000009,-0.0350683073367
1551185463.42,0.0,0.0,0.0,0.0,0.0,0.0,0.0,0.0,0.0,0.0,0.0,0.0,0.0,0.0,0.0,0.0,0.0,0.0,0.0,0.0,0.0,-0.103971995413,2.62455034256,0.235267430544,-3.13637125375,-3.12864634169,-0.0356691653583
1551185463.43,0.0,0.0,0.0,0.0,0.0,0.0,0.0,0.0,0.0,0.0,0.0,0.0,0.0,0.0,0.0,0.0,0.0,0.0,0.0,0.0,0.0,-0.103971995413,2.62455034256,0.235267430544,-3.13637125375,-3.12864634169,-0.0356691653583
1551185463.44,0.0,0.0,0.0,0.0,0.0,0.0,0.0,0.0,0.0,0.0,0.0,0.0,0.0,0.0,0.0,0.0,0.0,0.0,0.0,0.0,0.0,-0.103984817863,2.62455582619,0.235262140632,-3.13655749608,-3.12916380991,-0.0353961402969
1551185463.45,0.0,0.0,0.0,0.0,0.0,0.0,0.0,0.0,0.0,0.0,0.0,0.0,0.0,0.0,0.0,0.0,0.0,0.0,0.0,0.0,0.0,-0.103989690542,2.62454652786,0.235254734755,-3.13678761694,-3.12854994639,-0.0352848932068
1551185463.46,0.0,0.0,0.0,0.0,0.0,0.0,0.0,0.0,0.0,0.0,0.0,0.0,0.0,0.0,0.0,0.0,0.0,0.0,0.0,0.0,0.0,-0.103989690542,2.62454652786,0.235254734755,-3.13678761694,-3.12854994639,-0.0352848932068
1551185463.47,0.0,0.0,0.0,0.0,0.0,0.0,0.0,0.0,0.0,0.0,0.0,0.0,0.0,0.0,0.0,0.0,0.0,0.0,0.0,0.0,0.0,-0.10400134325,2.62455129623,0.235284760594,-3.13628047634,-3.12857095524,-0.0358452831661
1551185463.48,0.0,0.0,0.0,0.0,0.0,0.0,0.0,0.0,0.0,0.0,0.0,0.0,0.0,0.0,0.0,0.0,0.0,0.0,0.0,0.0,0.0,-0.10400134325,2.62455129623,0.235284760594,-3.13628047634,-3.12857095524,-0.0358452831661
1551185463.49,0.0,0.0,0.0,0.0,0.0,0.0,0.0,0.0,0.0,0.0,0.0,0.0,0.0,0.0,0.0,0.0,0.0,0.0,0.0,0.0,0.0,-0.10396849364,2.62454605103,0.235257923603,-3.13695323251,-3.12881764771,-0.0353599390712
1551185463.5,0.0,0.0,0.0,0.0,0.0,0.0,0.0,0.0,0.0,0.0,0.0,0.0,0.0,0.0,0.0,0.0,0.0,0.0,0.0,0.0,0.0,-0.103967882693,2.62454319,0.235256806016,-3.13623015728,-3.12893125003,-0.0358411703213
1551185463.51,0.0,0.0,0.0,0.0,0.0,0.0,0.0,0.0,0.0,0.0,0.0,0.0,0.0,0.0,0.0,0.0,0.0,0.0,0.0,0.0,0.0,-0.103983424604,2.62456035614,0.235267058015,-3.13622687383,-3.12862598381,-0.0357319593109
1551185463.52,0.0,0.0,0.0,0.0,0.0,0.0,0.0,0.0,0.0,0.0,0.0,0.0,0.0,0.0,0.0,0.0,0.0,0.0,0.0,0.0,0.0,-0.103983424604,2.62456035614,0.235267058015,-3.13622687383,-3.12862598381,-0.0357319593109
1551185463.53,0.0,0.0,0.0,0.0,0.0,0.0,0.0,0.0,0.0,0.0,0.0,0.0,0.0,0.0,0.0,0.0,0.0,0.0,0.0,0.0,0.0,-0.103970937431,2.6245572567,0.235257476568,-3.13636278258,-3.12896390189,-0.0354995906941
1551185463.54,0.0,0.0,0.0,0.0,0.0,0.0,0.0,0.0,0.0,0.0,0.0,0.0,0.0,0.0,0.0,0.0,0.0,0.0,0.0,0.0,0.0,-0.103985987604,2.62455272675,0.23525480926,-3.13603159766,-3.12830241918,-0.0360158599322
1551185463.55,0.0,0.0,0.0,0.0,0.0,0.0,0.0,0.0,0.0,0.0,0.0,0.0,0.0,0.0,0.0,0.0,0.0,0.0,0.0,0.0,0.0,-0.10401211679,2.62454605103,0.235300883651,-3.13587605369,-3.12848932928,-0.0360655766319
1551185463.56,0.0,0.0,0.0,0.0,0.0,0.0,0.0,0.0,0.0,0.0,0.0,0.0,0.0,0.0,0.0,0.0,0.0,0.0,0.0,0.0,0.0,-0.10401211679,2.62454605103,0.235300883651,-3.13587605369,-3.12848932928,-0.0360655766319
1551185463.57,0.0,0.0,0.0,0.0,0.0,0.0,0.0,0.0,0.0,0.0,0.0,0.0,0.0,0.0,0.0,0.0,0.0,0.0,0.0,0.0,0.0,-0.103982664645,2.62454819679,0.235259562731,-3.13657767548,-3.12849452238,-0.0357256609877
1551185463.58,0.0,0.0,0.0,0.0,0.0,0.0,0.0,0.0,0.0,0.0,0.0,0.0,0.0,0.0,0.0,0.0,0.0,0.0,0.0,0.0,0.0,-0.103982664645,2.62454819679,0.235259562731,-3.13657767548,-3.12849452238,-0.0357256609877
1551185463.59,0.0,0.0,0.0,0.0,0.0,0.0,0.0,0.0,0.0,0.0,0.0,0.0,0.0,0.0,0.0,0.0,0.0,0.0,0.0,0.0,0.0,-0.103968262672,2.62454366684,0.235238030553,-3.13644050103,-3.12878662761,-0.0355070492202
1551185463.6,0.0,0.0,0.0,0.0,0.0,0.0,0.0,0.0,0.0,0.0,0.0,0.0,0.0,0.0,0.0,0.0,0.0,0.0,0.0,0.0,0.0,-0.103985436261,2.62454032898,0.235273033381,-3.13629211342,-3.12897811774,-0.0356978843788
1551185463.61,0.0,0.0,0.0,0.0,0.0,0.0,0.0,0.0,0.0,0.0,0.0,0.0,0.0,0.0,0.0,0.0,0.0,0.0,0.0,0.0,0.0,-0.103985436261,2.62454032898,0.235273033381,-3.13629211342,-3.12897811774,-0.0356978843788
1551185463.62,0.0,0.0,0.0,0.0,0.0,0.0,0.0,0.0,0.0,0.0,0.0,0.0,0.0,0.0,0.0,0.0,0.0,0.0,0.0,0.0,0.0,-0.10397477448,2.62454223633,0.235257700086,-3.13668846005,-3.12864655689,-0.0354143293268
1551185463.63,0.0,0.0,0.0,0.0,0.0,0.0,0.0,0.0,0.0,0.0,0.0,0.0,0.0,0.0,0.0,0.0,0.0,0.0,0.0,0.0,0.0,-0.103990867734,2.62454342842,0.235274001956,-3.13635553896,-3.12883192041,-0.0357777664146
1551185463.64,0.0,0.0,0.0,0.0,0.0,0.0,0.0,0.0,0.0,0.0,0.0,0.0,0.0,0.0,0.0,0.0,0.0,0.0,0.0,0.0,0.0,-0.103990867734,2.62454342842,0.235274001956,-3.13635553896,-3.12883192041,-0.0357777664146
1551185463.65,0.0,0.0,0.0,0.0,0.0,0.0,0.0,0.0,0.0,0.0,0.0,0.0,0.0,0.0,0.0,0.0,0.0,0.0,0.0,0.0,0.0,-0.103989131749,2.62455320358,0.235267654061,-3.13645239534,-3.12838697793,-0.0355301687408
1551185463.66,0.0,0.0,0.0,0.0,0.0,0.0,0.0,0.0,0.0,0.0,0.0,0.0,0.0,0.0,0.0,0.0,0.0,0.0,0.0,0.0,0.0,-0.103989131749,2.62455320358,0.235267654061,-3.13645239534,-3.12838697793,-0.0355301687408
1551185463.67,0.0,0.0,0.0,0.0,0.0,0.0,0.0,0.0,0.0,0.0,0.0,0.0,0.0,0.0,0.0,0.0,0.0,0.0,0.0,0.0,0.0,-0.103978455067,2.62454509735,0.235258430243,-3.1364260961,-3.1289752164,-0.0355667427978
1551185463.68,0.0,0.0,0.0,0.0,0.0,0.0,0.0,0.0,0.0,0.0,0.0,0.0,0.0,0.0,0.0,0.0,0.0,0.0,0.0,0.0,0.0,-0.103978455067,2.62454509735,0.235258430243,-3.1364260961,-3.1289752164,-0.0355667427978
1551185463.69,0.0,0.0,0.0,0.0,0.0,0.0,0.0,0.0,0.0,0.0,0.0,0.0,0.0,0.0,0.0,0.0,0.0,0.0,0.0,0.0,0.0,-0.103969179094,2.62455821037,0.235260307789,-3.13681734005,-3.12869766976,-0.0351143726185
1551185463.7,0.0,0.0,0.0,0.0,0.0,0.0,0.0,0.0,0.0,0.0,0.0,0.0,0.0,0.0,0.0,0.0,0.0,0.0,0.0,0.0,0.0,-0.103983879089,2.6245508194,0.235248669982,-3.13680734872,-3.12886595873,-0.0353946998261
1551185463.71,0.0,0.0,0.0,0.0,0.0,0.0,0.0,0.0,0.0,0.0,0.0,0.0,0.0,0.0,0.0,0.0,0.0,0.0,0.0,0.0,0.0,-0.103983879089,2.6245508194,0.235248669982,-3.13680734872,-3.12886595873,-0.0353946998261
1551185463.72,0.0,0.0,0.0,0.0,0.0,0.0,0.0,0.0,0.0,0.0,0.0,0.0,0.0,0.0,0.0,0.0,0.0,0.0,0.0,0.0,0.0,-0.103972986341,2.62454533577,0.235235124826,-3.13706947569,-3.128794367,-0.035307405539
1551185463.73,0.0,0.0,0.0,0.0,0.0,0.0,0.0,0.0,0.0,0.0,0.0,0.0,0.0,0.0,0.0,0.0,0.0,0.0,0.0,0.0,0.0,-0.10399261117,2.62453365326,0.235257744789,-3.13641227272,-3.1285674975,-0.035524229598
1551185463.74,0.0,0.0,0.0,0.0,0.0,0.0,0.0,0.0,0.0,0.0,0.0,0.0,0.0,0.0,0.0,0.0,0.0,0.0,0.0,0.0,0.0,-0.10399261117,2.62453365326,0.235257744789,-3.13641227272,-3.1285674975,-0.035524229598
1551185463.75,0.0,0.0,0.0,0.0,0.0,0.0,0.0,0.0,0.0,0.0,0.0,0.0,0.0,0.0,0.0,0.0,0.0,0.0,0.0,0.0,0.0,-0.10397400707,2.62455201149,0.235235154629,-3.13701550177,-3.12876849,-0.0353271318582
1551185463.76,0.0,0.0,0.0,0.0,0.0,0.0,0.0,0.0,0.0,0.0,0.0,0.0,0.0,0.0,0.0,0.0,0.0,0.0,0.0,0.0,0.0,-0.103972055018,2.62455749512,0.235240578651,-3.13711325919,-3.12869161305,-0.0353535475041
1551185463.77,0.0,0.0,0.0,0.0,0.0,0.0,0.0,0.0,0.0,0.0,0.0,0.0,0.0,0.0,0.0,0.0,0.0,0.0,0.0,0.0,0.0,-0.103953845799,2.62455415726,0.235218405724,-3.13725460776,-3.12898522663,-0.0350024878268
1551185463.78,0.0,0.0,0.0,0.0,0.0,0.0,0.0,0.0,0.0,0.0,0.0,0.0,0.0,0.0,0.0,0.0,0.0,0.0,0.0,0.0,0.0,-0.103955090046,2.62454628944,0.235223829746,-3.13729469362,-3.12904873052,-0.0349817506167
1551185463.79,0.0,0.0,0.0,0.0,0.0,0.0,0.0,0.0,0.0,0.0,0.0,0.0,0.0,0.0,0.0,0.0,0.0,0.0,0.0,0.0,0.0,-0.103955090046,2.62454628944,0.235223829746,-3.13729469362,-3.12904873052,-0.0349817506167
1551185463.8,0.0,0.0,0.0,0.0,0.0,0.0,0.0,0.0,0.0,0.0,0.0,0.0,0.0,0.0,0.0,0.0,0.0,0.0,0.0,0.0,0.0,-0.103972844779,2.62454867363,0.235229298472,-3.1372083869,-3.12915600173,-0.0349309033329
1551185463.81,0.0,0.0,0.0,0.0,0.0,0.0,0.0,0.0,0.0,0.0,0.0,0.0,0.0,0.0,0.0,0.0,0.0,0.0,0.0,0.0,0.0,-0.103964969516,2.62454366684,0.235209599137,-3.13753827101,-3.12901489051,-0.0347179586117
1551185463.82,0.0,0.0,0.0,0.0,0.0,0.0,0.0,0.0,0.0,0.0,0.0,0.0,0.0,0.0,0.0,0.0,0.0,0.0,0.0,0.0,0.0,-0.103967107832,2.62454271317,0.235224977136,-3.1370040785,-3.12911413631,-0.0350665219816
1551185463.83,0.0,0.0,0.0,0.0,0.0,0.0,0.0,0.0,0.0,0.0,0.0,0.0,0.0,0.0,0.0,0.0,0.0,0.0,0.0,0.0,0.0,-0.103967107832,2.62454271317,0.235224977136,-3.1370040785,-3.12911413631,-0.0350665219816
1551185463.84,0.0,0.0,0.0,0.0,0.0,0.0,0.0,0.0,0.0,0.0,0.0,0.0,0.0,0.0,0.0,0.0,0.0,0.0,0.0,0.0,0.0,-0.103971138597,2.62453842163,0.235228478909,-3.13711916246,-3.12865053637,-0.0352838935264
1551185463.85,0.0,0.0,0.0,0.0,0.0,0.0,0.0,0.0,0.0,0.0,0.0,0.0,0.0,0.0,0.0,0.0,0.0,0.0,0.0,0.0,0.0,-0.103949427605,2.62454175949,0.235216155648,-3.13746441025,-3.12926303086,-0.0344571008625
1551185463.86,0.0,0.0,0.0,0.0,0.0,0.0,0.0,0.0,0.0,0.0,0.0,0.0,0.0,0.0,0.0,0.0,0.0,0.0,0.0,0.0,0.0,-0.103964932263,2.62455248833,0.235240638256,-3.13701269461,-3.12875706352,-0.0350664647257
1551185463.87,0.0,0.0,0.0,0.0,0.0,0.0,0.0,0.0,0.0,0.0,0.0,0.0,0.0,0.0,0.0,0.0,0.0,0.0,0.0,0.0,0.0,-0.103964932263,2.62455248833,0.235240638256,-3.13701269461,-3.12875706352,-0.0350664647257
1551185463.88,0.0,0.0,0.0,0.0,0.0,0.0,0.0,0.0,0.0,0.0,0.0,0.0,0.0,0.0,0.0,0.0,0.0,0.0,0.0,0.0,0.0,-0.103969290853,2.62454557419,0.235241129994,-3.13762538985,-3.12867942566,-0.0349480265574
1551185463.89,0.0,0.0,0.0,0.0,0.0,0.0,0.0,0.0,0.0,0.0,0.0,0.0,0.0,0.0,0.0,0.0,0.0,0.0,0.0,0.0,0.0,-0.103969290853,2.62454557419,0.235241129994,-3.13762538985,-3.12867942566,-0.0349480265574
1551185463.9,0.0,0.0,0.0,0.0,0.0,0.0,0.0,0.0,0.0,0.0,0.0,0.0,0.0,0.0,0.0,0.0,0.0,0.0,0.0,0.0,0.0,-0.103984490037,2.62453889847,0.235259354115,-3.13727986982,-3.12895127905,-0.0352126702928
1551185463.91,0.0,0.0,0.0,0.0,0.0,0.0,0.0,0.0,0.0,0.0,0.0,0.0,0.0,0.0,0.0,0.0,0.0,0.0,0.0,0.0,0.0,-0.103983409703,2.62452363968,0.235244750977,-3.13731424417,-3.12879636969,-0.0352934250643
1551185463.92,0.0,0.0,0.0,0.0,0.0,0.0,0.0,0.0,0.0,0.0,0.0,0.0,0.0,0.0,0.0,0.0,0.0,0.0,0.0,0.0,0.0,-0.103983409703,2.62452363968,0.235244750977,-3.13731424417,-3.12879636969,-0.0352934250643
1551185463.93,0.0,0.0,0.0,0.0,0.0,0.0,0.0,0.0,0.0,0.0,0.0,0.0,0.0,0.0,0.0,0.0,0.0,0.0,0.0,0.0,0.0,-0.103992685676,2.62455415726,0.235261768103,-3.13695907193,-3.12845944331,-0.0356596468654
1551185463.94,0.0,0.0,0.0,0.0,0.0,0.0,0.0,0.0,0.0,0.0,0.0,0.0,0.0,0.0,0.0,0.0,0.0,0.0,0.0,0.0,0.0,-0.103992685676,2.62455415726,0.235261768103,-3.13695907193,-3.12845944331,-0.0356596468654
1551185463.95,0.0,0.0,0.0,0.0,0.0,0.0,0.0,0.0,0.0,0.0,0.0,0.0,0.0,0.0,0.0,0.0,0.0,0.0,0.0,0.0,0.0,-0.103985600173,2.62455010414,0.235267996788,-3.13684785365,-3.12880782126,-0.0352537412636
1551185463.96,0.0,0.0,0.0,0.0,0.0,0.0,0.0,0.0,0.0,0.0,0.0,0.0,0.0,0.0,0.0,0.0,0.0,0.0,0.0,0.0,0.0,-0.103985600173,2.62455010414,0.235267996788,-3.13684785365,-3.12880782126,-0.0352537412636
1551185463.97,0.0,0.0,0.0,0.0,0.0,0.0,0.0,0.0,0.0,0.0,0.0,0.0,0.0,0.0,0.0,0.0,0.0,0.0,0.0,0.0,0.0,-0.103974170983,2.62453699112,0.23526071012,-3.13738390781,-3.12918471134,-0.0347598756325
1551185463.98,0.0,0.0,0.0,0.0,0.0,0.0,0.0,0.0,0.0,0.0,0.0,0.0,0.0,0.0,0.0,0.0,0.0,0.0,0.0,0.0,0.0,-0.103977836668,2.62454986572,0.235272631049,-3.1369503669,-3.12910420306,-0.0352989265543
1551185463.99,0.0,0.0,0.0,0.0,0.0,0.0,0.0,0.0,0.0,0.0,0.0,0.0,0.0,0.0,0.0,0.0,0.0,0.0,0.0,0.0,0.0,-0.103977836668,2.62454986572,0.235272631049,-3.1369503669,-3.12910420306,-0.0352989265543
1551185464.0,0.0,0.0,0.0,0.0,0.0,0.0,0.0,0.0,0.0,0.0,0.0,0.0,0.0,0.0,0.0,0.0,0.0,0.0,0.0,0.0,0.0,-0.103982925415,2.62454319,0.235272288322,-3.13733558865,-3.12904834523,-0.035173790435
1551185464.01,0.0,0.0,0.0,0.0,0.0,0.0,0.0,0.0,0.0,0.0,0.0,0.0,0.0,0.0,0.0,0.0,0.0,0.0,0.0,0.0,0.0,-0.103982925415,2.62454319,0.235272288322,-3.13733558865,-3.12904834523,-0.035173790435
1551185464.02,0.0,0.0,0.0,0.0,0.0,0.0,0.0,0.0,0.0,0.0,0.0,0.0,0.0,0.0,0.0,0.0,0.0,0.0,0.0,0.0,0.0,-0.104007802904,2.62455153465,0.235305353999,-3.13659721087,-3.1284602022,-0.035590249434
1551185464.03,0.0,0.0,0.0,0.0,0.0,0.0,0.0,0.0,0.0,0.0,0.0,0.0,0.0,0.0,0.0,0.0,0.0,0.0,0.0,0.0,0.0,-0.103992439806,2.62455439568,0.23528778553,-3.13685548756,-3.12872808049,-0.0353792615458
1551185464.04,0.0,0.0,0.0,0.0,0.0,0.0,0.0,0.0,0.0,0.0,0.0,0.0,0.0,0.0,0.0,0.0,0.0,0.0,0.0,0.0,0.0,-0.103992439806,2.62455439568,0.23528778553,-3.13685548756,-3.12872808049,-0.0353792615458
1551185464.05,0.0,0.0,0.0,0.0,0.0,0.0,0.0,0.0,0.0,0.0,0.0,0.0,0.0,0.0,0.0,0.0,0.0,0.0,0.0,0.0,0.0,-0.103972233832,2.62453961372,0.235267698765,-3.13713077682,-3.12878869511,-0.0352040114874
1551185464.06,0.0,0.0,0.0,0.0,0.0,0.0,0.0,0.0,0.0,0.0,0.0,0.0,0.0,0.0,0.0,0.0,0.0,0.0,0.0,0.0,0.0,-0.103994205594,2.62455010414,0.235285356641,-3.1372310801,-3.12864339625,-0.0352710398843
1551185464.07,0.0,0.0,0.0,0.0,0.0,0.0,0.0,0.0,0.0,0.0,0.0,0.0,0.0,0.0,0.0,0.0,0.0,0.0,0.0,0.0,0.0,-0.103994205594,2.62455010414,0.235285356641,-3.1372310801,-3.12864339625,-0.0352710398843
1551185464.08,0.0,0.0,0.0,0.0,0.0,0.0,0.0,0.0,0.0,0.0,0.0,0.0,0.0,0.0,0.0,0.0,0.0,0.0,0.0,0.0,0.0,-0.10398979485,2.62455296516,0.235295385122,-3.13719250489,-3.1288515619,-0.0350249152362
1551185464.09,0.0,0.0,0.0,0.0,0.0,0.0,0.0,0.0,0.0,0.0,0.0,0.0,0.0,0.0,0.0,0.0,0.0,0.0,0.0,0.0,0.0,-0.10398298502,2.62453579903,0.235274553299,-3.13741105288,-3.1289948643,-0.0351013052467
1551185464.1,0.0,0.0,0.0,0.0,0.0,0.0,0.0,0.0,0.0,0.0,0.0,0.0,0.0,0.0,0.0,0.0,0.0,0.0,0.0,0.0,0.0,-0.103996127844,2.6245598793,0.235295668244,-3.13695587929,-3.12880319049,-0.0351830775392
1551185464.11,0.0,0.0,0.0,0.0,0.0,0.0,0.0,0.0,0.0,0.0,0.0,0.0,0.0,0.0,0.0,0.0,0.0,0.0,0.0,0.0,0.0,-0.103996127844,2.6245598793,0.235295668244,-3.13695587929,-3.12880319049,-0.0351830775392
1551185464.12,0.0,0.0,0.0,0.0,0.0,0.0,0.0,0.0,0.0,0.0,0.0,0.0,0.0,0.0,0.0,0.0,0.0,0.0,0.0,0.0,0.0,-0.103991366923,2.62456583977,0.235286921263,-3.13694896778,-3.1287637921,-0.035419001309
1551185464.13,0.0,0.0,0.0,0.0,0.0,0.0,0.0,0.0,0.0,0.0,0.0,0.0,0.0,0.0,0.0,0.0,0.0,0.0,0.0,0.0,0.0,-0.103991366923,2.62456583977,0.235286921263,-3.13694896778,-3.1287637921,-0.035419001309
1551185464.14,0.0,0.0,0.0,0.0,0.0,0.0,0.0,0.0,0.0,0.0,0.0,0.0,0.0,0.0,0.0,0.0,0.0,0.0,0.0,0.0,0.0,-0.104000382125,2.62455892563,0.235299497843,-3.13684705524,-3.12896178519,-0.0354455928707
1551185464.15,0.0,0.0,0.0,0.0,0.0,0.0,0.0,0.0,0.0,0.0,0.0,0.0,0.0,0.0,0.0,0.0,0.0,0.0,0.0,0.0,0.0,-0.103978648782,2.62456321716,0.235287681222,-3.13683149189,-3.12882964679,-0.0350896028467
1551185464.16,0.0,0.0,0.0,0.0,0.0,0.0,0.0,0.0,0.0,0.0,0.0,0.0,0.0,0.0,0.0,0.0,0.0,0.0,0.0,0.0,0.0,-0.103978648782,2.62456321716,0.235287681222,-3.13683149189,-3.12882964679,-0.0350896028467
1551185464.17,0.0,0.0,0.0,0.0,0.0,0.0,0.0,0.0,0.0,0.0,0.0,0.0,0.0,0.0,0.0,0.0,0.0,0.0,0.0,0.0,0.0,-0.104004606605,2.62455797195,0.235300138593,-3.13657079982,-3.1288360188,-0.0353949195947
1551185464.18,0.0,0.0,0.0,0.0,0.0,0.0,0.0,0.0,0.0,0.0,0.0,0.0,0.0,0.0,0.0,0.0,0.0,0.0,0.0,0.0,0.0,-0.104004606605,2.62455797195,0.235300138593,-3.13657079982,-3.1288360188,-0.0353949195947
1551185464.19,0.0,0.0,0.0,0.0,0.0,0.0,0.0,0.0,0.0,0.0,0.0,0.0,0.0,0.0,0.0,0.0,0.0,0.0,0.0,0.0,0.0,-0.103974416852,2.624553442,0.235255613923,-3.13746434741,-3.12866332801,-0.0350241494033
1551185464.2,0.0,0.0,0.0,0.0,0.0,0.0,0.0,0.0,0.0,0.0,0.0,0.0,0.0,0.0,0.0,0.0,0.0,0.0,0.0,0.0,0.0,-0.103974416852,2.624553442,0.235255613923,-3.13746434741,-3.12866332801,-0.0350241494033
1551185464.21,0.0,0.0,0.0,0.0,0.0,0.0,0.0,0.0,0.0,0.0,0.0,0.0,0.0,0.0,0.0,0.0,0.0,0.0,0.0,0.0,0.0,-0.1039955616,2.62454795837,0.235282927752,-3.13671867366,-3.12897305906,-0.0354845141973
1551185464.22,0.0,0.0,0.0,0.0,0.0,0.0,0.0,0.0,0.0,0.0,0.0,0.0,0.0,0.0,0.0,0.0,0.0,0.0,0.0,0.0,0.0,-0.104001812637,2.62454581261,0.235282078385,-3.13677204909,-3.12878945617,-0.0353429237604
1551185464.23,0.0,0.0,0.0,0.0,0.0,0.0,0.0,0.0,0.0,0.0,0.0,0.0,0.0,0.0,0.0,0.0,0.0,0.0,0.0,0.0,0.0,-0.104001812637,2.62454581261,0.235282078385,-3.13677204909,-3.12878945617,-0.0353429237604
1551185464.24,0.0,0.0,0.0,0.0,0.0,0.0,0.0,0.0,0.0,0.0,0.0,0.0,0.0,0.0,0.0,0.0,0.0,0.0,0.0,0.0,0.0,-0.103994809091,2.62454795837,0.235263586044,-3.13693711039,-3.1290987657,-0.0352899127119
1551185464.25,0.0,0.0,0.0,0.0,0.0,0.0,0.0,0.0,0.0,0.0,0.0,0.0,0.0,0.0,0.0,0.0,0.0,0.0,0.0,0.0,0.0,-0.103994809091,2.62454795837,0.235263586044,-3.13693711039,-3.1290987657,-0.0352899127119
1551185464.26,0.0,0.0,0.0,0.0,0.0,0.0,0.0,0.0,0.0,0.0,0.0,0.0,0.0,0.0,0.0,0.0,0.0,0.0,0.0,0.0,0.0,-0.103991255164,2.62454938889,0.23530241847,-3.1368456148,-3.1286952982,-0.0353179885185
1551185464.27,0.0,0.0,0.0,0.0,0.0,0.0,0.0,0.0,0.0,0.0,0.0,0.0,0.0,0.0,0.0,0.0,0.0,0.0,0.0,0.0,0.0,-0.103991255164,2.62454938889,0.23530241847,-3.1368456148,-3.1286952982,-0.0353179885185
1551185464.28,0.0,0.0,0.0,0.0,0.0,0.0,0.0,0.0,0.0,0.0,0.0,0.0,0.0,0.0,0.0,0.0,0.0,0.0,0.0,0.0,0.0,-0.103999063373,2.6245367527,0.235287740827,-3.13649390968,-3.12887265981,-0.035646067599
1551185464.29,0.0,0.0,0.0,0.0,0.0,0.0,0.0,0.0,0.0,0.0,0.0,0.0,0.0,0.0,0.0,0.0,0.0,0.0,0.0,0.0,0.0,-0.103999063373,2.6245367527,0.235287740827,-3.13649390968,-3.12887265981,-0.035646067599
1551185464.3,0.0,0.0,0.0,0.0,0.0,0.0,0.0,0.0,0.0,0.0,0.0,0.0,0.0,0.0,0.0,0.0,0.0,0.0,0.0,0.0,0.0,-0.103995427489,2.62455892563,0.235284775496,-3.13617583549,-3.12891038293,-0.035497035572
1551185464.31,0.0,0.0,0.0,0.0,0.0,0.0,0.0,0.0,0.0,0.0,0.0,0.0,0.0,0.0,0.0,0.0,0.0,0.0,0.0,0.0,0.0,-0.103995427489,2.62455892563,0.235284775496,-3.13617583549,-3.12891038293,-0.035497035572
1551185464.32,0.0,0.0,0.0,0.0,0.0,0.0,0.0,0.0,0.0,0.0,0.0,0.0,0.0,0.0,0.0,0.0,0.0,0.0,0.0,0.0,0.0,-0.103997550905,2.6245572567,0.235287740827,-3.13680817177,-3.12825726907,-0.0353965530496
1551185464.33,0.0,0.0,0.0,0.0,0.0,0.0,0.0,0.0,0.0,0.0,0.0,0.0,0.0,0.0,0.0,0.0,0.0,0.0,0.0,0.0,0.0,-0.103997550905,2.6245572567,0.235287740827,-3.13680817177,-3.12825726907,-0.0353965530496
1551185464.34,0.0,0.0,0.0,0.0,0.0,0.0,0.0,0.0,0.0,0.0,0.0,0.0,0.0,0.0,0.0,0.0,0.0,0.0,0.0,0.0,0.0,-0.103996358812,2.62455487251,0.23529741168,-3.13661837324,-3.12872221691,-0.035411355212
1551185464.35,0.0,0.0,0.0,0.0,0.0,0.0,0.0,0.0,0.0,0.0,0.0,0.0,0.0,0.0,0.0,0.0,0.0,0.0,0.0,0.0,0.0,-0.103975608945,2.62455153465,0.235285505652,-3.1365161609,-3.1285259294,-0.0352111387121
1551185464.36,0.0,0.0,0.0,0.0,0.0,0.0,0.0,0.0,0.0,0.0,0.0,0.0,0.0,0.0,0.0,0.0,0.0,0.0,0.0,0.0,0.0,-0.10399761796,2.62453651428,0.235296472907,-3.13668997892,-3.12895917877,-0.0356336107231
1551185464.37,0.0,0.0,0.0,0.0,0.0,0.0,0.0,0.0,0.0,0.0,0.0,0.0,0.0,0.0,0.0,0.0,0.0,0.0,0.0,0.0,0.0,-0.104018159211,2.62456297874,0.23529613018,-3.136372854,-3.12873006961,-0.0355216554817
1551185464.38,0.0,0.0,0.0,0.0,0.0,0.0,0.0,0.0,0.0,0.0,0.0,0.0,0.0,0.0,0.0,0.0,0.0,0.0,0.0,0.0,0.0,-0.104018159211,2.62456297874,0.23529613018,-3.136372854,-3.12873006961,-0.0355216554817
1551185464.39,0.0,0.0,0.0,0.0,0.0,0.0,0.0,0.0,0.0,0.0,0.0,0.0,0.0,0.0,0.0,0.0,0.0,0.0,0.0,0.0,0.0,-0.103991769254,2.62457823753,0.23527136445,-3.13664628945,-3.12866443337,-0.0353909103521
1551185464.4,0.0,0.0,0.0,0.0,0.0,0.0,0.0,0.0,0.0,0.0,0.0,0.0,0.0,0.0,0.0,0.0,0.0,0.0,0.0,0.0,0.0,-0.103991769254,2.62457823753,0.23527136445,-3.13664628945,-3.12866443337,-0.0353909103521
1551185464.41,0.0,0.0,0.0,0.0,0.0,0.0,0.0,0.0,0.0,0.0,0.0,0.0,0.0,0.0,0.0,0.0,0.0,0.0,0.0,0.0,0.0,-0.104005843401,2.6245572567,0.23529484868,-3.13604595304,-3.12863198933,-0.0357280593095
1551185464.42,0.0,0.0,0.0,0.0,0.0,0.0,0.0,0.0,0.0,0.0,0.0,0.0,0.0,0.0,0.0,0.0,0.0,0.0,0.0,0.0,0.0,-0.104005843401,2.6245572567,0.23529484868,-3.13604595304,-3.12863198933,-0.0357280593095
1551185464.43,0.0,0.0,0.0,0.0,0.0,0.0,0.0,0.0,0.0,0.0,0.0,0.0,0.0,0.0,0.0,0.0,0.0,0.0,0.0,0.0,0.0,-0.103986233473,2.62454724312,0.2352886796,-3.13601325469,-3.12901025425,-0.0354063940826
1551185464.44,0.0,0.0,0.0,0.0,0.0,0.0,0.0,0.0,0.0,0.0,0.0,0.0,0.0,0.0,0.0,0.0,0.0,0.0,0.0,0.0,0.0,-0.103986233473,2.62454724312,0.2352886796,-3.13601325469,-3.12901025425,-0.0354063940826
