rosbagTimestamp,x,y,z,roll,pitch,yaw,front,back,up,left,right,zrange,deltaX,deltaY,outlierCount,accX,accY,accZ,gyroX,gyroY,gyroZ,ref_x,ref_y,ref_z,ref_roll,ref_pitch,ref_yaw
1555425765392929519,-0.000509507255629,-7.93762810645e-05,0.0565109290183,-0.000953679741859,-0.00215635087159,-6.4268957695e-05,0.932,0.878,3.637,1.117,0.881,0.051,1.0,-2.0,0.0,0.00584127079288,0.0396645965148,9.80818502426,-0.000293811361724,0.000905588683181,-0.000119501226595,-0.0827155560255,0.159767091274,-0.0469042807817,0.000594916277854,-0.00179179562343,-0.0791887057163
1555425765413381706,-0.000538038439117,-0.000334646756528,0.0539260692894,0.00115842539999,-0.00154555604591,-0.000122278861024,0.932,0.878,3.637,1.117,0.881,0.051,-2.0,-2.0,0.0,0.0241929164319,0.029446783592,9.7794342649,0.00142850010314,0.000629908012927,-0.000297933572288,-0.0827335342765,0.159755632281,-0.0469049140811,0.000599839071281,-0.00203770107128,-0.0789825733844
1555425765433378746,-0.000513481383678,-0.000325732922647,0.0551998242736,0.00188473080679,-0.00115471661007,-0.00014932284415,0.932,0.878,3.637,1.118,0.88,0.051,-2.0,-2.0,0.0,0.00198416412401,0.0223776688892,9.78584632158,0.000509876949914,0.00028168409594,-0.00131650741737,-0.0827415660024,0.159709766507,-0.0469198040664,0.000858583807755,-0.00168404943288,-0.0798447441314
1555425765452985188,-0.000511922175065,-0.000324280874338,0.0551366880536,0.00144206375943,-0.00174373983376,-0.000154566105092,0.932,0.878,3.637,1.118,0.88,0.051,-1.0,0.0,0.0,-0.00617230085714,0.0406404465577,9.79950717151,-0.000822449228216,0.00142768451006,0.000220294217916,-0.0827420800924,0.159764677286,-0.0469133518636,0.000681570289551,-0.00201115211818,-0.078857743185
1555425765473113671,-0.000507840828504,-7.05494749127e-05,0.0550964325666,-4.85201772506e-05,-0.00204877775886,-9.68858297154e-05,0.932,0.878,3.637,1.118,0.88,0.051,0.0,-2.0,0.0,0.00972177032148,0.0366111096949,9.79695661604,-0.00250896432304,-0.000637279754657,0.000631335430861,-0.0827364698052,0.159770533442,-0.0469123795629,0.000461337019342,-0.00190818249357,-0.0790506767292
1555425765492799584,-0.000252657104284,0.000434602989117,0.0556346438825,-0.00284530804485,-0.00290792197894,-1.02789673349e-05,0.929,0.876,3.38,1.118,0.88,0.051,3.0,1.0,0.0,0.0063173774723,0.0267154760705,9.7861533004,0.000137027944208,0.000491873564826,-0.00083490236713,-0.0827373042703,0.159767195582,-0.0468954741955,0.000255874587699,-0.00230904056608,-0.0790156142605
1555425765512995602,-0.00050406542141,0.000432469183579,0.0544385202229,-0.00219067834185,-0.00132019579145,-1.59737860072e-07,0.929,0.876,3.38,1.115,0.881,0.051,1.0,-2.0,0.0,0.00704733725055,0.0363540012273,9.7872134006,-0.00180974890813,4.92153234126e-05,-0.0014117705621,-0.082742549479,0.159754112363,-0.0469270125031,0.000418023154223,-0.00215315673415,-0.0788342081469
1555425765533203539,-8.62470187712e-07,-0.000556884508114,0.0548053607345,0.00534543296172,-0.00391689384743,-0.000301009666388,0.929,0.876,3.38,1.115,0.881,0.051,-2.0,1.0,0.0,0.000447786405603,0.0324009865173,9.77678138316,-0.000327430779632,0.0013625460345,0.00196993648725,-0.0827633515,0.159771978855,-0.0469283051789,0.000669076912414,-0.0015458961847,-0.0790299802424
1555425765553051393,-0.000486652686959,-4.58954709757e-05,0.0560747534037,0.00128722330843,-0.000316675731006,-7.21036073412e-05,0.929,0.876,3.38,1.115,0.881,0.051,-2.0,1.0,0.0,-0.00296454404597,0.020938831286,9.8079312551,-0.00143508076379,-0.00057740947466,-0.00174873807218,-0.0827483013272,0.159773156047,-0.046946298331,0.000614311047459,-0.00211695466749,-0.0790117324881
1555425765573151854,-0.000224201154197,-0.000553846999537,0.0563206858933,0.00434019263965,-0.00244302195773,-0.000253823227486,0.929,0.876,3.38,1.115,0.881,0.051,-1.0,0.0,0.0,0.013225574973,0.0281342389947,9.79756238759,-0.000747416159931,0.000481100733618,-0.00228112829104,-0.0827631279826,0.159755915403,-0.0469388253987,0.000782663939939,-0.00178233176367,-0.0787292701518
1555425765592973696,0.000290193682304,-3.64392835763e-05,0.0568103343248,0.000546883575833,-0.00488190093147,-0.000227777661568,0.93,0.876,3.63,1.115,0.881,0.051,-1.0,2.0,0.0,0.0115496761724,0.0255452198116,9.79164559007,-0.000849285777685,-0.00150553567872,-9.95183589264e-05,-0.0827473402023,0.159759372473,-0.0469307638705,0.000391256733927,-0.00206223313651,-0.0788312896257
1555425765612898412,-0.000244738883339,0.000209350109799,0.0539555363357,7.21795571715e-05,-0.00117973458982,-0.000119525202196,0.93,0.876,3.63,1.116,0.879,0.051,3.0,-2.0,0.0,0.0152816809772,0.0333663595375,9.79512994587,0.000673826569169,-0.00110382890716,0.000404183751939,-0.0827292650938,0.159762784839,-0.0469371005893,0.000840651991257,-0.00149066828248,-0.0787711597862
1555425765632958574,-0.0004820486065,0.00021464843303,0.0564185976982,-0.000287829782282,0.000863725104221,-4.4591291311e-05,0.93,0.876,3.63,1.116,0.879,0.051,1.0,0.0,0.0,-0.00271575272869,0.0319766271254,9.79058607459,-0.00119897020706,0.000930037425252,-0.00246482632908,-0.0827440917492,0.159774795175,-0.0469506345689,0.000660984503156,-0.00166417645413,-0.0788936973568
1555425765652940135,-0.000469138583867,-0.000296455982607,0.0569649152458,0.00305653495022,-0.000202093647726,-0.000205759882979,0.93,0.876,3.63,1.116,0.879,0.051,-1.0,0.0,0.0,0.019872164391,0.0278922464931,9.7950410682,0.000806156286947,-0.000316541857747,-0.000219416564597,-0.0827237293124,0.15975561738,-0.0469132214785,0.000895010153216,-0.00190772525418,-0.0789645773207
1555425765673015054,-0.000464042444946,-0.000293206598144,0.0573858805001,0.00281898904329,-0.000699473863767,-0.000206597858709,0.93,0.876,3.63,1.116,0.879,0.051,-1.0,0.0,0.0,0.00576672678755,0.0169461194635,9.78651524305,-0.00154989447577,-0.00133344553803,0.000972932524005,-0.0827212929726,0.159740537405,-0.0469210334122,0.000656285663879,-0.001938482073,-0.07895383632
1555425765693258559,-0.000462636176962,-3.95297902287e-05,0.0576689876616,0.00138023212891,-0.00091603151258,-0.00015604882133,0.93,0.876,3.63,1.116,0.879,0.051,-1.0,0.0,0.0,0.00533426294918,0.0313847884024,9.80288276911,-0.000275164650284,-0.00212811421199,-0.000777708577033,-0.0827442258596,0.159744769335,-0.0469357147813,0.000415565044556,-0.00188208644391,-0.0787735135766
1555425765713253155,0.000281640037429,-0.00028627293068,0.0544729791582,0.00333620119449,-0.00495479248274,-0.000293885645453,0.932,0.877,3.765,1.119,0.881,0.052,0.0,1.0,0.0,0.00117802808789,0.0409180065757,9.79100064218,7.71214092416e-06,0.000874127817154,0.0001912187536,-0.0827458947897,0.159738108516,-0.0469321683049,0.000240731835413,-0.00206606250327,-0.0790789936332
1555425765733581466,-0.000451883737696,-4.10289976571e-05,0.0554270744324,0.00132757279969,0.000738251075692,-0.00011890841968,0.932,0.877,3.765,1.119,0.881,0.052,2.0,-2.0,0.0,-0.00107122318368,0.0248081531539,9.79541821361,0.000493883256664,-0.000678002907701,0.00042994411385,-0.0827359482646,0.159757852554,-0.0469489991665,0.000321446995054,-0.00223327967762,-0.0792013571349
1555425765753335092,-0.000443246448413,-4.84852353111e-05,0.0571597367525,0.000869866499336,0.000868526791468,-9.0922991879e-05,0.932,0.877,3.765,1.119,0.881,0.052,1.0,-2.0,0.0,0.004875906909,0.0268220278714,9.77045177221,0.0013491957692,-6.90591772903e-05,0.000618104799752,-0.0827440172434,0.159754037857,-0.0469348318875,0.000818710880963,-0.00200255194081,-0.0790712781272
1555425765773286128,4.49430772278e-05,-0.000534702034201,0.0581568181515,0.00378435008848,-0.00183522995022,-0.000229727715113,0.932,0.877,3.765,1.119,0.881,0.052,-2.0,1.0,0.0,0.00332772694412,0.0321117046592,9.81549755216,3.49815693767e-05,0.000228352279535,-0.00226977292585,-0.0827515944839,0.159748867154,-0.0469299890101,0.000747149931845,-0.00180950714976,-0.0790440594965
1555425765793199298,4.86363314849e-05,-5.50748263777e-05,0.0593300499022,0.000852944243218,-0.00151802366759,-0.000169564607681,0.931,0.875,3.765,1.119,0.881,0.052,0.0,2.0,0.0,0.0133972455701,0.0378945438378,9.80722841978,-0.000408710345569,8.31498762245e-06,0.00109125730439,-0.0827540829778,0.159779235721,-0.0469455607235,0.000725660706869,-0.00196365915122,-0.0789322639475
1555425765813647586,0.000281806947896,-0.000283981004031,0.0552006624639,0.00273327998897,-0.00307525510015,-0.000244858839353,0.931,0.875,3.765,1.119,0.881,0.052,0.0,2.0,0.0,-0.000879631082935,0.0273003849294,9.79104858935,-0.000454789469267,0.000651582542171,0.000525517462229,-0.0827447846532,0.159763514996,-0.0469588749111,0.000524314615147,-0.0018456374809,-0.0789553308976
1555425765833220315,-0.000189432626939,-4.36024965893e-05,0.0559914708138,0.00170959922691,0.00098488651527,-0.000154206438555,0.931,0.875,3.586,1.115,0.879,0.051,0.0,1.0,0.0,0.00989666031324,0.0147793320625,9.81445207,-0.000272861367041,-0.000181126341846,-0.00124480986733,-0.0827514305711,0.159767225385,-0.0469381287694,0.000722760021109,-0.00178015611334,-0.0788006714615
1555425765853397204,-0.000432860921137,0.000196227891138,0.0558301098645,0.000448878890115,0.00148452635458,-0.000113682551208,0.931,0.875,3.586,1.115,0.879,0.051,3.0,-2.0,0.0,0.0133319063613,0.0301942062168,9.81494791389,-0.00163928969354,-0.00187909174524,-0.00139907022254,-0.0827588960528,0.159767627716,-0.0469347015023,0.000401686156968,-0.00211986835938,-0.0790956407653
1555425765873438600,-0.000431573367678,-0.000528536969796,0.0575623065233,0.00425856727239,0.00141841247026,-0.000256920241315,0.931,0.875,3.586,1.115,0.879,0.051,-1.0,0.0,0.0,0.00948243476276,0.0157087755413,9.77448635101,-0.000129965845345,-0.00187179145893,0.00125959405242,-0.0827545523643,0.159769207239,-0.046940214932,0.000611898198015,-0.00187914414593,-0.0789871210289
1555425765893266758,-0.00043585000094,-5.00908354297e-05,0.0580753162503,0.000842502064005,0.000687845225483,-0.000150073825018,0.929,0.876,3.586,1.115,0.879,0.051,0.0,0.0,0.0,0.00551186869852,0.0284578915173,9.78275197506,-0.0002446044379,-0.00115326331474,-0.00125249662408,-0.0827515572309,0.159762635827,-0.0469501428306,0.000351129289727,-0.0018349546051,-0.078961340944
1555425765913375847,-0.000432566564996,-3.62567952834e-05,0.0544533580542,0.00132340133755,0.000263755986115,-0.00019659731821,0.929,0.876,3.687,1.116,0.879,0.052,0.0,-1.0,0.0,0.0145579407178,0.022897892925,9.79361844063,0.000454347668007,0.00252889589917,-0.000460459154575,-0.0827507898211,0.159692302346,-0.0469666533172,0.000657665678291,-0.00206981857902,-0.0800158669219
1555425765933409086,-0.000426685175626,-3.57059980161e-05,0.0543576180935,0.00162846032867,0.000343352627348,-0.000217819903296,0.929,0.876,3.687,1.116,0.879,0.052,1.0,0.0,0.0,0.0104274070531,0.0327206921694,9.78128490865,0.00023019645032,-4.36488307204e-05,0.000901869815387,-0.0827509462833,0.159773230553,-0.0469627380371,0.000341839087345,-0.00206078877722,-0.0790441067868
1555425765953518494,-0.000427985505667,-3.72137583327e-05,0.0542975254357,0.00149403376165,0.000108351572072,-0.000223925326881,0.929,0.876,3.687,1.116,0.879,0.052,0.0,0.0,0.0,-0.00778057752235,0.022899060084,9.79146023333,-0.00191283833949,0.00116343781246,-0.00107848381893,-0.0827595964074,0.15975689888,-0.0469456799328,0.000579035421697,-0.00186280535865,-0.0789255489619
1555425765973242734,-0.000429345440352,-0.000274198653642,0.0541005842388,0.00301178734205,-1.2785445835e-05,-0.00027184055906,0.929,0.876,3.687,1.116,0.879,0.052,-2.0,-3.0,0.0,0.00858967970707,0.0424410463683,9.80098417819,0.00108616101795,-0.00121262618973,-0.000394282819907,-0.0827694833279,0.159775450826,-0.046946015209,0.000350672612921,-0.00171293997696,-0.0787567580407
1555425765993294807,0.000298547151033,0.000212408893276,0.0548707172275,0.000660094384724,-0.00296476018242,-0.000259168079962,0.931,0.875,3.646,1.116,0.879,0.052,1.0,2.0,0.0,0.00810454695951,0.0199671199755,9.81709618092,0.00105085651347,-0.00135980992256,-0.000162011025235,-0.0827606022358,0.159723669291,-0.0469661951065,0.000125750731328,-0.00238884398426,-0.0799946632864
1555425766013724071,0.000301678548567,-3.15635152219e-05,0.0545351579785,0.00224405417583,-0.0023785638366,-0.000269735273652,0.931,0.875,3.646,1.116,0.879,0.052,1.0,0.0,0.0,0.0153901982191,0.0300336978631,9.81320661306,-0.00127844957103,0.000753241434704,-6.53508993971e-05,-0.0827481299639,0.159756615758,-0.0469323247671,0.000808188713185,-0.00163891043955,-0.0791027259197
1555425766033628459,-0.000428382249083,-0.000273149518762,0.0546136945486,0.00308595169707,0.00243115632672,-0.000207719526765,0.931,0.875,3.646,1.119,0.878,0.053,0.0,-2.0,0.0,-0.00290041225293,0.0313793523191,9.80522750258,-0.000750791014412,-0.000393921121539,0.000968418934091,-0.0827345475554,0.159760057926,-0.0469152405858,0.000893624976062,-0.00141870339912,-0.0789759859569
1555425766054307985,6.0489452153e-05,-0.000518775894307,0.0555244982243,0.0038716281712,-0.000574248726368,-0.00025564524319,0.931,0.875,3.646,1.119,0.878,0.053,-2.0,1.0,0.0,-0.00434152678703,0.0205612153583,9.79495686829,-0.000656239628094,0.000224405797942,-0.000785254178449,-0.0827268958092,0.159756600857,-0.0469255298376,0.000530068467531,-0.00195275633854,-0.0788659974857
1555425766073590083,-0.000426118844189,-2.72933757515e-05,0.0558448061347,0.00116584935164,0.00177445851268,-0.000152317746296,0.931,0.875,3.646,1.119,0.878,0.053,-2.0,1.0,0.0,0.00247645942523,0.0338287349674,9.78841500342,0.000194978371791,-0.000883847769966,-0.00137681631272,-0.082754611969,0.15977615118,-0.0469484515488,0.000571838646841,-0.00190861685489,-0.078846487971
1555425766093093715,-0.000426823156886,-2.80062413367e-05,0.0573018118739,0.00155170472311,0.00155166623211,-0.00019036289776,0.927,0.875,3.6,1.119,0.878,0.053,0.0,-3.0,0.0,0.00961168735055,0.0261058581574,9.79784597754,-0.00167481077491,0.00187004076861,-0.00144428206338,-0.0827553570271,0.159768357873,-0.0469233989716,0.000661308047224,-0.00187514433637,-0.07885541855
1555425766113375490,-0.000179977316293,0.00022324208112,0.0546939373016,0.00057760336007,0.000506146313756,-0.00019338556284,0.927,0.875,3.6,1.117,0.88,0.051,0.0,-1.0,0.0,0.00937758973218,0.0308878276055,9.79129475713,-0.00112633196818,0.000821207828444,-0.000318524046726,-0.0827601402998,0.159747719765,-0.046939548105,0.000651837342185,-0.0020198047939,-0.0789534642914
1555425766133342667,-0.000424838217441,0.000227461074246,0.0548495054245,0.00125226307734,0.00177499634639,-0.000212480040996,0.927,0.875,3.6,1.117,0.88,0.051,0.0,0.0,0.0,0.00348728798039,0.0166015528666,9.77949332178,-0.000764735354488,-0.00016147434561,-0.000702206009572,-0.0827571302652,0.159697204828,-0.0469382815063,0.000330559995903,-0.00212689781554,-0.0799688155368
1555425766153400762,-0.000427205144661,0.000227577227633,0.0548343993723,0.0016597249036,0.000952776958858,-0.000230964872424,0.927,0.875,3.6,1.117,0.88,0.051,1.0,0.0,0.0,0.00317026753648,0.0243334688782,9.79629997373,0.000280443996539,0.00102057319897,0.000287518603352,-0.0827488824725,0.159753978252,-0.0469332523644,0.000591925539267,-0.00167735715695,-0.0788658872711
1555425766173296453,-0.000426158570917,-1.76061967068e-05,0.0547053068876,0.002777155828,0.000462748913953,-0.000271679069159,0.927,0.875,3.6,1.117,0.88,0.051,1.0,0.0,0.0,0.0155539236835,0.0235898332391,9.81190736175,-0.00143345412893,0.000740732054717,3.00106367301e-05,-0.0827335938811,0.159754917026,-0.0469558760524,0.0006749537284,-0.00199211600871,-0.0790180628602
1555425766193099679,-0.000425146223279,-1.5911358787e-05,0.0548499748111,0.00214990076825,0.000201117409982,-0.000278175108126,0.927,0.875,3.6,1.117,0.88,0.051,-2.0,0.0,0.0,-0.00328975915705,0.0218029880896,9.81068646312,-0.000126412718042,-0.00122433759667,-0.0011351334035,-0.0827584341168,0.159746527672,-0.0469475574791,0.000730009297133,-0.00163844591222,-0.0790218275142
1555425766213758690,-0.00041743987822,0.000233283135458,0.0509969852865,0.00154991775242,7.1580492218e-05,-0.000265564120351,0.931,0.876,3.34,1.117,0.88,0.051,-2.0,0.0,0.0,-0.00518270129221,0.0426542961504,9.78794196367,0.000746517603137,0.000951452140245,0.000270692542225,-0.082753777504,0.159745275974,-0.0469250157475,0.000883244236451,-0.00168018689907,-0.0788134909479
1555425766233351478,-0.000170661587617,-0.00049489561934,0.0505284965038,0.00539017458819,-0.00121620390219,-0.000353584633997,0.931,0.876,3.34,1.117,0.881,0.048,-2.0,0.0,0.0,-0.0086746196507,0.0290680576069,9.80744885981,0.000928213719065,-1.88751156212e-05,0.00110178095188,-0.0827341899276,0.159754395485,-0.0469189807773,0.000668704494268,-0.00179497342559,-0.0790536440342
1555425766253191061,-0.000416470342316,-0.000253373786109,0.0515402033925,0.00336238729807,0.000482095777986,-0.000315257968331,0.931,0.876,3.34,1.117,0.881,0.048,0.0,0.0,0.0,-0.00012578113362,0.0304690390569,9.79092989087,-0.00106269334125,0.00106614797353,0.000553252861075,-0.0827124640346,0.159757778049,-0.0468984730542,0.000874373121799,-0.00176863495256,-0.0788246187832
1555425766273638177,-0.000413286383264,-6.61498052068e-06,0.0513105988503,0.00163527297562,0.000185752934054,-0.000291012051725,0.931,0.876,3.34,1.117,0.881,0.048,0.0,0.0,0.0,0.013294081043,0.026454943784,9.8063694638,-0.00123155283867,-0.00237025602236,0.000903156142999,-0.0827177688479,0.159770831466,-0.0469029545784,0.000244083678987,-0.00203091826086,-0.0790497767832
1555425766293520810,0.000328200898366,-1.35340451379e-06,0.0510594174266,0.00184339173273,-0.0033502072372,-0.00033498678402,0.932,0.875,3.34,1.117,0.881,0.048,0.0,2.0,0.0,0.00219503319284,0.0366881581815,9.79402540684,0.00102420929811,-0.000320634452347,0.00177940590657,-0.0827127099037,0.159759014845,-0.0469179153442,0.00049172680174,-0.00202643747598,-0.0789839887877
1555425766313356924,-0.000171684427187,0.000247888208833,0.0517990887165,0.000858101126975,-0.000111353228023,-0.000285850096518,0.932,0.875,3.619,1.12,0.882,0.051,0.0,-2.0,0.0,0.00759985573241,0.0322160477657,9.80617884457,-6.99829206569e-05,-0.000159097916464,-0.0012669320495,-0.0827018469572,0.159742936492,-0.0469010658562,0.000394900087816,-0.00188638369883,-0.0790190102097
1555425766333313800,-0.000424758298323,-5.47807576368e-06,0.0526478737593,0.0026606781605,0.00172886761351,-0.000289517242031,0.932,0.875,3.619,1.12,0.882,0.051,-1.0,-5.0,0.0,0.0114660575625,0.0381659734156,9.81200793386,0.000454624972257,-0.000258914344949,0.00107328896432,-0.082700073719,0.159765914083,-0.0469022244215,0.000689768037571,-0.00174908912906,-0.0791892434309
1555425766353495160,-0.000162597105373,-1.12337038445e-05,0.057968840003,0.0027994267727,0.00135471363612,-0.000255128556779,0.932,0.875,3.619,1.12,0.882,0.051,0.0,1.0,0.0,0.00998658866272,0.0206594462972,9.79975041568,1.82463595262e-05,0.00093151965385,-0.00044959822319,-0.082684867084,0.159769386053,-0.0468789227307,0.000972614035189,-0.00207377053717,-0.0790588989487
1555425766373347421,-0.00015822473506,-0.000515227089636,0.0585372895002,0.00486002660012,0.000448826680195,-0.000283378187585,0.932,0.875,3.619,1.12,0.882,0.051,-2.0,1.0,0.0,0.011043042345,0.0251930506923,9.78659534991,-0.00146962981738,-0.00186015300284,0.000436761637193,-0.0826979577541,0.159751832485,-0.0468985848129,0.000904373988383,-0.00125658417372,-0.0790022472845
1555425766393140117,-0.00040713546332,-1.61250281963e-05,0.0603544004261,0.00198117559922,0.00111882700338,-0.000230102417197,0.929,0.879,3.458,1.12,0.882,0.051,-2.0,0.0,0.0,0.00451490700943,0.0240623248089,9.80353181005,-0.00143736356618,3.74382731051e-06,0.00100345127079,-0.0826868936419,0.159746184945,-0.0469027273357,0.000688425701317,-0.00177147953637,-0.0790113073109
1555425766413804865,0.000100399265648,0.000485288124764,0.061058178544,0.00044625812114,-0.00169149363261,-0.000194968391438,0.929,0.879,3.458,1.119,0.877,0.049,1.0,1.0,0.0,0.00475464513525,0.0252800737065,9.82131787062,0.00101356946241,-0.00193904381861,-0.000881373422836,-0.0826995447278,0.159747838974,-0.0468933060765,0.00116686699638,-0.00190280194689,-0.0790221202663
1555425766433301302,-0.000152344495291,-0.000504395051394,0.0539286732674,0.00571203529098,4.32758313105e-05,-0.000255207960722,0.929,0.879,3.458,1.119,0.877,0.049,-2.0,1.0,0.0,0.00886126003345,0.0163038702041,9.79567724526,0.000710720647923,-0.000184602348984,-0.00136515588035,-0.0826891437173,0.159761399031,-0.0469010546803,0.000901198455566,-0.00156361227913,-0.0790690513476
1555425766453171500,-0.000397611816879,-2.31769736274e-05,0.0553522147238,0.00233313951504,0.000997083806067,-0.000215541538424,0.929,0.879,3.458,1.119,0.877,0.049,2.0,-1.0,0.0,0.000326684695101,0.0416834025364,9.79381490707,0.00191451009725,0.00251196011919,-0.00145934179722,-0.0827055424452,0.159772217274,-0.0468950159848,0.000717627588463,-0.00178060250444,-0.0791655973327
1555425766473274628,-0.000396223913413,-0.000275309837889,0.0562526993454,0.00288059883041,0.00093715214853,-0.00024852882943,0.929,0.879,3.458,1.119,0.877,0.049,-1.0,0.0,0.0,0.00637480009929,0.0323261809861,9.81287799954,0.00165634432748,-0.000881838370711,0.00023762246631,-0.0827156156301,0.159758612514,-0.0468979626894,0.000669606665279,-0.00162710992085,-0.0789070969207
1555425766493090268,-0.000159820076078,-0.000279497471638,0.0567085668445,0.00290353270455,-0.000665368041853,-0.000269809980002,0.931,0.876,3.458,1.119,0.877,0.049,-1.0,-1.0,0.0,0.00849912552279,0.0264858860616,9.8057186687,0.000477970056419,0.00146261184175,-0.000671470425819,-0.0827204734087,0.15975818038,-0.0468820631504,0.00104785370113,-0.00176597091227,-0.0791039648866
1555425766513246456,-0.0003919400624,-2.92265613098e-05,0.0536542013288,0.0016513822394,0.001300007652,-0.000260985235527,0.931,0.876,3.379,1.119,0.878,0.051,2.0,-2.0,0.0,0.00584852784988,0.0290013856441,9.81458070874,0.000539301954123,-0.000421773001173,0.000661978948303,-0.0826967433095,0.159756362438,-0.046909853816,0.000981948151346,-0.00159130199079,-0.0789688483782
1555425766533965477,-0.000390333036194,-0.000273344077868,0.0546828173101,0.00252197272064,0.00150355820358,-0.000285359726378,0.931,0.876,3.379,1.119,0.878,0.051,0.0,0.0,0.0,-0.000875621114974,0.018707466413,9.78437574685,0.00146091043551,-0.000217595654209,0.00148819535312,-0.0827057138085,0.159760847688,-0.0468811914325,0.000570927557817,-0.00187902771259,-0.0788682391688
1555425766553334295,-0.000394534057705,0.000201491784537,0.0546073466539,-0.000187325782299,0.000977375113628,-0.000246349617895,0.931,0.876,3.379,1.119,0.878,0.051,0.0,0.0,0.0,0.00432556999818,0.0225390406209,9.77754561424,-7.68132770416e-05,-9.90370426237e-05,-0.000278501306348,-0.0827117413282,0.159752950072,-0.0469127856195,0.000471352082134,-0.00184894067827,-0.0790035325046
1555425766573308656,-0.00039673561696,-0.000271132448688,0.0552395395935,0.00338456045481,0.00067632653362,-0.000303361128399,0.931,0.876,3.379,1.119,0.878,0.051,-1.0,0.0,0.0,0.00266404826747,0.0310098950844,9.77530086815,-0.000837839906633,-0.000888186719971,-0.000797357387358,-0.0827000439167,0.159742429852,-0.0469069369137,0.000890938251234,-0.00186087578442,-0.0790484130573
1555425766593137648,-0.000401021330617,-3.07663649437e-05,0.0556207448244,0.00179338594185,0.000598692266952,-0.000295939777492,0.931,0.876,3.379,1.119,0.878,0.051,0.0,0.0,0.0,0.00697028019873,0.0275025569787,9.78984523237,-0.000417482067391,-0.00040912688711,-0.00165951762436,-0.0827027112246,0.159745797515,-0.0468900240958,0.000807754914011,-0.00178023613892,-0.0788589082748
1555425766613467546,7.99822373665e-05,-1.93400210264e-05,0.0521760210395,0.00183671731528,-0.00190541009661,-0.000322159365643,0.929,0.875,3.883,1.116,0.879,0.05,-1.0,2.0,0.0,0.00878109607729,0.0376154831867,9.8094901228,-0.000238326194925,-0.00137219856304,0.000754612611565,-0.082689166069,0.159760177135,-0.0468955412507,0.000912189443302,-0.00185980503995,-0.0790331186906
1555425766633380946,-0.000406106206356,0.000225994095672,0.0525517202914,0.00105109012523,0.000925973503847,-0.000305828908652,0.929,0.875,3.883,1.116,0.879,0.05,1.0,0.0,0.0,0.00472661704378,0.0259951516357,9.8075055778,0.000785602027859,0.000209363635375,0.00018614198899,-0.0827020853758,0.159765332937,-0.0469014644623,0.000729987543923,-0.00225895038725,-0.0789598288612
1555425766653154840,-0.000166864498169,-0.000256115396041,0.0523052178323,0.00365604372052,-0.000545249821431,-0.000326258592139,0.929,0.875,3.883,1.116,0.879,0.05,-1.0,0.0,0.0,0.00344977643603,0.0120000453957,9.80196241736,-0.000646451080679,-0.00173577856856,-0.000280014646337,-0.082723416388,0.159750461578,-0.0469002127647,0.000630783285207,-0.00170467906446,-0.0789624364078
1555425766673368715,-0.000164596276591,-0.000497204950079,0.0525231659412,0.00445958548027,-0.000155982437358,-0.000347077411834,0.929,0.875,3.883,1.116,0.879,0.05,-2.0,1.0,0.0,0.000383418568344,0.0313403815404,9.82086061835,0.00193272401251,-0.00160834240928,0.000932040907816,-0.0827233940363,0.159753113985,-0.0468940474093,0.000782048915632,-0.00194807580775,-0.0789692122864
1555425766693630575,-0.000403698039008,-0.000265863374807,0.0537599772215,0.00288542190877,0.000937396228284,-0.000351230376187,0.931,0.878,3.67,1.116,0.879,0.05,-3.0,-2.0,0.0,0.0189712637756,0.0210147994081,9.81371882915,-0.00117760484117,8.21431996257e-05,0.0025619919175,-0.0827155187726,0.159754052758,-0.0469056330621,0.00074174196295,-0.00157465936969,-0.0789686681114
1555425766713373837,7.7427328506e-05,-0.00027096044505,0.050484713167,0.00348877353729,-0.00121006263711,-0.000354780813347,0.931,0.878,3.67,1.116,0.879,0.05,-1.0,1.0,0.0,-0.00936571257538,0.0375085156853,9.80452700615,0.00103151140494,-0.000449054602831,0.000112675193946,-0.0827133581042,0.159751728177,-0.0468981489539,0.00037071171597,-0.00236842373645,-0.0791624037945
1555425766733027296,-0.000168532889802,-2.73609948636e-05,0.0504704862833,0.00190492609829,0.000401481027042,-0.000354872587074,0.931,0.878,3.67,1.114,0.883,0.046,0.0,1.0,0.0,-0.00417956947727,0.0250097496179,9.80362302661,0.000589236484636,0.000644248966349,-0.00119166979072,-0.0827233344316,0.159743562341,-0.0469233505428,0.000457033090159,-0.00191748158589,-0.0790389668712
1555425766753145110,-0.00041047151899,-2.44943166763e-05,0.050094421953,0.00198182331432,0.00120500224093,-0.000353448517597,0.931,0.878,3.67,1.114,0.883,0.046,0.0,0.0,0.0,0.0100721578673,0.0374981254572,9.81206523657,-0.000205518647788,0.000715897232311,0.00047610610373,-0.0827499628067,0.159712076187,-0.0469315238297,0.000604774090765,-0.00195418150225,-0.0797110024942
1555425766772987321,-0.000409184111049,0.000218643952394,0.0497603565454,0.000869730935594,0.000721108666658,-0.000325031593982,0.931,0.878,3.67,1.114,0.883,0.046,2.0,0.0,0.0,-2.25648870878e-05,0.0321923048724,9.81959878922,3.03733571087e-05,0.00172602422092,0.000820146660178,-0.0827391296625,0.159743025899,-0.0469222925603,0.000641868328072,-0.00181050915623,-0.0788280758743
1555425766793349073,7.48039019527e-05,-2.46851595875e-05,0.0503566749394,0.00204843758165,-0.00192563126551,-0.00033083141398,0.93,0.878,3.527,1.114,0.883,0.046,-2.0,0.0,0.0,-0.000835902946201,0.0275711018778,9.79291911364,6.50944579851e-05,-0.000530813680806,-0.000562317686662,-0.082726046443,0.159749254584,-0.0468959324062,0.000577408199881,-0.00209231881089,-0.0790830560897
1555425766812942376,-0.000163892065757,-2.21926220547e-05,0.0520786829293,0.00274494406238,0.000222495730824,-0.000352837798063,0.93,0.878,3.527,1.118,0.882,0.052,0.0,0.0,0.0,0.00419536952191,0.028302990552,9.78537386656,0.000794939606394,0.000229960611671,-0.00031152154552,-0.0827328935266,0.15975061059,-0.0469342619181,0.00104410344538,-0.00169839307432,-0.0789388725124
1555425766832954039,-0.000410857639508,-2.43729155045e-05,0.0519323647022,0.00255907024253,0.00137224823723,-0.000353543542254,0.93,0.878,3.527,1.118,0.882,0.052,0.0,0.0,0.0,0.0316874754592,0.030328198818,9.79926626623,0.000166198644491,0.000872951891093,0.000544787279244,-0.0827464014292,0.159746438265,-0.0469333082438,0.000462203678682,-0.00192873826619,-0.0788696891982
1555425766853103741,0.000319702841807,-0.000510988465976,0.052127763629,0.00474654108773,-0.00261552093526,-0.000368953888791,0.93,0.878,3.527,1.118,0.882,0.052,0.0,1.0,0.0,0.00274570771755,0.0277793815266,9.80421768844,-0.00312167654668,0.00034627784583,-0.000875903734684,-0.0827558711171,0.159751325846,-0.0469196215272,0.000608250356865,-0.00165979360768,-0.0788968935315
1555425766873115519,-0.000159393501235,-0.000272183271591,0.0535358339548,0.00239267312882,0.000731397467037,-0.000361546094259,0.93,0.878,3.527,1.118,0.882,0.052,-2.0,-1.0,0.0,0.00809002656431,0.0418186879205,9.80202088952,-0.00100436861795,-0.00144704288238,2.98697292735e-06,-0.0827351436019,0.159754440188,-0.0469359755516,0.000489098838903,-0.00190157771273,-0.0789183326121
1555425766892928365,-0.000158991082571,0.00021610344993,0.0539220273495,0.000557630952266,0.000905429192601,-0.000371724330541,0.93,0.878,3.527,1.118,0.882,0.052,1.0,1.0,0.0,-0.000781243613965,0.0493071028031,9.80149639428,0.00160645075868,0.00128959661668,-0.00123608827483,-0.0827481001616,0.159761890769,-0.046929936856,0.000552651287498,-0.00199589703588,-0.0789994368831
1555425766912956428,-0.000400339107728,-2.22891740123e-05,0.0529770851135,0.00223269204871,0.00152705019723,-0.000384423629803,0.928,0.875,3.794,1.118,0.88,0.052,0.0,-4.0,0.0,-0.000276958290833,0.0239261532063,9.8082809186,-1.93449602079e-05,0.000169276526602,-0.000163929739824,-0.0827604085207,0.159758210182,-0.0469134449959,0.000252764727248,-0.00227439416409,-0.0790532822476
1555425766933082831,-0.000155663859914,-2.48036831181e-05,0.0553514882922,0.00226565334854,0.00109214779888,-0.000382258543555,0.928,0.875,3.794,1.118,0.88,0.052,-1.0,1.0,0.0,0.00414401595073,0.014344568738,9.80564207017,-9.33970545527e-05,-0.00104878424125,0.000663579705774,-0.0827604681253,0.159758642316,-0.0469265282154,0.000236678076389,-0.00214374438662,-0.0788401485194
1555425766953099782,-0.000405582541134,0.000222415430471,0.0555464215577,0.00147851135558,0.00159567795998,-0.000364344428979,0.928,0.875,3.794,1.118,0.88,0.052,2.0,0.0,0.0,-0.0126866227167,0.0359529690281,9.79983110726,0.001147004236,0.000828198691324,-0.00045715367492,-0.0827721878886,0.159768179059,-0.0469321124256,0.000633444073647,-0.00212772036006,-0.0792894970282
1555425766973043323,8.66032060003e-05,-0.00051763583906,0.0559006929398,0.00482206927251,-0.00139553685276,-0.000401923250923,0.928,0.875,3.794,1.118,0.88,0.052,2.0,0.0,0.0,0.00216870287812,0.0143544633233,9.80319851875,-0.00112253345263,0.000251070649592,-0.00152409549282,-0.0827584937215,0.159764811397,-0.0469310581684,0.000620997394945,-0.00232329054232,-0.0788577930885
1555425766992784428,-0.000406929058954,-2.48875658144e-05,0.057616237551,0.00135356891898,0.00166600790919,-0.00035525359596,0.931,0.875,3.638,1.118,0.88,0.052,-1.0,0.0,0.0,-0.00423858838272,0.0231153842225,9.8062121737,0.000402483808622,0.000882265802864,-0.000312817885994,-0.0827509611845,0.159755557775,-0.046917244792,0.000550932362113,-0.00173334107082,-0.0791397390858
1555425767013168247,0.000334668380674,0.000230500707403,0.0528562180698,0.00104018611904,-0.00254386577733,-0.000356686963095,0.931,0.875,3.638,1.117,0.879,0.049,1.0,3.0,0.0,0.0109775386832,0.0369300319115,9.79588189781,0.000416931880156,0.000555497042428,-0.000974439719738,-0.0827653929591,0.159770697355,-0.0469329617918,0.000553101357103,-0.00217483101477,-0.0791588626751
1555425767033266180,-0.000395536713768,-1.66119352798e-05,0.0542375445366,0.00263389284567,0.00132359119181,-0.000351344873908,0.931,0.875,3.638,1.117,0.879,0.049,0.0,0.0,0.0,0.00470623715606,0.0210339855845,9.80305233836,0.000461753089362,-0.000874779758469,0.000638171809592,-0.0827659964561,0.159753501415,-0.0469481758773,0.000102588252868,-0.00232991409739,-0.0789536757888
1555425767053263500,-0.000397654774133,-1.83777519851e-05,0.0542553551495,0.0026278016449,0.000831053007043,-0.000337042216431,0.931,0.875,3.638,1.117,0.879,0.049,0.0,0.0,0.0,-0.00132132784041,0.033961809373,9.7723222965,0.00068973030921,-0.000711701908352,-0.000235405706545,-0.0827630534768,0.159755304456,-0.0469285622239,0.000413872478745,-0.00219417173266,-0.0790222904138
1555425767072958042,-0.000395030889194,-1.93095547729e-05,0.0542248524725,0.00261052438733,0.000522648582348,-0.000351712423948,0.931,0.875,3.638,1.117,0.879,0.049,0.0,0.0,0.0,0.0188922418538,0.0113589872781,9.83089327097,-0.00189031863371,-0.00126326981289,0.00428411879462,-0.0829345658422,0.159718871117,-0.0468441434205,0.000755307920906,-0.00609362397376,-0.082218486801
1555425767092799387,-0.000398930947995,0.000232188453083,0.0542102977633,0.00140194027276,0.000462760389732,-0.0003635368982,0.931,0.877,3.638,1.117,0.879,0.049,-1.0,-3.0,0.0,-0.101882872246,0.149827820482,9.80092629075,0.00400749854084,-0.00368259132741,-0.00318162367864,-0.0829370096326,0.159783855081,-0.0470155514777,-0.000425428273682,-0.00291413763987,-0.0804306314543
1555425767113131764,-0.000392790039768,-0.000263382011326,0.0552295818925,0.0046779085136,0.0013228224121,-0.000437384482692,0.931,0.877,3.638,1.117,0.879,0.049,-1.0,-3.0,0.0,-0.0225858937204,0.0413994334219,9.58912435234,0.00331016463364,-0.00185346012012,0.0513923053627,-0.0827399268746,0.159684851766,-0.0469147861004,0.000422529233874,-0.00121018990729,-0.0803782926851
1555425767132898651,0.000111178160296,-0.000506164040416,0.0565695054829,0.00542519515652,-0.00160819221636,-0.000377236963465,0.931,0.877,3.442,1.118,0.88,0.053,-1.0,2.0,0.0,-0.0982259778958,-0.00132012156668,9.81572676301,0.00681174553108,0.0118879724379,-0.00948777769952,-0.0829057246447,0.159684479237,-0.0467997565866,0.00197305568859,-0.0070032113938,-0.0822778806809
1555425767153103142,0.00015235877072,-0.000544480222743,0.0583771057427,0.00440646321875,-0.0015818620316,-0.000252307465555,0.931,0.877,3.442,1.118,0.88,0.053,-1.0,2.0,0.0,-0.206961065121,0.33740400441,9.80632151663,-0.0490144187597,-0.0862312502721,0.0116521037503,-0.0828914046288,0.159783780575,-0.0470971167088,-0.00109339748087,-0.00105072563043,-0.0791293364307
1555425767173255327,-0.000499970279634,-8.80560401129e-06,0.0594757646322,0.000704865009473,0.00233319178998,0.000200811074937,0.931,0.877,3.442,1.118,0.88,0.053,-1.0,0.0,0.0,-0.38576760415,-0.504656189494,10.0492002368,0.0807003973202,-0.0152026696469,0.0803094286275,-0.0828307420015,0.159885540605,-0.0471506677568,-0.000802241715744,-0.00291812407679,-0.0785338343257
1555425767193408978,-0.000555124948733,0.000225009091082,0.0598724558949,3.25599055841e-05,0.00260572497573,0.000444822640902,0.929,0.876,3.442,1.118,0.88,0.053,-1.0,0.0,0.0,0.566586791351,0.50416367121,9.05126120389,0.103685940952,0.0470610691627,0.0225171726582,-0.0830019637942,0.159991681576,-0.0472733825445,-0.00120332673512,-0.00810401345772,-0.0814246586076
1555425767212971620,-0.00034662373946,0.00112682441249,0.0524520277977,-0.00296642673869,-0.000546412646248,0.000565196709442,0.929,0.876,3.644,1.115,0.883,0.048,-1.0,0.0,0.0,-0.11553870636,-0.217428056225,9.89870927811,-0.126416095757,-0.0477222613211,-0.0643194723863,-0.0828929021955,0.160130158067,-0.0478219799697,-0.00143353727969,-0.00133647527302,-0.0792937321163
1555425767233185193,-0.000694322399795,0.00143836857751,0.0523359328508,-0.00211563116453,0.00217719998994,-0.000236173088351,0.929,0.876,3.644,1.115,0.883,0.048,0.0,0.0,0.0,0.294821144789,0.21009387536,9.95998575926,-0.080667249287,-0.116984136249,-0.226040408118,-0.0829133540392,0.160257816315,-0.0480294786394,-0.000211928384234,-0.00145359129824,-0.0827674885328
1555425767252952309,-0.000783307885285,0.00195114058442,0.0518011339009,-0.00395133783099,0.00359891137298,-0.00439121037973,0.929,0.876,3.644,1.115,0.883,0.048,0.0,2.0,0.0,1.31999709293,2.74557004988,8.79162085533,0.264317789439,0.190144258996,-0.131417121132,-0.0830187350512,0.160474851727,-0.0483983531594,-0.00558246028985,-0.00176374865812,-0.0872511148107
1555425767273146647,-0.000933881325182,0.00154172512703,0.0517124645412,0.00374767830826,0.000408706867075,-0.00751568454592,0.929,0.876,3.644,1.115,0.883,0.048,-4.0,-1.0,0.0,7.36107557237,5.16554081976,7.95350669146,-0.378679236325,0.15349616634,-0.184734663098,-0.082973331213,0.160632520914,-0.0486573241651,-0.00207004823957,0.00226788371978,-0.0894567154316
1555425767292878635,-0.000990743166767,0.00340839126147,0.0509635396302,-0.00740244402354,-0.00113729878233,-0.0107747128456,0.928,0.878,3.644,1.115,0.883,0.048,0.0,1.0,0.0,0.0759574189642,1.70323135436,9.26156742454,0.100680064319,-0.367799124718,-0.0414450117007,-0.0830802246928,0.160777211189,-0.0489571765065,0.00178947564063,-8.73535730971e-05,-0.0920785203232
1555425767313002841,-0.00190858833957,0.00379962846637,0.0510010756552,-0.00587196903756,0.00765782608777,-0.0128458958775,0.928,0.878,3.669,1.116,0.884,0.05,-1.0,0.0,0.0,0.89065782845,1.44422265127,9.40743031204,0.205907775804,-0.327661758402,0.00958576330228,-0.0831109434366,0.161037012935,-0.0495340898633,-0.00139872751526,-0.00485048200987,-0.0910479214254
1555425767333030345,-0.00168635789305,0.00508460402489,0.0518326833844,-0.00810170690201,0.00553439360374,-0.0127740955981,0.928,0.878,3.669,1.116,0.884,0.05,-1.0,2.0,0.0,4.60806435585,1.42117088065,10.0357282519,0.243552822814,0.187189331964,0.103291626663,-0.0831826999784,0.161193698645,-0.049810372293,-0.0012119204643,-0.00490858780891,-0.0918311620802
1555425767352967146,-0.00199596164748,0.00536468625069,0.0528765022755,-0.00215284610998,0.00118683969035,-0.0117951768784,0.928,0.878,3.669,1.116,0.884,0.05,-4.0,0.0,0.0,3.51639153242,2.50664375514,10.3623817849,-0.0551364768288,-0.222654215437,0.140194375775,-0.0831448957324,0.161367207766,-0.0504770167172,0.000280535199056,-0.00657457927375,-0.0879222735335
1555425767372970560,-0.00267045712098,0.00681020319462,0.0526467598975,-0.00538392032081,0.00674135537467,-0.00877890767547,0.928,0.878,3.669,1.116,0.884,0.05,-5.0,0.0,0.0,-0.0838004217949,6.02018681645,10.3969610488,0.14035521406,-0.188967707716,0.223842318178,-0.0830857083201,0.161670610309,-0.0508708581328,-0.00324228975544,-0.00459940102503,-0.0842421146337
1555425767392798206,-0.00307506904937,0.00844646058977,0.0519558601081,-0.00647947613365,0.00829987261469,-0.00629434638644,0.933,0.876,3.669,1.116,0.884,0.05,-7.0,2.0,0.0,0.354791321419,0.0179326269706,10.8854432917,0.568608461708,0.0910156274928,0.260027353699,-0.0832953080535,0.162091627717,-0.0515872575343,-0.0150261913348,-0.000942303729966,-0.079704918112
1555425767413206903,-0.00316819292493,0.00996223092079,0.0503679960966,-0.000504210092914,0.00543425458556,-0.00118839116374,0.933,0.876,3.848,1.116,0.884,0.049,-8.0,5.0,0.0,0.147709145844,-0.381430760846,10.6892352927,0.517104956886,0.227102842945,0.219451414686,-0.0833536460996,0.162320673466,-0.052038192749,-0.022283353476,0.00449033807275,-0.0754199543328
1555425767433276326,-0.00397980026901,0.0114222774282,0.0519131682813,0.0112202628169,0.00395256070046,0.00343792692612,0.933,0.876,3.848,1.116,0.884,0.049,-6.0,4.0,0.0,4.70726646245,1.63487184852,9.66936159968,0.481124252399,0.0655086528756,0.264284183675,-0.0838832780719,0.162683308125,-0.0523396246135,-0.0306517070195,-0.00371330625778,-0.0744864067335
1555425767452875595,-0.00519753573462,0.012327590026,0.0518793910742,0.0231697927669,0.00444078418715,0.00835946136423,0.933,0.876,3.848,1.116,0.884,0.049,-7.0,1.0,0.0,5.21982461572,2.67454012066,9.36795868278,0.340313737661,-0.152486611905,0.327795615536,-0.0841736793518,0.16335119307,-0.0530102290213,-0.0384121227995,-0.00338186537427,-0.0651713576433
1555425767473166393,-0.00647486094385,0.0142007619143,0.0521060489118,0.0270357455962,0.00860095806024,0.0151479031955,0.933,0.876,3.848,1.116,0.884,0.049,-1.0,0.0,0.0,1.66172094718,-1.49520452455,8.7770408231,0.225967603952,-0.237174601938,0.281741371068,-0.0841169506311,0.16366019845,-0.0532104372978,-0.0422210997286,-0.00231864840305,-0.0573245087325
1555425767492787483,-0.00748576270416,0.0147116994485,0.0516266338527,0.0351479756256,0.0134916208957,0.0207258535271,0.933,0.876,3.848,1.116,0.884,0.049,-1.0,0.0,0.0,5.44830105901,0.451293147281,10.2468817341,0.131949104205,-0.042065998449,0.291660813891,-0.0843930989504,0.164101153612,-0.0533481985331,-0.0452748997586,-0.00290902403911,-0.0536343073633
1555425767512897385,-0.00818549282849,0.0163008440286,0.0532911643386,0.0342439364652,0.014002129111,0.026659821683,0.93,0.875,3.829,1.122,0.883,0.052,0.0,2.0,0.0,4.98322638988,3.0279472965,10.0027406001,0.216230371282,0.00985127214058,0.273051459787,-0.0848291814327,0.164822548628,-0.0532563626766,-0.0521073264947,-0.00342349057608,-0.0445322102992
1555425767533043221,-0.00913849007338,0.0163586493582,0.0535078495741,0.0393739753507,0.0129837300684,0.0317428100021,0.93,0.875,3.829,1.122,0.883,0.052,-1.0,0.0,0.0,4.66480982959,2.08589390427,9.38169145346,0.182825809097,0.134165703114,0.266574269186,-0.0850679278374,0.16519099474,-0.0533390529454,-0.0496428910078,0.0005379405686,-0.0405558778834
1555425767553256736,-0.00930548273027,0.0162970088422,0.0532282702625,0.045028353204,0.00875008727905,0.0360857578692,0.93,0.875,3.829,1.122,0.883,0.052,0.0,5.0,0.0,3.85689945817,0.821828718111,7.22155866802,-0.125216516456,0.307780694943,0.249242283654,-0.0857740566134,0.165883764625,-0.0528192818165,-0.0527771756758,0.00331916468717,-0.0381788133339
1555425767573094861,-0.0112116523087,0.0157422889024,0.0502093546093,0.0499517932067,0.011422895046,0.0433286863456,0.93,0.875,3.829,1.122,0.883,0.052,1.0,0.0,0.0,1.70739574134,3.55109914273,7.90204651594,-0.310627947043,0.306236560853,0.229959699071,-0.0863039270043,0.166374027729,-0.0524040386081,-0.0475343436836,0.00476594613164,-0.0364592557703
1555425767592966894,-0.0127656012774,0.0161237511784,0.0548578538001,0.0436455609035,0.00687178160846,0.0489665983733,0.936,0.872,3.469,1.122,0.883,0.052,2.0,2.0,0.0,7.61579373479,1.8929442662,12.4184452415,-0.532438439757,0.223490930717,0.206392238096,-0.0868906900287,0.167096182704,-0.0516708754003,-0.0333568558519,0.0111772442519,-0.0308230513834
1555425767612978763,-0.0138374138623,0.015470135957,0.0565791614354,0.0307111409271,-0.00112577761976,0.0549573626007,0.936,0.872,3.469,1.12,0.884,0.053,4.0,1.0,0.0,3.44117236555,5.60223368883,9.63245455921,-0.302732739675,0.189613823886,0.207329021654,-0.087267562747,0.167610108852,-0.0514024831355,-0.0284928238907,0.0172626624903,-0.0232352363254
1555425767632964799,-0.0155030107126,0.0133922547102,0.0536065176129,0.0326319583469,0.00139355703696,0.0581133666176,0.936,0.872,3.469,1.12,0.884,0.053,1.0,1.0,0.0,3.84915540576,1.56681581318,9.28249870241,-0.188731035919,0.150219296422,0.21526614052,-0.0876028612256,0.167969793081,-0.050617299974,-0.0237483953407,0.0203619765214,-0.0197861134964
1555425767653117184,-0.0161337852478,0.0124744288623,0.0588036105037,0.023439079965,-0.00935120122808,0.0626602938988,0.936,0.872,3.469,1.12,0.884,0.053,5.0,4.0,0.0,0.674521129802,-0.556977330968,9.78511249602,-0.114108746187,0.139217420097,0.143411840557,-0.0881868302822,0.168649613857,-0.0496421344578,-0.0193295792534,0.0233256097495,-0.016917297829
1555425767672831496,-0.0165466405451,0.0106448177248,0.0581471249461,0.023935114524,-0.0139269738728,0.0636615509226,0.936,0.872,3.469,1.12,0.884,0.053,5.0,1.0,0.0,0.731244164854,2.67759821445,11.6693490887,-0.213224794255,0.0263614997872,0.104411710605,-0.088641166687,0.168993845582,-0.0490380674601,-0.0172044628673,0.0258630907946,-0.0140926640021
1555425767692784638,-0.0178782120347,0.00911725126207,0.0622307807207,0.0183845021652,-0.0149169998469,0.066193838451,0.938,0.868,3.521,1.12,0.884,0.053,7.0,4.0,0.0,3.48864678651,-0.302010205071,8.26617426932,-0.372424136714,-0.0589712290614,0.122389362899,-0.0889155939221,0.169326364994,-0.0481910519302,-0.00677613531544,0.0292513663994,-0.0124833423358
1555425767712733035,-0.0190725624561,0.00707463966683,0.064200848341,0.0137032818651,-0.0151448551244,0.0687540808485,0.938,0.868,3.521,1.122,0.888,0.056,10.0,0.0,0.0,-0.525002343804,1.37103027552,9.41382892013,-0.566301165518,0.00157722269575,0.119579886074,-0.089224755764,0.169702276587,-0.0471597760916,0.00400323140147,0.0272613792966,-0.0105348598048
1555425767732585042,-0.0187423359603,0.00573439290747,0.0623650625348,0.0021290212212,-0.0201275015674,0.0704438399154,0.938,0.868,3.521,1.122,0.888,0.056,10.0,3.0,0.0,1.89019797519,1.04558302313,7.69959135175,-0.589650963008,0.158136541448,0.115355796335,-0.0893022567034,0.169931858778,-0.0464195013046,0.0151649995657,0.0297219321678,-0.0084028452046
1555425767752645287,-0.0195131711662,0.00313293514773,0.0654182657599,-0.00575672230183,-0.0198764174914,0.0734628326166,0.938,0.868,3.521,1.122,0.888,0.056,6.0,4.0,0.0,1.39387534708,1.11738931641,9.17136944532,-0.495457285517,0.0192628938359,0.113604676372,-0.0892475619912,0.170205593109,-0.0454380698502,0.0262076606535,0.0316026587799,-0.00484986614461
1555425767772702390,-0.0208420921117,0.00132008874789,0.0658568069339,-0.0166505002944,-0.0183466332629,0.0754755582224,0.938,0.868,3.521,1.122,0.888,0.056,4.0,0.0,0.0,2.25652662054,0.166786454357,7.71434913933,-0.228207139336,0.0193853493118,0.0771356313655,-0.0887217968702,0.1702914536,-0.0447391197085,0.0288554140125,0.02888034497,-0.00383748073716
1555425767793104561,-0.02043665573,0.000961324258242,0.0655666217208,-0.0270888070003,-0.0218641530754,0.0769356113229,0.938,0.871,2.846,1.122,0.888,0.056,7.0,5.0,0.0,0.198519220613,1.50796958104,9.21232626736,0.0117191082591,0.0214218373884,0.0244342782973,-0.0883652120829,0.170368641615,-0.0443130917847,0.0307144382723,0.0286204849402,-0.00200846273981
1555425767813223380,-0.0214730091393,-0.00125581061002,0.0648029595613,-0.0256983414669,-0.0199854427291,0.0783062404674,0.938,0.871,2.846,1.115,0.887,0.058,1.0,-1.0,0.0,0.22191372944,0.762347185984,10.6721228313,0.0274139748082,-0.116059644844,-0.00617739460344,-0.0873389169574,0.170518770814,-0.0436834581196,0.0299834506809,0.0296591302322,-0.00162144192996
1555425767833278426,-0.0215680859983,-0.00172686111182,0.0632300004363,-0.028562885389,-0.0200590063125,0.0782197459886,0.938,0.871,2.846,1.115,0.887,0.058,0.0,0.0,0.0,1.12550861388,-0.751097069979,9.79660753727,0.0542111074126,-0.109291428993,-0.00159116710085,-0.0865652412176,0.170509904623,-0.0433569848537,0.028272341675,0.0271377714483,-0.00242404612643
1555425767853447285,-0.0206183027476,-0.0018730761949,0.0608369037509,-0.0295788085241,-0.0231997408456,0.079793832318,0.938,0.871,2.846,1.115,0.887,0.058,1.0,0.0,0.0,-0.513201054633,0.814333318546,10.5383151484,0.0937929632923,-0.151020092317,-0.0291870741725,-0.0853971838951,0.17024615407,-0.0430639535189,0.0246545665982,0.0169761794527,-0.0012906115876
1555425767873349359,-0.0207015257329,-0.0024377622176,0.0610508583486,-0.0295762285868,-0.0185669370222,0.0787876318016,0.938,0.871,2.846,1.115,0.887,0.058,1.0,0.0,0.0,-0.193794304915,0.819510516375,9.82059164643,0.0448676855277,-0.0802482092119,-0.0615726921992,-0.0843542218208,0.17031647265,-0.042866114527,0.0265932971972,0.0215321922208,-0.00464235485463
1555425767893138604,-0.0209144558758,-0.00282185571268,0.0606789588928,-0.0283160644515,-0.0142372883159,0.0772579703281,0.941,0.87,3.719,1.115,0.887,0.058,-3.0,-2.0,0.0,1.75538018569,3.13915578336,12.4598049366,0.862719117485,-0.798862839553,0.25995614743,-0.0837003588676,0.170331433415,-0.042842451483,0.0123838154822,0.0114567309028,-0.00105549150047
1555425767913230751,-0.020416136831,-0.00286627886817,0.0643751844764,-0.0194410759576,-0.00668190654512,0.0808405128831,0.941,0.87,3.719,1.118,0.884,0.053,-3.0,-4.0,0.0,3.5473294428,-1.26474046648,11.284874779,-0.239675975992,0.84940091519,0.066332439341,-0.0832449570298,0.170339494944,-0.0428234450519,0.00242461243506,0.00694853350597,0.00498661530688
1555425767933175182,-0.0202569402754,-0.00133084843401,0.0567906536162,-0.0112973498871,0.00310724346192,0.0848976973234,0.941,0.87,3.719,1.118,0.884,0.053,1.0,3.0,0.0,-0.301608208995,5.35525607049,10.4872666168,-0.45292587054,0.834041133603,-0.0333562778262,-0.0833897292614,0.170615598559,-0.0426771305501,0.0115786654389,0.028131764848,0.00400456216288
1555425767953261722,-0.0210043359548,-0.00118193973321,0.0611344054341,-0.0156714817061,-0.00893430104448,0.0843374597762,0.941,0.87,3.719,1.118,0.884,0.053,5.0,5.0,0.0,4.03809443861,3.8712774691,11.3081677473,-0.237313502433,0.227555330659,-0.029075117377,-0.0838930606842,0.170954838395,-0.0424705445766,0.0192269824092,0.0363258263332,0.00243884816076
1555425767973729105,-0.0211532376707,-0.00213825819083,0.0643001794815,-0.0181762138396,-0.0230687986244,0.0836304654082,0.941,0.87,3.719,1.118,0.884,0.053,1.0,1.0,0.0,0.919387830198,2.00563575312,12.2383697104,0.0249762711104,-0.0345187809315,-0.0326981774313,-0.0841568633914,0.170862257481,-0.0424035079777,0.0186187710909,0.0280862337588,0.00456952130894
1555425767993308717,-0.0216050166637,-0.0025073334109,0.0659357309341,-0.0191028690633,-0.0234476332894,0.0825790910217,0.943,0.871,3.562,1.118,0.884,0.053,-2.0,0.0,0.0,1.20543215811,0.616182801425,9.48080643654,0.65442030572,-0.44264959742,-0.068995488079,-0.0841078162193,0.171216651797,-0.0423383563757,0.00246505543802,0.0256548480148,0.000696112547954
1555425768013098108,-0.022590411827,-0.0028697992675,0.056779731065,-0.00918533830703,-0.0149107372571,0.080761092426,0.943,0.871,3.562,1.124,0.884,0.049,-3.0,-1.0,0.0,1.16244342864,0.794532234371,11.480341351,0.54512504011,-0.398528774614,-0.0385929617491,-0.0842405483127,0.171217739582,-0.0420832447708,-0.0063919495328,0.00999772104372,-0.0039599808144
1555425768033059094,-0.0225032493472,-0.00238485424779,0.0594042278826,-0.000990311535657,-0.00950600682912,0.0795378942149,0.943,0.871,3.562,1.124,0.884,0.049,-1.0,0.0,0.0,2.06455814525,1.29936855465,8.94605225265,0.172900440741,-0.0681965688803,-0.0626049584048,-0.0838173180819,0.17134462297,-0.0421109311283,-0.0128659165254,0.0185076741884,-0.00258703993716
1555425768052928234,-0.0223261080682,-0.00279664783739,0.0614862665534,0.00797502209746,-0.00668891034669,0.0786980580428,0.943,0.871,3.562,1.124,0.884,0.049,-1.0,-3.0,0.0,0.70190269053,-1.95550991222,9.04388435662,-0.184878307349,0.11327337081,-0.0912602804508,-0.0833584815264,0.171381160617,-0.0419727377594,-0.011235393299,0.0159630528527,-0.00408687157673
1555425768072922311,-0.0221802387387,-0.00255659781396,0.0653413161635,0.00805021582666,-0.00526415921495,0.0773469448756,0.943,0.871,3.562,1.124,0.884,0.049,0.0,0.0,0.0,0.261802648902,-0.307357575148,9.77790931106,-0.928229950824,0.00429994769827,-0.0256695481182,-0.0830527693033,0.171329915524,-0.0417986512184,0.000369787265815,0.0177634878123,-0.00508483535477
1555425768092976211,-0.0221748184413,-0.0023224002216,0.0681616961956,-0.000833908363059,-0.00613441888165,0.0757523189163,0.943,0.869,3.832,1.124,0.884,0.049,4.0,1.0,0.0,1.41107624754,0.744255242944,13.2287886393,0.088800210361,-0.288273339563,0.00369135687247,-0.083068959415,0.171285659075,-0.0416154377162,0.00498268833725,0.0173441833409,-0.00582286282008
1555425768112973622,-0.0219820328057,-0.00317099760287,0.0571036115289,-0.00899886709646,-0.0100158554959,0.0752318456931,0.943,0.869,3.832,1.127,0.88,0.047,0.0,-2.0,0.0,1.48723360017,0.311040590107,9.00919399559,0.254112422984,-0.31795513544,0.00492306237477,-0.083182439208,0.171205997467,-0.0414623990655,0.000364563179066,0.015009333907,-0.00501304146659
1555425768132973026,-0.0216676648706,-0.0035892513115,0.0587628781796,-0.00444503692252,-0.00449113717726,0.0753816485044,0.943,0.869,3.832,1.127,0.88,0.047,0.0,1.0,0.0,0.337354010716,1.37608621672,8.2260828352,0.275574305577,-0.136679377643,-0.026984024095,-0.0832739844918,0.171151965857,-0.0414137654006,-0.000460428630683,0.0116108158059,-0.00908391687278
1555425768153110093,-0.0216281674802,-0.00375391449779,0.0611974969506,6.36546418205e-05,-0.00126288659338,0.0748265375423,0.943,0.869,3.832,1.127,0.88,0.047,0.0,1.0,0.0,-1.02425720438,0.722628804222,10.7425478661,-0.387257611091,0.389670934381,-0.173740002274,-0.0831836163998,0.171181991696,-0.0413744933903,-0.00222196427714,0.0154716101245,-0.00565486467052
1555425768172981205,-0.0212731342763,-0.00370065961033,0.0636841133237,-0.00481134744838,-0.00625458050197,0.0727948452362,0.943,0.869,3.832,1.127,0.88,0.047,-1.0,0.0,0.0,1.50318144232,4.35433232635,8.47559346735,-0.131526993172,0.338918640724,0.0559951382209,-0.0831861644983,0.1712359339,-0.0412417836487,0.0036976230152,0.0206829495439,-0.00617118229098
1555425768192863792,-0.0213979668915,-0.00344498478808,0.0657877996564,-0.00343484634574,-0.00491778026522,0.0765202663837,0.943,0.866,3.832,1.127,0.88,0.047,1.0,2.0,0.0,2.95933080554,2.27374959424,8.4018255794,-0.141533146855,-0.227139561279,-0.000583217194416,-0.0829606056213,0.171369925141,-0.0413505099714,0.00389445410908,0.017975986641,-0.00555742998543
1555425768212985369,-0.0221525318921,-0.00399607233703,0.0598834827542,-0.0061852727749,-0.00377408989628,0.0772228665359,0.943,0.866,3.705,1.126,0.877,0.055,-1.0,3.0,0.0,3.83336412281,-1.60772351861,10.6610704243,-0.111908958482,0.0705342043002,-0.181334705203,-0.0829868987203,0.17146794498,-0.0413248091936,0.00520400602795,0.0175948978372,-0.00774015243193
1555425768233074501,-0.0222722757608,-0.00385790737346,0.0629524737597,-0.00627726210402,-0.0023549386849,0.0758233837055,0.943,0.866,3.705,1.126,0.877,0.055,0.0,3.0,0.0,0.0455303907814,0.856346001551,9.69724463224,-0.0426084219453,0.211824254482,-0.17746709622,-0.0833472236991,0.171596333385,-0.0414988771081,0.00544641574522,0.0199581798768,-0.0101154618578
1555425768253174594,-0.0224220827222,-0.0036734174937,0.0638792961836,-0.0087410866268,-0.00575158271301,0.0723556317158,0.943,0.866,3.705,1.126,0.877,0.055,0.0,1.0,0.0,8.79873223901,3.25169246525,10.3196924329,0.0611280608104,0.0967494965435,-0.232961081619,-0.0836329758167,0.171613961458,-0.0417329445481,0.00566796881062,0.0191814519285,-0.0168553285271
1555425768272866091,-0.022352097556,-0.00344018056057,0.0645146742463,-0.0101536751227,-0.0100331629221,0.0683577899947,0.943,0.866,3.705,1.126,0.877,0.055,0.0,0.0,0.0,3.24196445256,1.94489663109,9.50924963236,0.0422884681074,0.0477204678486,-0.251525045472,-0.0839086025953,0.17160589993,-0.0418580509722,0.00437567615096,0.0153349798613,-0.0227142472432
1555425768292951443,-0.0222730375826,-0.00352839403786,0.0654010623693,-0.00733944049811,-0.0103913664111,0.0634572240491,0.942,0.867,3.705,1.126,0.877,0.055,-2.0,0.0,0.0,5.89339871585,4.4481143564,9.97316655278,0.288395745105,-0.258341006808,-0.161405538396,-0.0836632028222,0.17158947885,-0.0420382395387,0.000582366168721,0.019413024784,-0.0253823050309
1555425768312980827,-0.0229077581316,-0.00326329283416,0.0550575889647,-0.00554130585916,-0.00578146525298,0.0586788139737,0.942,0.867,3.83,1.124,0.88,0.049,-2.0,0.0,0.0,1.20762237892,4.44417918026,9.66603277981,0.143990096053,-0.21740708901,-0.217268538054,-0.0837261378765,0.171442598104,-0.0424542203546,-0.00537473829967,0.0162485742667,-0.028992217419
1555425768332973152,-0.0224565751851,-0.00240675662644,0.0547015145421,-0.00384401582002,-0.00493294519913,0.0551744768086,0.942,0.867,3.83,1.124,0.88,0.049,0.0,-4.0,0.0,3.63960055232,1.37508034945,9.68074495912,-0.0881313990651,-0.0565220446425,-0.168210181297,-0.0840467810631,0.171286553144,-0.0426593162119,-0.00404573675423,0.0123988183244,-0.0314334137571
1555425768353130681,-0.0214499365538,-0.00232287077233,0.054014030844,-0.000703240715275,-0.00419116328938,0.0511938083153,0.942,0.867,3.83,1.124,0.88,0.049,0.0,-1.0,0.0,2.28385372907,-0.548134586737,8.81828766704,-0.150673365388,-0.0360326735785,-0.191272407323,-0.0846637859941,0.170969411731,-0.0427575223148,0.000337644145857,0.0110086222178,-0.0372388217352
1555425768372926108,-0.0213026572019,-0.00192860921379,0.0535316132009,-0.00248826526757,-0.000643317705209,0.0476189972499,0.942,0.867,3.83,1.124,0.88,0.049,1.0,0.0,0.0,4.76999305308,1.06711956091,9.658348369,-0.0327054636736,-0.0899478580209,-0.118378234501,-0.0854590088129,0.170837551355,-0.0430439189076,-8.85081565878e-05,0.00883961071547,-0.0405057043122
1555425768392909462,-0.0214531160891,-0.0017588121118,0.0524515137076,-0.003778329888,0.00282922894969,0.0445400002003,0.942,0.867,3.83,1.124,0.88,0.049,-1.0,0.0,0.0,3.51566179991,0.1237733493,11.6967362773,0.0856585041902,-0.173539616047,-0.0690686875582,-0.0863221138716,0.17045019567,-0.0430736429989,-0.00176552142679,0.00282688975886,-0.0446059231949
1555425768412880974,-0.0215440709144,-0.00197010324337,0.047977309674,-0.000438018999027,0.00617862735574,0.0426245964877,0.942,0.867,3.83,1.124,0.88,0.049,0.0,-2.0,0.0,2.13886426941,3.9502961567,10.5361902702,0.279144672492,-0.277367362004,-0.0736591658456,-0.0880562067032,0.17006444931,-0.0434776768088,-0.0100748838688,0.00428391395019,-0.041159460952
1555425768432852909,-0.0218524634838,-0.00244263350032,0.0468021184206,0.00663816256377,0.0130946361636,0.0411393140971,0.942,0.867,3.551,1.125,0.881,0.046,0.0,2.0,0.0,1.1897740455,-0.627137706131,10.9364076233,0.118690897935,-0.00880924274476,0.0331256439146,-0.0898669362068,0.169725656509,-0.0435510538518,-0.0153337932591,0.0033865583331,-0.0415902396093
1555425768453313699,-0.0224460847676,-0.00316818361171,0.0452956818044,0.0138162945624,0.0168138488169,0.0408447393522,0.942,0.867,3.551,1.125,0.881,0.046,0.0,-1.0,0.0,2.9822898978,1.55239058599,13.1650563276,-0.0945334136215,0.154676612494,0.00956612352954,-0.093492269516,0.169271752238,-0.0437561571598,-0.0130869247434,0.00991779532711,-0.0404481121267
1555425768473402103,-0.0221578776836,-0.00303793605417,0.0478775277734,0.0118985938733,0.0127781496367,0.0413454802161,0.942,0.867,3.551,1.125,0.881,0.046,4.0,0.0,0.0,4.45347829968,3.35565040469,10.6866040456,-0.188230161897,0.144932705276,0.0337540271767,-0.0965159758925,0.168849334121,-0.0437216833234,-0.0107873626253,0.0108574965624,-0.0416894857017
1555425768492814416,-0.0215868093073,-0.00676722126082,0.040140517056,0.0251890680845,0.00637084152757,0.0389130362614,0.941,0.865,3.551,1.125,0.881,0.046,2.0,0.0,0.0,6.84497166753,2.32124228776,11.1272315061,-0.208794908742,0.00574344082619,0.0512133783882,-0.100385665894,0.168264463544,-0.0436569750309,-0.00532775385216,-0.000546025509933,-0.0409242634304
1555425768513323741,-0.0217244438827,-0.00757970428094,0.0617248751223,0.0157316379378,0.00555155902935,0.0408326927094,0.941,0.865,3.471,1.124,0.878,0.064,0.0,-1.0,0.0,2.07718374565,1.15638278961,10.234865706,-0.206633170951,0.0318615432942,0.0352695655741,-0.105951935053,0.167815238237,-0.0439101532102,0.00250357677138,0.0118719300719,-0.0373531109218
1555425768533778887,-0.0220352821052,-0.00907129794359,0.0680354312062,0.0118906470423,0.00830151472398,0.0417293083082,0.941,0.865,3.471,1.124,0.878,0.064,2.0,0.0,0.0,1.4354391101,4.96669338763,9.03831897676,0.265796709372,0.607250196755,0.0387943549842,-0.109736189246,0.167372390628,-0.0438327565789,-0.00524686240119,0.0259065167608,-0.0378105440908
1555425768553412766,-0.0205530505627,-0.00981513503939,0.073789998889,0.0103967988436,-0.00765470675631,0.0419725090112,0.941,0.865,3.471,1.124,0.878,0.064,0.0,0.0,0.0,2.27820897326,7.69689403117,8.55999217808,0.216391192922,0.640654559203,0.0176079701644,-0.115868009627,0.166723906994,-0.043973531574,-0.0148913539443,0.0509089726065,-0.0386987000626
1555425768573420581,-0.0164500866085,-0.00982283242047,0.0585066080093,0.0224645294536,-0.0448278296575,0.0411715300239,0.941,0.865,3.471,1.124,0.878,0.064,9.0,28.0,0.0,3.16632867157,5.02902646065,7.74000379801,-0.567372422067,-0.460237113259,0.0133948982139,-0.119860522449,0.166184142232,-0.04404110834,-0.0111621653134,0.0453407889949,-0.0358073337365
1555425768593302180,-0.0223773159087,-0.0186158213764,0.158904448152,0.0329326521205,-0.0174882985241,0.0456159505702,0.937,0.871,3.471,1.124,0.878,0.064,6.0,-4.0,0.0,2.69769450992,-1.6901223354,9.26251174986,-1.24866342397,-1.12413667456,0.0250856021955,-0.123484618962,0.165655359626,-0.0439476966858,0.00147807479716,0.0278899417812,-0.0360570593693
