rosbagTimestamp,transforms,-,header,seq,stamp,secs,nsecs,frame_id,child_frame_id,transform,translation,x,y,z,rotation,x,y,z,w
1555425764282419788,,,0,,1555425764,382279199,"""world""","""cf6_takeoff""",,,1.0,1.0,0.0,,0.0,0.0,0.0,1.0
1555425764382608617,,,0,,1555425764,482367667,"""world""","""cf6_takeoff""",,,1.0,1.0,0.0,,0.0,0.0,0.0,1.0
1555425764482856389,,,0,,1555425764,582637423,"""world""","""cf6_takeoff""",,,1.0,1.0,0.0,,0.0,0.0,0.0,1.0
1555425764583016225,,,0,,1555425764,682729334,"""world""","""cf6_takeoff""",,,1.0,1.0,0.0,,0.0,0.0,0.0,1.0
1555425764683082326,,,0,,1555425764,782958743,"""world""","""cf6_takeoff""",,,1.0,1.0,0.0,,0.0,0.0,0.0,1.0
1555425764783249672,,,0,,1555425764,883140940,"""world""","""cf6_takeoff""",,,1.0,1.0,0.0,,0.0,0.0,0.0,1.0
1555425764883334454,,,0,,1555425764,983217637,"""world""","""cf6_takeoff""",,,1.0,1.0,0.0,,0.0,0.0,0.0,1.0
1555425764983539740,,,0,,1555425765,83335784,"""world""","""cf6_takeoff""",,,1.0,1.0,0.0,,0.0,0.0,0.0,1.0
1555425765083627485,,,0,,1555425765,183393501,"""world""","""cf6_takeoff""",,,1.0,1.0,0.0,,0.0,0.0,0.0,1.0
1555425765140775217,,,0,,1555425765,140178170,"""world""","""cf6_vrpn""",,,0.159762099385,-0.0469508208334,0.0827504694462,,-0.000241213623667,-0.000868916336913,0.0395912230015,-0.999215662479
1555425765140798290,,,0,,1555425765,140260241,"""world""","""cf6_vrpn""",,,0.159777849913,-0.0469537787139,0.0827548280358,,-0.000293939607218,-0.00082822580589,0.0395667925477,-0.999216556549
1555425765143693741,,,0,,1555425765,134767055,"""cf6_takeoff""","""cf6""",,,-0.00055802235147,-0.000113413945655,0.0576669871807,,-0.00389942719686,-0.00528910643176,-6.76548995963e-05,0.999978407389
1555425765149221988,,,0,,1555425765,148993814,"""world""","""cf6_vrpn""",,,0.15975959599,-0.0469534136355,0.0827554613352,,-0.000158927796292,-0.0009081758908,0.0395270735025,-0.999218165874
1555425765159734764,,,0,,1555425765,159284496,"""world""","""cf6_vrpn""",,,0.159772366285,-0.046960093081,0.0827437490225,,-0.000185450888239,-0.000945468666032,0.0396115519106,-0.999214708805
1555425765167785969,,,0,,1555425765,159890890,"""cf6_takeoff""","""cf6""",,,-0.00055802235147,-0.000113413945655,0.0576669871807,,-0.00288748367652,-0.00573720198844,-4.15771012528e-05,0.999979372399
1555425765169795036,,,0,,1555425765,169545306,"""world""","""cf6_vrpn""",,,0.15977793932,-0.046951405704,0.0827562436461,,-0.000413361471146,-0.000694787246175,0.0395575799048,-0.999217033386
1555425765180324048,,,0,,1555425765,179844586,"""world""","""cf6_vrpn""",,,0.159771427512,-0.0469649024308,0.0827361345291,,-0.000341029168339,-0.000816923857201,0.0394592545927,-0.999220788479
1555425765183727239,,,0,,1555425765,283512343,"""world""","""cf6_takeoff""",,,1.0,1.0,0.0,,0.0,0.0,0.0,1.0
1555425765189248351,,,0,,1555425765,184794902,"""cf6_takeoff""","""cf6""",,,-0.000266560586169,-9.00359664229e-05,0.0595955625176,,-0.00209181670875,-0.00492685744617,-3.13990743255e-05,0.999985674594
1555425765189548185,,,0,,1555425765,189143129,"""world""","""cf6_vrpn""",,,0.159780368209,-0.0469422787428,0.0827471837401,,-0.000259198626736,-0.000860415748321,0.0394178703427,-0.999222457409
1555425765199747135,,,0,,1555425765,199462141,"""world""","""cf6_vrpn""",,,0.159772127867,-0.0469304136932,0.082748927176,,-0.000268997711828,-0.000861061038449,0.0393730700016,-0.999224245548
1555425765199768976,,,0,,1555425765,199495974,"""world""","""cf6_vrpn""",,,0.159767791629,-0.0469428151846,0.0827509611845,,-0.000345771579305,-0.00074951472925,0.0394706726074,-0.999220490456
1555425765210119902,,,0,,1555425765,209836224,"""world""","""cf6_vrpn""",,,0.159762203693,-0.0469610765576,0.0827331990004,,-0.000415061338572,-0.000643951701932,0.0394293963909,-0.999222099781
1555425765214576261,,,0,,1555425765,209826946,"""cf6_takeoff""","""cf6""",,,-6.41110891593e-05,0.000388978223782,0.0554591678083,,-0.00536076086557,-0.00666099356558,-7.82122588687e-05,0.999963442977
1555425765219480387,,,0,,1555425765,219174934,"""world""","""cf6_vrpn""",,,0.159770205617,-0.0469570532441,0.0827668905258,,-0.000392893125536,-0.00060073583154,0.0394050441682,-0.999223053455
1555425765229948865,,,0,,1555425765,229478813,"""world""","""cf6_vrpn""",,,0.159776508808,-0.0469356290996,0.0827510505915,,-0.000351318245521,-0.000884133973159,0.0394030809402,-0.999222993851
1555425765239384650,,,0,,1555425765,234822034,"""cf6_takeoff""","""cf6""",,,-0.000555884675123,0.000142488148413,0.055848158896,,-0.00125040534313,-0.00222190634025,-3.66673456367e-05,0.999996749132
1555425765240111518,,,0,,1555425765,239803946,"""world""","""cf6_vrpn""",,,0.159757107496,-0.0469548590481,0.0827505216002,,-0.000339798716595,-0.000872175383847,0.0394440628588,-0.999221384525
1555425765240148198,,,0,,1555425765,239832636,"""world""","""cf6_vrpn""",,,0.159756720066,-0.0469485372305,0.0827452465892,,-0.000210926198633,-0.00101004180033,0.0394280813634,-0.999221920967
1555425765249497609,,,0,,1555425765,249213523,"""world""","""cf6_vrpn""",,,0.159763291478,-0.0469217672944,0.0827598124743,,-0.000272015866358,-0.00104377232492,0.0395641252398,-0.999216556549
1555425765259806768,,,0,,1555425765,259542878,"""world""","""cf6_vrpn""",,,0.159754142165,-0.0469323433936,0.082741163671,,-0.000240905443206,-0.000999114243314,0.0395242720842,-0.999218165874
1555425765264222050,,,0,,1555425765,259732007,"""cf6_takeoff""","""cf6""",,,-0.000292190117761,-0.000610930263065,0.0553855150938,,0.00265540435979,-0.00382181850075,-0.000114486405351,0.999989164653
1555425765269178612,,,0,,1555425765,268844310,"""world""","""cf6_vrpn""",,,0.159760966897,-0.0469250828028,0.0827435255051,,-0.00028646067949,-0.000953178212512,0.0395502150059,-0.999217092991
1555425765279580929,,,0,,1555425765,279314157,"""world""","""cf6_vrpn""",,,0.159770444036,-0.046903423965,0.0827369391918,,-0.000353332870873,-0.000885468441993,0.0395013056695,-0.999219059944
1555425765283846471,,,0,,1555425765,383605167,"""world""","""cf6_takeoff""",,,1.0,1.0,0.0,,0.0,0.0,0.0,1.0
1555425765288858070,,,0,,1555425765,284778118,"""cf6_takeoff""","""cf6""",,,-0.000490682548843,0.000181444513146,0.0588888190687,,-0.00135611594104,-0.00187209929544,-2.68044975115e-05,0.999997327734
1555425765289981537,,,0,,1555425765,289712977,"""world""","""cf6_vrpn""",,,0.159776523709,-0.0469288527966,0.0827402696013,,-0.000353363662725,-0.000956005475018,0.0394364260137,-0.999221563339
1555425765290241141,,,0,,1555425765,289791834,"""world""","""cf6_vrpn""",,,0.159768104553,-0.0469249524176,0.0827285572886,,-0.000120226992294,-0.0010114867473,0.0394886881113,-0.999219596386
1555425765299337157,,,0,,1555425765,299104735,"""world""","""cf6_vrpn""",,,0.159764051437,-0.046921890229,0.0827471986413,,-0.000260909000644,-0.000953286711592,0.0395140126348,-0.999218583107
1555425765310021782,,,0,,1555425765,309498833,"""world""","""cf6_vrpn""",,,0.159756854177,-0.0469238348305,0.0827538669109,,-0.00018398440443,-0.00091771123698,0.0394360423088,-0.999221742153
1555425765314933584,,,0,,1555425765,309823989,"""cf6_takeoff""","""cf6""",,,0.000201801129151,-0.000359190831659,0.0546517707407,,0.00104095162995,-0.00506233385371,-0.000136123402797,0.999986635244
1555425765320063986,,,0,,1555425765,319824798,"""world""","""cf6_vrpn""",,,0.159738600254,-0.0469350144267,0.0827483683825,,-0.000171597552253,-0.000869312149007,0.0394460447133,-0.999221324921
1555425765329630134,,,0,,1555425765,329360477,"""world""","""cf6_vrpn""",,,0.159700155258,-0.0469234809279,0.0827608108521,,-0.000305888126604,-0.00111120089423,0.0399887524545,-0.999199450016
1555425765339055773,,,0,,1555425765,334815979,"""cf6_takeoff""","""cf6""",,,-0.000548854470253,0.000156496127602,0.0551144890487,,0.00018963636828,-0.000931334131995,-4.64337036111e-05,0.999999547249
1555425765339978056,,,0,,1555425765,339694848,"""world""","""cf6_vrpn""",,,0.159738793969,-0.0469157360494,0.0827621743083,,-0.000291610951535,-0.000903368578292,0.0395255461335,-0.99921810627
1555425765349514395,,,0,,1555425765,349048174,"""world""","""cf6_vrpn""",,,0.159749254584,-0.046912021935,0.0827509313822,,-0.000279258296359,-0.000939696154092,0.0394341908395,-0.999221682549
1555425765349601654,,,0,,1555425765,349077209,"""world""","""cf6_vrpn""",,,0.159748345613,-0.0469325743616,0.0827362239361,,-0.000168055892573,-0.0010712579824,0.0394649244845,-0.999220371246
1555425765359882581,,,0,,1555425765,359539247,"""world""","""cf6_vrpn""",,,0.159757137299,-0.0469193570316,0.0827260762453,,-0.000306801841361,-0.000824078451842,0.0394050516188,-0.999222993851
1555425765364508986,,,0,,1555425765,359813928,"""cf6_takeoff""","""cf6""",,,-0.00026995074586,-0.000593364937231,0.0557164922357,,0.00171362405321,-0.00207120596581,-0.000122646639365,0.999996379272
1555425765369019077,,,0,,1555425765,368788115,"""world""","""cf6_vrpn""",,,0.159760668874,-0.0469139479101,0.0827246010303,,-0.000355790136382,-0.00071670836769,0.0393979586661,-0.999223291874
1555425765379627472,,,0,,1555425765,379160226,"""world""","""cf6_vrpn""",,,0.159756422043,-0.0469128079712,0.0827112495899,,-0.000227930169785,-0.000914011674467,0.0394030585885,-0.999223053455
1555425765383997288,,,0,,1555425765,483781837,"""world""","""cf6_takeoff""",,,1.0,1.0,0.0,,0.0,0.0,0.0,1.0
1555425765389706326,,,0,,1555425765,384752035,"""cf6_takeoff""","""cf6""",,,-0.000509507255629,-7.93762810645e-05,0.0565109290183,,-0.000476874222054,-0.00107815978078,-3.26485734274e-05,0.999999304548
1555425765389721551,,,0,,1555425765,389470867,"""world""","""cf6_vrpn""",,,0.159770354629,-0.0468991547823,0.0827142670751,,-0.000363162660506,-0.000889223651029,0.0395299457014,-0.999217987061
1555425765389876960,,,0,,1555425765,389542324,"""world""","""cf6_vrpn""",,,0.159767091274,-0.0469042807817,0.0827155560255,,-0.000261761684669,-0.00088342098752,0.0395842604339,-0.999215900898
1555425765400121635,,,0,,1555425765,399865401,"""world""","""cf6_vrpn""",,,0.159750536084,-0.0469093881547,0.0827191621065,,-0.000166208032169,-0.00086933048442,0.039380684495,-0.99922388792
1555425765409629633,,,0,,1555425765,409286193,"""world""","""cf6_vrpn""",,,0.159755632281,-0.0469049140811,0.0827335342765,,-0.000259460299276,-0.00100621487945,0.0394813083112,-0.999219834805
1555425765417872597,,,0,,1555425765,409894943,"""cf6_takeoff""","""cf6""",,,-0.000538038439117,-0.000334646756528,0.0539260692894,,0.000579165246381,-0.000772813227691,-6.06917991878e-05,0.999999531822
1555425765420132036,,,0,,1555425765,419743884,"""world""","""cf6_vrpn""",,,0.159757509828,-0.0469234585762,0.082727663219,,-0.000246433570283,-0.000796338368673,0.0394472517073,-0.999221384525
1555425765429610078,,,0,,1555425765,429106250,"""world""","""cf6_vrpn""",,,0.159709766507,-0.0469198040664,0.0827415660024,,-0.000395342998672,-0.00082421983825,0.0399121120572,-0.999202787876
1555425765440039048,,,0,,1555425765,439495895,"""world""","""cf6_vrpn""",,,0.159743487835,-0.0469353422523,0.0827487111092,,-0.00032381300116,-0.000882974360138,0.0395008064806,-0.999219179153
1555425765443253392,,,0,,1555425765,434921979,"""cf6_takeoff""","""cf6""",,,-0.000513481383678,-0.000325732922647,0.0551998242736,,0.000720964160293,-0.0008719253007,-7.66543571374e-05,0.99999935704
1555425765450305095,,,0,,1555425765,449894968,"""world""","""cf6_vrpn""",,,0.159757867455,-0.0469069108367,0.0827358067036,,-0.000249302363954,-0.000888232549187,0.0394379757345,-0.999221622944
1555425765450318194,,,0,,1555425765,449939877,"""world""","""cf6_vrpn""",,,0.159764677286,-0.0469133518636,0.0827420800924,,-0.000300881685689,-0.000991361099295,0.0394189804792,-0.9992223382
1555425765459680532,,,0,,1555425765,459404827,"""world""","""cf6_vrpn""",,,0.159754559398,-0.0469045676291,0.082726329565,,-0.000216762302443,-0.00104779319372,0.0396063178778,-0.999214828014
1555425765463919417,,,0,,1555425765,459841966,"""cf6_takeoff""","""cf6""",,,-0.000507840828504,-7.05494749127e-05,0.0550964325666,,-2.43097002401e-05,-0.00102438752354,-4.84677411678e-05,0.999999473845
1555425765470107418,,,0,,1555425765,469809618,"""world""","""cf6_vrpn""",,,0.159770533442,-0.0469123795629,0.0827364698052,,-0.000192787294509,-0.000944231054746,0.0395152494311,-0.999218523502
1555425765479518806,,,0,,1555425765,479209321,"""world""","""cf6_vrpn""",,,0.159764930606,-0.0469092130661,0.0827230662107,,-0.000154770081281,-0.000912620918825,0.039399638772,-0.99922311306
1555425765484273905,,,0,,1555425765,583916489,"""world""","""cf6_takeoff""",,,1.0,1.0,0.0,,0.0,0.0,0.0,1.0
1555425765489094695,,,0,,1555425765,484797954,"""cf6_takeoff""","""cf6""",,,-0.000252657104284,0.000434602989117,0.0556346438825,,-0.00142265951136,-0.00145395169411,-7.2079550575e-06,0.999997931004
1555425765489753020,,,0,,1555425765,489529539,"""world""","""cf6_vrpn""",,,0.159767195582,-0.0468954741955,0.0827373042703,,-8.22366855573e-05,-0.00114856590517,0.0394976511598,-0.99921900034
1555425765500169540,,,0,,1555425765,499947143,"""world""","""cf6_vrpn""",,,0.159770935774,-0.0469131842256,0.0827365741134,,-0.00019495934248,-0.00108498777263,0.0395618453622,-0.999216616154
1555425765500314665,,,0,,1555425765,500022648,"""world""","""cf6_vrpn""",,,0.159718200564,-0.0469185747206,0.0827584415674,,-0.000259240419837,-0.000979169621132,0.0400377698243,-0.999197661877
1555425765509582764,,,0,,1555425765,509295868,"""world""","""cf6_vrpn""",,,0.159754112363,-0.0469270125031,0.082742549479,,-0.00016642450646,-0.00106750545092,0.0394071005285,-0.999222695827
1555425765514992712,,,0,,1555425765,509836912,"""cf6_takeoff""","""cf6""",,,-0.00050406542141,0.000432469183579,0.0544385202229,,-0.00109533876598,-0.000660097364324,-8.02899749472e-07,0.999999182252
1555425765519829981,,,0,,1555425765,519575748,"""world""","""cf6_vrpn""",,,0.159749567509,-0.0469321459532,0.0827410668135,,-0.00035547488369,-0.000845242699143,0.0393820106983,-0.999223828316
1555425765529091026,,,0,,1555425765,528820754,"""world""","""cf6_vrpn""",,,0.159771978855,-0.0469283051789,0.0827633515,,-0.000303742126562,-0.000759128772188,0.0395049527287,-0.999219059944
1555425765539729020,,,0,,1555425765,534856081,"""cf6_takeoff""","""cf6""",,,-8.62470187712e-07,-0.000556884508114,0.0548053607345,,0.00064360589293,-0.000158361035303,-3.59498876559e-05,0.9999997797
1555425765539857607,,,0,,1555425765,539135850,"""world""","""cf6_vrpn""",,,0.159774377942,-0.0469345226884,0.0827658772469,,-0.000287603121251,-0.000870280666277,0.0395283401012,-0.999218046665
1555425765549841598,,,0,,1555425765,549510631,"""world""","""cf6_vrpn""",,,0.159710839391,-0.0469374321401,0.0827472060919,,-0.000402146164561,-0.00106797053013,0.0399621762335,-0.999200582504
1555425765549858995,,,0,,1555425765,549536886,"""world""","""cf6_vrpn""",,,0.159773156047,-0.046946298331,0.0827483013272,,-0.000265110516921,-0.00104551995173,0.0394958928227,-0.999219179153
1555425765559145458,,,0,,1555425765,558807364,"""world""","""cf6_vrpn""",,,0.159762442112,-0.0469533540308,0.082762658596,,-0.000490050646476,-0.000770682992879,0.03944574669,-0.999221384525
1555425765564123969,,,0,,1555425765,559789896,"""cf6_takeoff""","""cf6""",,,-0.000486652686959,-4.58954709757e-05,0.0560747534037,,0.00216993795656,-0.00122178319903,-0.000124260426169,0.999996891582
1555425765569328630,,,0,,1555425765,569115266,"""world""","""cf6_vrpn""",,,0.159755915403,-0.0469388253987,0.0827631279826,,-0.000355957308784,-0.000875074707437,0.039354801178,-0.999224901199
1555425765579857231,,,0,,1555425765,579583413,"""world""","""cf6_vrpn""",,,0.159758090973,-0.0469378456473,0.0827489346266,,-0.000338011974236,-0.00099500536453,0.0395103804767,-0.999218642712
1555425765584300779,,,0,,1555425765,684038505,"""world""","""cf6_takeoff""",,,1.0,1.0,0.0,,0.0,0.0,0.0,1.0
1555425765589135024,,,0,,1555425765,588862576,"""world""","""cf6_vrpn""",,,0.159759372473,-0.0469307638705,0.0827473402023,,-0.000154844732606,-0.00102260673884,0.0394056215882,-0.999222815037
1555425765589578161,,,0,,1555425765,584844112,"""cf6_takeoff""","""cf6""",,,0.000290193682304,-3.64392835763e-05,0.0568103343248,,0.000273162971413,-0.00244097907656,-0.000113221029808,0.999996977087
1555425765599432627,,,0,,1555425765,599199555,"""world""","""cf6_vrpn""",,,0.159755244851,-0.046932913363,0.08275475353,,-0.000416789087467,-0.000842509092763,0.0394101962447,-0.999222695827
1555425765599953415,,,0,,1555425765,599338356,"""world""","""cf6_vrpn""",,,0.159757345915,-0.0469393655658,0.0827347934246,,-0.000284215377178,-0.000894163385965,0.0394678376615,-0.999220490456
1555425765610023995,,,0,,1555425765,609741203,"""world""","""cf6_vrpn""",,,0.159762784839,-0.0469371005893,0.0827292650938,,-0.000390652072383,-0.000728205486666,0.0393756963313,-0.999224126339
1555425765615059717,,,0,,1555425765,609869003,"""cf6_takeoff""","""cf6""",,,-0.000244738883339,0.000209350109799,0.0539555363357,,3.60545202331e-05,-0.000589869416086,-5.9741302448e-05,0.999999823593
1555425765619367877,,,0,,1555425765,619126932,"""world""","""cf6_vrpn""",,,0.159766256809,-0.0469337068498,0.0827471241355,,-0.000329999398673,-0.000890405033715,0.0394620746374,-0.99922066927
1555425765629814988,,,0,,1555425765,629497121,"""world""","""cf6_vrpn""",,,0.159774795175,-0.0469506345689,0.0827440917492,,-0.000297420308925,-0.000818407337647,0.0394368804991,-0.999221742153
1555425765639277642,,,0,,1555425765,634828090,"""cf6_takeoff""","""cf6""",,,-0.000469138583867,-0.000296455982607,0.0569649152458,,0.00152825646864,-0.00010120393316,-0.000102725394126,0.999998821818
1555425765640056423,,,0,,1555425765,639832819,"""world""","""cf6_vrpn""",,,0.159762442112,-0.0469544753432,0.0827297493815,,-0.00029721998726,-0.000828459393233,0.039526373148,-0.999218165874
1555425765649537856,,,0,,1555425765,649214339,"""world""","""cf6_vrpn""",,,0.1597648561,-0.0469326451421,0.0827455967665,,-0.000380355952075,-0.000879904138856,0.0394508205354,-0.999221086502
1555425765649558845,,,0,,1555425765,649239176,"""world""","""cf6_vrpn""",,,0.15975561738,-0.0469132214785,0.0827237293124,,-0.000409505242715,-0.000935455143917,0.039472438395,-0.999220192432
1555425765659932591,,,0,,1555425765,659584376,"""world""","""cf6_vrpn""",,,0.159739345312,-0.0469174310565,0.0827063396573,,-0.000231157333474,-0.000877456506714,0.0394422374666,-0.999221503735
1555425765664181132,,,0,,1555425765,659809112,"""cf6_takeoff""","""cf6""",,,-0.000464042444946,-0.000293206598144,0.0573858805001,,0.00140945783381,-0.000349882174699,-0.000102805868129,0.99999894022
1555425765669163440,,,0,,1555425765,668868896,"""world""","""cf6_vrpn""",,,0.159740537405,-0.0469210334122,0.0827212929726,,-0.000289634306682,-0.000955534982495,0.0394669622183,-0.999220371246
1555425765679718615,,,0,,1555425765,679306117,"""world""","""cf6_vrpn""",,,0.159759178758,-0.0469089709222,0.082742638886,,-0.000265109818429,-0.00106080272235,0.0394234731793,-0.999221980572
1555425765684621068,,,0,,1555425765,784144491,"""world""","""cf6_takeoff""",,,1.0,1.0,0.0,,0.0,0.0,0.0,1.0
1555425765690023451,,,0,,1555425765,689706446,"""world""","""cf6_vrpn""",,,0.159747093916,-0.0469390191138,0.0827249065042,,-0.000299864797853,-0.00103805412073,0.0394939854741,-0.999219298363
1555425765690317825,,,0,,1555425765,689822633,"""world""","""cf6_vrpn""",,,0.159744769335,-0.0469357147813,0.0827442258596,,-0.000170566243469,-0.000932131544687,0.0393767543137,-0.999224066734
1555425765691682330,,,0,,1555425765,684896945,"""cf6_takeoff""","""cf6""",,,-0.000462636176962,-3.95297902287e-05,0.0576689876616,,0.000690080198788,-0.000458069475704,-7.77082998277e-05,0.999999653961
1555425765699531408,,,0,,1555425765,699228397,"""world""","""cf6_vrpn""",,,0.159763306379,-0.0469367206097,0.0827462375164,,-0.000192770268768,-0.00108491524588,0.0394800230861,-0.999219834805
1555425765710062579,,,0,,1555425765,709711942,"""world""","""cf6_vrpn""",,,0.159738108516,-0.0469321683049,0.0827458947897,,-7.94368897914e-05,-0.00102746568155,0.0395292975008,-0.999217867851
1555425765719076236,,,0,,1555425765,709981918,"""cf6_takeoff""","""cf6""",,,0.000281640037429,-0.00028627293068,0.0544729791582,,0.00166773065195,-0.00247763534826,-0.000142809626868,0.999995529791
1555425765719566770,,,0,,1555425765,719262299,"""world""","""cf6_vrpn""",,,0.159746780992,-0.0469509549439,0.0827420800924,,-0.000327182380715,-0.00104145950172,0.039579693228,-0.999215841293
1555425765730073267,,,0,,1555425765,729658249,"""world""","""cf6_vrpn""",,,0.159757852554,-0.0469489991665,0.0827359482646,,-0.000116389266623,-0.00110940111335,0.039590485394,-0.999215424061
1555425765739506445,,,0,,1555425765,739111168,"""world""","""cf6_vrpn""",,,0.159703269601,-0.0469411872327,0.0827436670661,,-0.000341993290931,-0.0011199885048,0.0400279276073,-0.9991979599
1555425765741452218,,,0,,1555425765,734988927,"""cf6_takeoff""","""cf6""",,,-0.000443246448413,-4.84852353111e-05,0.0571597367525,,0.000434952936756,0.000434243567848,-4.56503629151e-05,0.999999810082
1555425765749984485,,,0,,1555425765,749514643,"""world""","""cf6_vrpn""",,,0.15975895524,-0.046951238066,0.0827497988939,,-0.000313318741973,-0.000816034269519,0.0395599231124,-0.999216914177
1555425765750086259,,,0,,1555425765,749553120,"""world""","""cf6_vrpn""",,,0.159754037857,-0.0469348318875,0.0827440172434,,-0.000369459594367,-0.000984313432127,0.0395257286727,-0.999218046665
1555425765759166633,,,0,,1555425765,758814091,"""world""","""cf6_vrpn""",,,0.159750923514,-0.0469226874411,0.0827545970678,,-0.000115723174531,-0.000929019588511,0.0394551642239,-0.999220907688
1555425765767008461,,,0,,1555425765,759869098,"""cf6_takeoff""","""cf6""",,,4.49430772278e-05,-0.000534702034201,0.0581568181515,,0.00189206770544,-0.000917830539904,-0.000113127316456,0.999997782432
1555425765769515693,,,0,,1555425765,769150208,"""world""","""cf6_vrpn""",,,0.159748867154,-0.0469299890101,0.0827515944839,,-0.00033753470052,-0.000889286282472,0.0395120605826,-0.999218642712
1555425765779897787,,,0,,1555425765,779511715,"""world""","""cf6_vrpn""",,,0.159745410085,-0.0469252094626,0.0827420800924,,-0.00038581044646,-0.000791769940406,0.0394607745111,-0.999220788479
1555425765784622882,,,0,,1555425765,884250237,"""world""","""cf6_takeoff""",,,1.0,1.0,0.0,,0.0,0.0,0.0,1.0
1555425765790384511,,,0,,1555425765,789936221,"""world""","""cf6_vrpn""",,,0.159757912159,-0.0469505339861,0.0827491655946,,-0.00016651066835,-0.00101805175655,0.0394785515964,-0.999219954014
1555425765790415058,,,0,,1555425765,789975235,"""world""","""cf6_vrpn""",,,0.159779235721,-0.0469455607235,0.0827540829778,,-0.000323808693793,-0.000966749037616,0.0394562222064,-0.999220788479
1555425765792298736,,,0,,1555425765,785068988,"""cf6_takeoff""","""cf6""",,,4.86363314849e-05,-5.50748263777e-05,0.0593300499022,,0.000426407633544,-0.000759047846442,-8.44585742626e-05,0.999999617445
1555425765800092319,,,0,,1555425765,799428845,"""world""","""cf6_vrpn""",,,0.159776479006,-0.0469506978989,0.0827524214983,,-9.0131208708e-05,-0.00104721344542,0.0395168550313,-0.999218404293
1555425765810313480,,,0,,1555425765,809937626,"""world""","""cf6_vrpn""",,,0.159763514996,-0.0469588749111,0.0827447846532,,-0.000225531679462,-0.000911752926186,0.0394676364958,-0.999220430851
1555425765816254176,,,0,,1555425765,809941053,"""cf6_takeoff""","""cf6""",,,0.000281806947896,-0.000283981004031,0.0552006624639,,0.00136644969266,-0.00153779281342,-0.000120327778502,0.999997876763
1555425765819750368,,,0,,1555425765,819369117,"""world""","""cf6_vrpn""",,,0.159763291478,-0.0469543002546,0.0827499553561,,-0.00027223143843,-0.00094528181944,0.0395014025271,-0.999219119549
1555425765830174852,,,0,,1555425765,829800670,"""world""","""cf6_vrpn""",,,0.159767225385,-0.0469381287694,0.0827514305711,,-0.000326039124047,-0.000875152356457,0.0393904484808,-0.999223530293
1555425765839527090,,,0,,1555425765,839212037,"""world""","""cf6_vrpn""",,,0.159771427512,-0.0469377189875,0.082738019526,,-0.000207938384847,-0.00089239643421,0.0394767224789,-0.999220073223
1555425765841736272,,,0,,1555425765,834903955,"""cf6_takeoff""","""cf6""",,,-0.000432860921137,0.000196227891138,0.0558301098645,,0.000224481572164,0.000742250331815,-5.70078516017e-05,0.999999697711
1555425765849971570,,,0,,1555425765,849601997,"""world""","""cf6_vrpn""",,,0.159756183624,-0.0469406507909,0.082751326263,,-0.000228128395975,-0.000916592194699,0.0394698046148,-0.999220311642
1555425765850029784,,,0,,1555425765,849764990,"""world""","""cf6_vrpn""",,,0.159767627716,-0.0469347015023,0.0827588960528,,-0.000158778770128,-0.00105116434861,0.0395377017558,-0.999217510223
1555425765859560576,,,0,,1555425765,859219329,"""world""","""cf6_vrpn""",,,0.159754216671,-0.0469522960484,0.0827467888594,,-0.000336647382937,-0.00089312705677,0.039367031306,-0.999224364758
1555425765866324858,,,0,,1555425765,859937906,"""cf6_takeoff""","""cf6""",,,-0.000431573367678,-0.000528536969796,0.0575623065233,,0.00212937257867,0.000708931034351,-0.00012996989674,0.999997473145
1555425765869372091,,,0,,1555425765,869036550,"""world""","""cf6_vrpn""",,,0.159769207239,-0.046940214932,0.0827545523643,,-0.000268613017397,-0.000926759443246,0.0394835658371,-0.999219834805
1555425765879759690,,,0,,1555425765,879432882,"""world""","""cf6_vrpn""",,,0.159757643938,-0.0469504706562,0.0827554315329,,-0.000146161939483,-0.000999439042062,0.0394386276603,-0.999221503735
1555425765884683556,,,0,,1555425765,984356906,"""world""","""cf6_takeoff""",,,1.0,1.0,0.0,,0.0,0.0,0.0,1.0
1555425765890387164,,,0,,1555425765,889815201,"""world""","""cf6_vrpn""",,,0.159763395786,-0.0469426214695,0.0827526822686,,-0.000223010298214,-0.00100918521639,0.0395512916148,-0.999217092991
1555425765890400260,,,0,,1555425765,889946915,"""world""","""cf6_vrpn""",,,0.159762635827,-0.0469501428306,0.0827515572309,,-0.000139214564115,-0.000909832655452,0.0394705608487,-0.999220371246
1555425765892687052,,,0,,1555425765,884942054,"""cf6_takeoff""","""cf6""",,,-0.00043585000094,-5.00908354297e-05,0.0580753162503,,0.000421276800333,0.000343890965104,-7.51817790913e-05,0.999999849306
1555425765899802182,,,0,,1555425765,899389000,"""world""","""cf6_vrpn""",,,0.159760937095,-0.0469545014203,0.0827641710639,,-0.000486014265334,-0.000757628818974,0.0395199507475,-0.999218463898
1555425765910263862,,,0,,1555425765,909865478,"""world""","""cf6_vrpn""",,,0.159692302346,-0.0469666533172,0.0827507898211,,-0.000287175993435,-0.00102092849556,0.0399975776672,-0.999199211597
1555425765920006477,,,0,,1555425765,910049915,"""cf6_takeoff""","""cf6""",,,-0.000432566564996,-3.62567952834e-05,0.0544533580542,,0.000814248754792,0.000171587577148,-0.000109049697742,0.999999647832
1555425765920662267,,,0,,1555425765,919244961,"""world""","""cf6_vrpn""",,,0.159758850932,-0.0469756275415,0.0827717334032,,-0.000346325716237,-0.000875898113009,0.0395029298961,-0.999219059944
1555425765930092641,,,0,,1555425765,929719161,"""world""","""cf6_vrpn""",,,0.159773230553,-0.0469627380371,0.0827509462833,,-0.000130073298351,-0.00102283630986,0.0395119227469,-0.999218642712
1555425765939590223,,,0,,1555425765,939136588,"""world""","""cf6_vrpn""",,,0.15976510942,-0.0469622984529,0.0827579274774,,-0.000249347736826,-0.00103797612246,0.039498411119,-0.999219119549
1555425765941817029,,,0,,1555425765,934954881,"""cf6_takeoff""","""cf6""",,,-0.000426685175626,-3.57059980161e-05,0.0543576180935,,0.000814248754792,0.000171587577148,-0.000109049697742,0.999999647832
1555425765950009997,,,0,,1555425765,949527883,"""world""","""cf6_vrpn""",,,0.159751683474,-0.0469589717686,0.0827613994479,,-0.000329019327182,-0.000978169962764,0.0394930541515,-0.999219357967
1555425765950031612,,,0,,1555425765,949565150,"""world""","""cf6_vrpn""",,,0.15975689888,-0.0469456799328,0.0827595964074,,-0.000252546014963,-0.000919255253393,0.0394527874887,-0.999221086502
1555425765959295488,,,0,,1555425765,958853853,"""world""","""cf6_vrpn""",,,0.159755840898,-0.046966444701,0.0827603638172,,-0.000282965396764,-0.000857312581502,0.039545532316,-0.999217450619
1555425765966698339,,,0,,1555425765,959960937,"""cf6_takeoff""","""cf6""",,,-0.000429345440352,-0.000274198653642,0.0541005842388,,0.00150589221903,-6.59739702067e-06,-0.000135910498237,0.999998856886
1555425765969785173,,,0,,1555425765,969274861,"""world""","""cf6_vrpn""",,,0.159775450826,-0.046946015209,0.0827694833279,,-0.000141482640174,-0.000848903262522,0.0393683388829,-0.999224424362
1555425765980130511,,,0,,1555425765,979772925,"""world""","""cf6_vrpn""",,,0.159772083163,-0.0469441749156,0.0827613174915,,-0.000273892306723,-0.000993232009932,0.0394972786307,-0.999219179153
1555425765985555350,,,0,,1555425766,84479969,"""world""","""cf6_takeoff""",,,1.0,1.0,0.0,,0.0,0.0,0.0,1.0
1555425765990095524,,,0,,1555425765,989229923,"""world""","""cf6_vrpn""",,,0.159723669291,-0.0469661951065,0.0827606022358,,-1.50640898937e-05,-0.00119095225818,0.0399867147207,-0.999199509621
1555425765992374848,,,0,,1555425765,984914064,"""cf6_takeoff""","""cf6""",,,0.000298547151033,0.000212408893276,0.0548707172275,,0.000329854728248,-0.00148242222391,-0.000129094634988,0.999998838477
1555425765999996764,,,0,,1555425765,999616016,"""world""","""cf6_vrpn""",,,0.159773990512,-0.0469554178417,0.0827533975244,,-0.000221265974687,-0.000983721809462,0.0396065823734,-0.999214887619
1555425766000033098,,,0,,1555425765,999662889,"""world""","""cf6_vrpn""",,,0.159760281444,-0.0469585135579,0.0827536433935,,-0.000427661812864,-0.000629717193078,0.0394935458899,-0.999219536781
1555425766009586844,,,0,,1555425766,9171105,"""world""","""cf6_vrpn""",,,0.159756615758,-0.0469323247671,0.0827481299639,,-0.000371376081603,-0.000802835915238,0.0395413674414,-0.999217569828
1555425766016367944,,,0,,1555425766,10000944,"""cf6_takeoff""","""cf6""",,,0.000301678548567,-3.15635152219e-05,0.0545351579785,,0.00112186565329,-0.00118943220352,-0.000133533050223,0.999998654418
1555425766020324032,,,0,,1555425766,19586291,"""world""","""cf6_vrpn""",,,0.159767016768,-0.0469297096133,0.0827310234308,,-0.000292340671876,-0.000905160617549,0.0394436232746,-0.999221324921
1555425766029295531,,,0,,1555425766,28950945,"""world""","""cf6_vrpn""",,,0.159760057926,-0.0469152405858,0.0827345475554,,-0.000418460491346,-0.000691159511916,0.0394780375063,-0.999220192432
1555425766040133435,,,0,,1555425766,39423312,"""world""","""cf6_vrpn""",,,0.159746021032,-0.0469146221876,0.0827282816172,,-0.00027544182376,-0.000792721286416,0.039543621242,-0.999217510223
1555425766040166623,,,0,,1555425766,39486667,"""world""","""cf6_vrpn""",,,0.159696489573,-0.0469241291285,0.082709684968,,-0.000238699416514,-0.00102460605558,0.0400366485119,-0.999197721481
1555425766042807609,,,0,,1555425766,35011053,"""cf6_takeoff""","""cf6""",,,6.0489452153e-05,-0.000518775894307,0.0555244982243,,0.00193577608004,-0.000287371259578,-0.000127266557451,0.999998076994
1555425766051792647,,,0,,1555425766,49969077,"""world""","""cf6_vrpn""",,,0.159756600857,-0.0469255298376,0.0827268958092,,-0.000226336560445,-0.000965170678683,0.0394230224192,-0.99922221899
1555425766059958569,,,0,,1555425766,59464118,"""world""","""cf6_vrpn""",,,0.159758150578,-0.0469424761832,0.0827337428927,,-0.000426858343417,-0.000775338732637,0.0394868142903,-0.999219715595
1555425766065683644,,,0,,1555425766,59871912,"""cf6_takeoff""","""cf6""",,,-0.000426118844189,-2.72933757515e-05,0.0558448061347,,0.000582991982044,0.000887184591761,-7.66760178879e-05,0.999999433572
1555425766070390445,,,0,,1555425766,69837744,"""world""","""cf6_vrpn""",,,0.15977615118,-0.0469484515488,0.082754611969,,-0.000248084863415,-0.000942297861911,0.0394132882357,-0.999222576618
1555425766079748093,,,0,,1555425766,79265346,"""world""","""cf6_vrpn""",,,0.159769758582,-0.046948581934,0.0827429890633,,-0.000382293161238,-0.000779663096182,0.0393555387855,-0.999224960804
1555425766085267073,,,0,,1555425766,184642520,"""world""","""cf6_takeoff""",,,1.0,1.0,0.0,,0.0,0.0,0.0,1.0
1555425766090072015,,,0,,1555425766,89687735,"""world""","""cf6_vrpn""",,,0.159768357873,-0.0469233989716,0.0827553570271,,-0.000293440156383,-0.000923809770029,0.0394177846611,-0.9992223382
1555425766091717605,,,0,,1555425766,84966897,"""cf6_takeoff""","""cf6""",,,-0.000426823156886,-2.80062413367e-05,0.0573018118739,,0.000775925891595,0.000775758954483,-9.57833232752e-05,0.999999393481
1555425766099348496,,,0,,1555425766,99040633,"""world""","""cf6_vrpn""",,,0.159745156765,-0.0469281151891,0.0827686935663,,-0.000348944071447,-0.000862845801748,0.0394504778087,-0.999221146107
1555425766099537689,,,0,,1555425766,99150895,"""world""","""cf6_vrpn""",,,0.159742832184,-0.0469397157431,0.0827601104975,,-0.000392058864236,-0.000824227521662,0.0394552573562,-0.999220907688
1555425766109896254,,,0,,1555425766,109521153,"""world""","""cf6_vrpn""",,,0.159747719765,-0.046939548105,0.0827601402998,,-0.000285807298496,-0.000996252521873,0.0394667871296,-0.999220371246
1555425766118402361,,,0,,1555425766,110080957,"""cf6_takeoff""","""cf6""",,,-0.000179977316293,0.00022324208112,0.0546939373016,,0.000288826135768,0.000253045217403,-9.67658620915e-05,0.999999921592
1555425766119442207,,,0,,1555425766,118877075,"""world""","""cf6_vrpn""",,,0.15975305438,-0.0469405353069,0.0827578529716,,-0.000252285797615,-0.00102228322066,0.0395224429667,-0.999218165874
1555425766129827705,,,0,,1555425766,129417276,"""world""","""cf6_vrpn""",,,0.159697204828,-0.0469382815063,0.0827571302652,,-0.000122637764434,-0.00105599185918,0.0399739071727,-0.999200165272
1555425766140322424,,,0,,1555425766,139814733,"""world""","""cf6_vrpn""",,,0.159691095352,-0.0469420738518,0.0827376171947,,-0.000225051990128,-0.000908615242224,0.0400244407356,-0.999198257923
1555425766140891665,,,0,,1555425766,139940203,"""world""","""cf6_vrpn""",,,0.159754902124,-0.0469359382987,0.0827318206429,,-0.000389568856917,-0.000712982960977,0.0393655523658,-0.999224603176
1555425766143539638,,,0,,1555425766,134959936,"""cf6_takeoff""","""cf6""",,,-0.000424838217441,0.000227461074246,0.0548495054245,,0.000829917271331,0.00047629245968,-0.000115877719935,0.999999535477
1555425766149713190,,,0,,1555425766,149398704,"""world""","""cf6_vrpn""",,,0.159753978252,-0.0469332523644,0.0827488824725,,-0.000262669607764,-0.000826358853374,0.0394229590893,-0.999222278595
1555425766160281574,,,0,,1555425766,159824734,"""world""","""cf6_vrpn""",,,0.159755200148,-0.0469361245632,0.0827479735017,,-0.000252691475907,-0.000820547749754,0.0394645258784,-0.999220609665
1555425766166575249,,,0,,1555425766,159981966,"""cf6_takeoff""","""cf6""",,,-0.000426158570917,-1.76061967068e-05,0.0547053068876,,0.00138860884756,0.000231185606004,-0.000136160680918,0.999998999889
1555425766169744062,,,0,,1555425766,169250990,"""world""","""cf6_vrpn""",,,0.159754917026,-0.0469558760524,0.0827335938811,,-0.000297870283248,-0.00098195055034,0.0394990667701,-0.999219059944
1555425766180269686,,,0,,1555425766,179701176,"""world""","""cf6_vrpn""",,,0.159749090672,-0.0469379462302,0.0827565565705,,-0.000224070885452,-0.000997245311737,0.0395405143499,-0.999217450619
1555425766185222224,,,0,,1555425766,284807973,"""world""","""cf6_takeoff""",,,1.0,1.0,0.0,,0.0,0.0,0.0,1.0
1555425766189519542,,,0,,1555425766,189162523,"""world""","""cf6_vrpn""",,,0.159746527672,-0.0469475574791,0.0827584341168,,-0.000332359835738,-0.000804165552836,0.0395009182394,-0.999219179153
1555425766191876906,,,0,,1555425766,184958934,"""cf6_takeoff""","""cf6""",,,-0.000425146223279,-1.5911358787e-05,0.0548499748111,,0.00107496414773,0.000100409133561,-0.000139195568149,0.999999407497
1555425766199981502,,,0,,1555425766,199604891,"""world""","""cf6_vrpn""",,,0.159747391939,-0.0469438284636,0.0827582627535,,-0.000286374561256,-0.000973952410277,0.0395130738616,-0.999218583107
1555425766200370623,,,0,,1555425766,199722096,"""world""","""cf6_vrpn""",,,0.159752085805,-0.0469314828515,0.0827427506447,,-0.000226224743528,-0.000986885628663,0.0394242890179,-0.999222040176
1555425766209410948,,,0,,1555425766,209092361,"""world""","""cf6_vrpn""",,,0.159745275974,-0.0469250157475,0.082753777504,,-0.000408182328101,-0.000822042697109,0.0393969006836,-0.999223232269
1555425766217980976,,,0,,1555425766,210346937,"""cf6_takeoff""","""cf6""",,,-0.00041743987822,0.000233283135458,0.0509969852865,,0.000774963543616,3.56873344133e-05,-0.000132809755794,0.99999969026
1555425766220614287,,,0,,1555425766,219502007,"""world""","""cf6_vrpn""",,,0.159731850028,-0.0469215996563,0.0827547982335,,-0.00033031986095,-0.000860979838762,0.0394520834088,-0.999221086502
1555425766229272748,,,0,,1555425766,228888362,"""world""","""cf6_vrpn""",,,0.159754395485,-0.0469189807773,0.0827341899276,,-0.000298625411233,-0.000883573142346,0.0395168140531,-0.999218523502
1555425766240167340,,,0,,1555425766,239324025,"""world""","""cf6_vrpn""",,,0.159756794572,-0.0469019412994,0.0827218741179,,-0.000131022010464,-0.000927266839426,0.0394937507808,-0.999219417572
1555425766242358722,,,0,,1555425766,234978914,"""cf6_takeoff""","""cf6""",,,-0.000416470342316,-0.000253373786109,0.0515402033925,,0.00168123078343,0.0002407825383,-0.000158034004151,0.999998545255
1555425766250168817,,,0,,1555425766,249732390,"""world""","""cf6_vrpn""",,,0.159757599235,-0.04688873142,0.0827192589641,,-0.000202294409974,-0.00101431109942,0.0395334400237,-0.999217808247
1555425766250694123,,,0,,1555425766,249777871,"""world""","""cf6_vrpn""",,,0.159757778049,-0.0468984730542,0.0827124640346,,-0.000402002944611,-0.000866404559929,0.0394024774432,-0.999223053455
1555425766259639495,,,0,,1555425766,259281789,"""world""","""cf6_vrpn""",,,0.159763842821,-0.0469068922102,0.0827096924186,,-0.00026302220067,-0.00104149698745,0.0394447669387,-0.999221265316
1555425766266415248,,,0,,1555425766,259926080,"""cf6_takeoff""","""cf6""",,,-0.000413286383264,-6.61498052068e-06,0.0513105988503,,0.000817649898607,9.27574638431e-05,-0.000145581915263,0.999999650825
1555425766270130444,,,0,,1555425766,269776151,"""world""","""cf6_vrpn""",,,0.159770831466,-0.0469029545784,0.0827177688479,,-8.18210173748e-05,-0.00100984354503,0.0395147055387,-0.999218583107
1555425766280175248,,,0,,1555425766,279287138,"""world""","""cf6_vrpn""",,,0.15975920856,-0.0469222813845,0.0827191919088,,-0.00021211366402,-0.000904370099306,0.0394399054348,-0.999221503735
1555425766285355927,,,0,,1555425766,384960689,"""world""","""cf6_takeoff""",,,1.0,1.0,0.0,,0.0,0.0,0.0,1.0
1555425766290298623,,,0,,1555425766,289776246,"""world""","""cf6_vrpn""",,,0.159749567509,-0.0469093248248,0.0827061533928,,-0.000135680427775,-0.00118019757792,0.0394944176078,-0.999219179153
1555425766290343951,,,0,,1555425766,289814067,"""world""","""cf6_vrpn""",,,0.159759014845,-0.0469179153442,0.0827127099037,,-0.000205667965929,-0.00100272148848,0.039481960237,-0.999219834805
1555425766290899440,,,0,,1555425766,284914016,"""cf6_takeoff""","""cf6""",,,0.000328200898366,-1.35340451379e-06,0.0510594174266,,0.000921413861274,-0.00167525647793,-0.000165949149973,0.999998158485
1555425766299586560,,,0,,1555425766,299200671,"""world""","""cf6_vrpn""",,,0.159750446677,-0.0469013638794,0.0827041864395,,-0.000128194427816,-0.000965756829828,0.0395448431373,-0.999217391014
1555425766310602452,,,0,,1555425766,309641007,"""world""","""cf6_vrpn""",,,0.159742936492,-0.0469010658562,0.0827018469572,,-0.000160040537594,-0.000934656593017,0.0394993983209,-0.999219238758
1555425766319236120,,,0,,1555425766,310062885,"""cf6_takeoff""","""cf6""",,,-0.000171684427187,0.000247888208833,0.0517990887165,,0.000429042587695,-5.57379303599e-05,-0.000142901146314,0.999999896197
1555425766319270267,,,0,,1555425766,318832381,"""world""","""cf6_vrpn""",,,0.159755319357,-0.0469006225467,0.082702152431,,-0.000276227394352,-0.000903246051166,0.0394399799407,-0.999221503735
1555425766329630020,,,0,,1555425766,329268045,"""world""","""cf6_vrpn""",,,0.159765914083,-0.0469022244215,0.082700073719,,-0.000309995375574,-0.000860207015648,0.0395845621824,-0.999215841293
1555425766340155425,,,0,,1555425766,339772307,"""world""","""cf6_vrpn""",,,0.159752577543,-0.0468795001507,0.0826937407255,,-0.000410924461903,-0.000909944472369,0.039511859417,-0.999218642712
1555425766343162206,,,0,,1555425766,334979057,"""cf6_takeoff""","""cf6""",,,-0.000424758298323,-5.47807576368e-06,0.0526478737593,,0.00139979900325,0.000677177543885,-0.000128512228834,0.999998782738
1555425766349666228,,,0,,1555425766,349218419,"""world""","""cf6_vrpn""",,,0.159749269485,-0.0468998327851,0.0826914682984,,-0.000444354402134,-0.000998612726107,0.0395668335259,-0.999216377735
1555425766350293066,,,0,,1555425766,349257605,"""world""","""cf6_vrpn""",,,0.159769386053,-0.0468789227307,0.082684867084,,-0.000444950070232,-0.00101685663685,0.0395196378231,-0.999218285084
1555425766360133848,,,0,,1555425766,359719501,"""world""","""cf6_vrpn""",,,0.159710332751,-0.0469034910202,0.0826992690563,,-2.75929924101e-05,-0.00108126434498,0.0400214195251,-0.999198317528
1555425766366893868,,,0,,1555425766,359952926,"""cf6_takeoff""","""cf6""",,,-0.00015822473506,-0.000515227089636,0.0585372895002,,0.00243004261979,0.000224068367351,-0.000142233998271,0.999997012223
1555425766369500577,,,0,,1555425766,369131838,"""world""","""cf6_vrpn""",,,0.159751832485,-0.0468985848129,0.0826979577541,,-0.000427022372605,-0.000609944632743,0.0394911244512,-0.999219655991
1555425766379975745,,,0,,1555425766,379573713,"""world""","""cf6_vrpn""",,,0.159707292914,-0.0469155237079,0.0827031508088,,-0.000132902612677,-0.00112561578862,0.0401459187269,-0.999193251133
1555425766385509768,,,0,,1555425766,485116558,"""world""","""cf6_takeoff""",,,1.0,1.0,0.0,,0.0,0.0,0.0,1.0
1555425766389313014,,,0,,1555425766,388949284,"""world""","""cf6_vrpn""",,,0.159746184945,-0.0469027273357,0.0826868936419,,-0.000308961549308,-0.000871453783475,0.0394956693053,-0.999219417572
1555425766391562442,,,0,,1555425766,384932994,"""cf6_takeoff""","""cf6""",,,-0.00040713546332,-1.61250281963e-05,0.0603544004261,,0.000990651837213,0.000559299226058,-0.000115605281961,0.999999346214
1555425766399740772,,,0,,1555425766,399331881,"""world""","""cf6_vrpn""",,,0.159752681851,-0.0469109751284,0.082705013454,,-0.00034208688885,-0.000828214047942,0.0393719337881,-0.999224305153
1555425766399990655,,,0,,1555425766,399439343,"""world""","""cf6_vrpn""",,,0.159753829241,-0.0469034053385,0.0826934576035,,-0.000244425260462,-0.000867936876602,0.0395660437644,-0.999216556549
1555425766410369707,,,0,,1555425766,409824926,"""world""","""cf6_vrpn""",,,0.159747838974,-0.0468933060765,0.0826995447278,,-0.000545396818779,-0.000927612127271,0.0395013131201,-0.99921900034
1555425766418264431,,,0,,1555425766,410140037,"""cf6_takeoff""","""cf6""",,,0.000100399265648,0.000485288124764,0.061058178544,,0.000223046530922,-0.000845768441957,-9.72954476058e-05,0.99999961273
1555425766419497854,,,0,,1555425766,419165392,"""world""","""cf6_vrpn""",,,0.159760564566,-0.0468896590173,0.0826852321625,,-0.000328742637066,-0.000924520369153,0.0395767688751,-0.999216139317
1555425766429939377,,,0,,1555425766,429550920,"""world""","""cf6_vrpn""",,,0.159761399031,-0.0469010546803,0.0826891437173,,-0.000419346732087,-0.000763385556638,0.0395245663822,-0.999218285084
1555425766439340684,,,0,,1555425766,438947950,"""world""","""cf6_vrpn""",,,0.159770712256,-0.0468840114772,0.082687728107,,-0.000338629237376,-0.000849777483381,0.0395322144032,-0.999217867851
1555425766442886285,,,0,,1555425766,434866905,"""cf6_takeoff""","""cf6""",,,-0.000397611816879,-2.31769736274e-05,0.0553522147238,,0.00116662306938,0.000498415818182,-0.000108352266026,0.999999189416
1555425766449734848,,,0,,1555425766,449362024,"""world""","""cf6_vrpn""",,,0.159784898162,-0.0468914918602,0.0826787725091,,-0.000330807029968,-0.00090995139908,0.0394936650991,-0.999219417572
1555425766449819264,,,0,,1555425766,449399787,"""world""","""cf6_vrpn""",,,0.159772217274,-0.0468950159848,0.0827055424452,,-0.000323301181197,-0.000875404570252,0.0395727641881,-0.999216258526
1555425766460248582,,,0,,1555425766,459858689,"""world""","""cf6_vrpn""",,,0.159718170762,-0.0468958765268,0.0827260389924,,-0.000212476224988,-0.00115281238686,0.0399913601577,-0.999199330807
1555425766466945921,,,0,,1555425766,460277080,"""cf6_takeoff""","""cf6""",,,-0.000396223913413,-0.000275309837889,0.0562526993454,,0.00144035697526,0.000468396589596,-0.000124939161445,0.999998845183
1555425766469678766,,,0,,1555425766,469240494,"""world""","""cf6_vrpn""",,,0.159758612514,-0.0468979626894,0.0827156156301,,-0.000302453379845,-0.000799715984613,0.0394435711205,-0.99922144413
1555425766480115560,,,0,,1555425766,479727475,"""world""","""cf6_vrpn""",,,0.159762874246,-0.0469113774598,0.0827048048377,,-0.000221070891712,-0.000953637354542,0.0394680127501,-0.999220371246
1555425766485722879,,,0,,1555425766,585272147,"""world""","""cf6_takeoff""",,,1.0,1.0,0.0,,0.0,0.0,0.0,1.0
1555425766489660280,,,0,,1555425766,489195788,"""world""","""cf6_vrpn""",,,0.15975818038,-0.0468820631504,0.0827204734087,,-0.000488602207042,-0.000861577806063,0.0395421162248,-0.999217510223
1555425766491554458,,,0,,1555425766,484980106,"""cf6_takeoff""","""cf6""",,,-0.000159820076078,-0.000279497471638,0.0567085668445,,0.00145172086808,-0.000332879511621,-0.000134421860677,0.999998881814
1555425766499931867,,,0,,1555425766,499605215,"""world""","""cf6_vrpn""",,,0.159757971764,-0.0468779951334,0.0827098861337,,-0.000269720039796,-0.000857818638906,0.0394606217742,-0.999220728874
1555425766500315721,,,0,,1555425766,499725380,"""world""","""cf6_vrpn""",,,0.159712329507,-0.0469185039401,0.082705937326,,-0.000139944837429,-0.000870926887728,0.0400512591004,-0.999197304249
1555425766509600535,,,0,,1555425766,509247377,"""world""","""cf6_vrpn""",,,0.159756362438,-0.046909853816,0.0826967433095,,-0.000459183589555,-0.000775649910793,0.0394745394588,-0.999220192432
1555425766517608258,,,0,,1555425766,510021924,"""cf6_takeoff""","""cf6""",,,-0.0003919400624,-2.92265613098e-05,0.0536542013288,,0.00126109292061,0.000751598508366,-0.000143627691792,0.999998912057
1555425766519941239,,,0,,1555425766,519616810,"""world""","""cf6_vrpn""",,,0.159751132131,-0.0468845516443,0.0827099084854,,-0.000336441124091,-0.000905646127649,0.0394161380827,-0.999222397804
1555425766529371072,,,0,,1555425766,529008545,"""world""","""cf6_vrpn""",,,0.159760847688,-0.0468811914325,0.0827057138085,,-0.00024820244289,-0.000927529239561,0.0394241511822,-0.999222159386
1555425766540273383,,,0,,1555425766,539462657,"""world""","""cf6_vrpn""",,,0.15975920856,-0.0469058044255,0.0827094838023,,-0.00011051857291,-0.00110842927825,0.0394425392151,-0.999221265316
1555425766541774595,,,0,,1555425766,535244941,"""cf6_takeoff""","""cf6""",,,-0.000394534057705,0.000201491784537,0.0546073466539,,-9.36026851245e-05,0.00048869906842,-0.0001231290215,0.999999868625
1555425766550352187,,,0,,1555425766,549873195,"""world""","""cf6_vrpn""",,,0.159762069583,-0.0468961521983,0.0827187374234,,-0.000557927123737,-0.000696578936186,0.0394972749054,-0.999219298363
1555425766550448978,,,0,,1555425766,549922744,"""world""","""cf6_vrpn""",,,0.159752950072,-0.0469127856195,0.0827117413282,,-0.000198983383598,-0.000914441829082,0.0394916944206,-0.999219477177
1555425766559770826,,,0,,1555425766,559350262,"""world""","""cf6_vrpn""",,,0.159740269184,-0.0469167008996,0.0827233269811,,-0.000373115908587,-0.000859434716403,0.0394519455731,-0.999221086502
1555425766566829613,,,0,,1555425766,559999942,"""cf6_takeoff""","""cf6""",,,-0.00039673561696,-0.000271132448688,0.0552395395935,,0.00169233059617,0.000337906086375,-0.000152252604472,0.999998499327
1555425766570103859,,,0,,1555425766,569705756,"""world""","""cf6_vrpn""",,,0.159742429852,-0.0469069369137,0.0827000439167,,-0.000408355786931,-0.000912108807825,0.039514310658,-0.999218523502
1555425766579640830,,,0,,1555425766,579214260,"""world""","""cf6_vrpn""",,,0.159740686417,-0.046913061291,0.082711391151,,-0.000268966163276,-0.000877433922142,0.0393878556788,-0.999223589897
1555425766585716540,,,0,,1555425766,685406302,"""world""","""cf6_takeoff""",,,1.0,1.0,0.0,,0.0,0.0,0.0,1.0
1555425766590026884,,,0,,1555425766,589652862,"""world""","""cf6_vrpn""",,,0.159745797515,-0.0468900240958,0.0827027112246,,-0.000368475622963,-0.000873505545314,0.039419580251,-0.9992223382
1555425766592687527,,,0,,1555425766,584928989,"""cf6_takeoff""","""cf6""",,,-0.000401021330617,-3.07663649437e-05,0.0556207448244,,0.000896737094963,0.000299213321847,-0.000148238243619,0.99999954218
1555425766600000479,,,0,,1555425766,599051871,"""world""","""cf6_vrpn""",,,0.159736528993,-0.0468892790377,0.0826802477241,,-0.000303499196889,-0.000994149013422,0.0394448004663,-0.999221265316
1555425766600018967,,,0,,1555425766,599152273,"""world""","""cf6_vrpn""",,,0.159744083881,-0.0468971692026,0.0826818719506,,-0.000442141841631,-0.000818818400148,0.0394704006612,-0.999220311642
1555425766609960755,,,0,,1555425766,609556811,"""world""","""cf6_vrpn""",,,0.159760177135,-0.0468955412507,0.082689166069,,-0.000419001502451,-0.000911157811061,0.0395066812634,-0.99921888113
1555425766618165666,,,0,,1555425766,610121011,"""cf6_takeoff""","""cf6""",,,7.99822373665e-05,-1.93400210264e-05,0.0521760210395,,0.000525615773307,0.000462906302608,-0.000153157736603,0.999999742994
1555425766619344314,,,0,,1555425766,619018826,"""world""","""cf6_vrpn""",,,0.159749731421,-0.0469012260437,0.0826977491379,,-0.000339800259098,-0.000873762764968,0.0394220724702,-0.999222278595
1555425766629870743,,,0,,1555425766,629475942,"""world""","""cf6_vrpn""",,,0.159765332937,-0.0469014644623,0.0827020853758,,-0.000320129125612,-0.00111418857705,0.0394700430334,-0.999220073223
1555425766640355299,,,0,,1555425766,639939804,"""world""","""cf6_vrpn""",,,0.15975433588,-0.0468939654529,0.0827130302787,,-0.000460164534161,-0.000888154667336,0.0395024493337,-0.99921900034
1555425766641927943,,,0,,1555425766,634987115,"""cf6_takeoff""","""cf6""",,,-0.000406106206356,0.000225994095672,0.0525517202914,,0.00182797627686,-0.000272922651941,-0.000162630652716,0.999998278782
1555425766649898641,,,0,,1555425766,649466031,"""world""","""cf6_vrpn""",,,0.159759700298,-0.0468984618783,0.0827169194818,,-0.000344428175595,-0.000931284623221,0.0395141765475,-0.999218523502
1555425766649914820,,,0,,1555425766,649505919,"""world""","""cf6_vrpn""",,,0.159750461578,-0.0469002127647,0.082723416388,,-0.000281503103906,-0.000839226413518,0.0394712164998,-0.999220371246
1555425766659229868,,,0,,1555425766,658876817,"""world""","""cf6_vrpn""",,,0.15975433588,-0.046906016767,0.0827223956585,,-0.000373674643924,-0.000812135927845,0.0394222028553,-0.99922221899
1555425766666786726,,,0,,1555425766,659928083,"""cf6_takeoff""","""cf6""",,,-0.000164596276591,-0.000497204950079,0.0525231659412,,0.00222977731757,-7.83779785633e-05,-0.000173364368997,0.999997495944
1555425766669759243,,,0,,1555425766,669336073,"""world""","""cf6_vrpn""",,,0.159753113985,-0.0468940474093,0.0827233940363,,-0.000352269998984,-0.000957843090873,0.0394747070968,-0.999220073223
1555425766680261515,,,0,,1555425766,679775763,"""world""","""cf6_vrpn""",,,0.159746915102,-0.0468986518681,0.0827273055911,,-0.000390177883673,-0.000736297864933,0.0394537709653,-0.999221146107
1555425766686692446,,,0,,1555425766,785531840,"""world""","""cf6_takeoff""",,,1.0,1.0,0.0,,0.0,0.0,0.0,1.0
1555425766689557902,,,0,,1555425766,689187507,"""world""","""cf6_vrpn""",,,0.159754052758,-0.0469056330621,0.0827155187726,,-0.000339502701536,-0.000772076135036,0.0394743531942,-0.999220252037
1555425766692111906,,,0,,1555425766,685031890,"""cf6_takeoff""","""cf6""",,,-0.000403698039008,-0.000265863374807,0.0537599772215,,0.00144279258361,0.000468444240138,-0.000176291180771,0.999998833915
1555425766700216231,,,0,,1555425766,699641454,"""world""","""cf6_vrpn""",,,0.159769564867,-0.0469101406634,0.0827123001218,,-0.000445573939942,-0.00083771510981,0.0395911037922,-0.999215602875
1555425766700234253,,,0,,1555425766,699699664,"""world""","""cf6_vrpn""",,,0.159758970141,-0.0469108596444,0.0827230587602,,-0.000335675373208,-0.00091508886544,0.0394466072321,-0.999221205711
1555425766709556705,,,0,,1555425766,709162016,"""world""","""cf6_vrpn""",,,0.159751728177,-0.0468981489539,0.0827133581042,,-0.000138350282214,-0.00117594946641,0.0395710617304,-0.999216139317
1555425766716662662,,,0,,1555425766,709969997,"""cf6_takeoff""","""cf6""",,,7.7427328506e-05,-0.00027096044505,0.050484713167,,0.00174427821068,-0.000605339788865,-0.000176334695375,0.99999827998
1555425766719975667,,,0,,1555425766,719647097,"""world""","""cf6_vrpn""",,,0.159760355949,-0.0469022281468,0.0827228873968,,-0.000313171563903,-0.00104561017361,0.0395570769906,-0.999216735363
1555425766729324093,,,0,,1555425766,729047555,"""world""","""cf6_vrpn""",,,0.159743562341,-0.0469233505428,0.0827233344316,,-0.000190458958969,-0.000948963628616,0.0395094007254,-0.999218821526
1555425766739500526,,,0,,1555425766,734925985,"""cf6_takeoff""","""cf6""",,,-0.00041047151899,-2.44943166763e-05,0.050094421953,,0.000991017776175,0.000602325660736,-0.00017732116428,0.999999311822
1555425766739589707,,,0,,1555425766,739367898,"""world""","""cf6_vrpn""",,,0.159748509526,-0.0469202585518,0.0827557370067,,-0.000410761887906,-0.000899672450032,0.039488080889,-0.999219596386
1555425766749970030,,,0,,1555425766,749668657,"""world""","""cf6_vrpn""",,,0.159756794572,-0.046946361661,0.0827467888594,,-0.000323163840221,-0.000890011957381,0.0394690185785,-0.999220371246
1555425766750014142,,,0,,1555425766,749698335,"""world""","""cf6_vrpn""",,,0.159712076187,-0.0469315238297,0.0827499628067,,-0.000263214635197,-0.000964266015217,0.0398452244699,-0.999205350876
1555425766759312442,,,0,,1555425766,759096170,"""world""","""cf6_vrpn""",,,0.159744203091,-0.0469327569008,0.0827415138483,,-0.000313758762786,-0.000679887656588,0.0395680293441,-0.999216675758
1555425766763975881,,,0,,1555425766,759747982,"""cf6_takeoff""","""cf6""",,,-0.000409184111049,0.000218643952394,0.0497603565454,,0.00043492401585,0.000360483614163,-0.000162672562964,0.999999827215
1555425766769678828,,,0,,1555425766,769453724,"""world""","""cf6_vrpn""",,,0.159743025899,-0.0469222925603,0.0827391296625,,-0.000285014306428,-0.000891905394383,0.0394041091204,-0.999222993851
1555425766780199153,,,0,,1555425766,779895254,"""world""","""cf6_vrpn""",,,0.159751340747,-0.0469115749002,0.0827325135469,,-0.000159891278599,-0.000951781286858,0.0394816100597,-0.999219834805
1555425766786094726,,,0,,1555425766,885678553,"""world""","""cf6_takeoff""",,,1.0,1.0,0.0,,0.0,0.0,0.0,1.0
1555425766789532679,,,0,,1555425766,789252270,"""world""","""cf6_vrpn""",,,0.159749254584,-0.0468959324062,0.082726046443,,-0.00024712231243,-0.00103392859455,0.0395315028727,-0.999217748642
1555425766789772346,,,0,,1555425766,784811019,"""cf6_takeoff""","""cf6""",,,7.48039019527e-05,-2.46851595875e-05,0.0503566749394,,0.00102405885829,-0.000962984387583,-0.000164429409277,0.999998998463
1555425766799828080,,,0,,1555425766,799537232,"""world""","""cf6_vrpn""",,,0.159743010998,-0.04692087695,0.0827346742153,,-0.0002857579384,-0.000868495670147,0.0393908023834,-0.999223470688
1555425766799842252,,,0,,1555425766,799563265,"""world""","""cf6_vrpn""",,,0.15970030427,-0.0469185225666,0.0827380791306,,-0.00011366957915,-0.00107197102625,0.0400071069598,-0.99919885397
1555425766810185730,,,0,,1555425766,809879149,"""world""","""cf6_vrpn""",,,0.15975061059,-0.0469342619181,0.0827328935266,,-0.000488136371132,-0.000827935291454,0.0394596159458,-0.999220788479
1555425766815206782,,,0,,1555425766,809801101,"""cf6_takeoff""","""cf6""",,,-0.000163892065757,-2.21926220547e-05,0.0520786829293,,0.00137249119666,0.000111005628748,-0.0001765714154,0.999999036384
1555425766819442108,,,0,,1555425766,819208280,"""world""","""cf6_vrpn""",,,0.159750282764,-0.0469374246895,0.0827332064509,,-0.000196585839149,-0.000945470179431,0.03945376724,-0.999220967293
1555425766829766074,,,0,,1555425766,829564574,"""world""","""cf6_vrpn""",,,0.159746438265,-0.0469333082438,0.0827464014292,,-0.00019290218188,-0.000954508141149,0.039424829185,-0.999222099781
1555425766839130888,,,0,,1555425766,838852876,"""world""","""cf6_vrpn""",,,0.159738078713,-0.0469413101673,0.0827421322465,,-0.00021110707894,-0.00101548712701,0.0394415669143,-0.999221324921
1555425766839432099,,,0,,1555425766,834918975,"""cf6_takeoff""","""cf6""",,,-0.000410857639508,-2.43729155045e-05,0.0519323647022,,0.00127965573821,0.000685897306825,-0.000177649503476,0.999998930233
1555425766849443368,,,0,,1555425766,849169755,"""world""","""cf6_vrpn""",,,0.159686490893,-0.0469234921038,0.0827494338155,,-0.000338010402629,-0.00116891646758,0.0399431735277,-0.999201238155
1555425766849559508,,,0,,1555425766,849236073,"""world""","""cf6_vrpn""",,,0.159751325846,-0.0469196215272,0.0827558711171,,-0.000271158816759,-0.000817256863229,0.0394384525716,-0.999221622944
1555425766859747073,,,0,,1555425766,859537755,"""world""","""cf6_vrpn""",,,0.159755051136,-0.0469128601253,0.0827408879995,,-8.79165963852e-05,-0.000983016914688,0.0395026914775,-0.99921900034
1555425766863869582,,,0,,1555425766,859882116,"""cf6_takeoff""","""cf6""",,,-0.000159393501235,-0.000272183271591,0.0535358339548,,0.00119640228792,0.000365482192355,-0.000181210403339,0.999999201103
1555425766869494695,,,0,,1555425766,869218158,"""world""","""cf6_vrpn""",,,0.159754440188,-0.0469359755516,0.0827351436019,,-0.000206851371331,-0.000940401456319,0.0394491441548,-0.999221205711
1555425766879891310,,,0,,1555425766,879649616,"""world""","""cf6_vrpn""",,,0.15969966352,-0.0469178818166,0.0827457681298,,-6.82608733769e-05,-0.00126049597748,0.0399476476014,-0.999201059341
1555425766886100868,,,0,,1555425766,985812712,"""world""","""cf6_takeoff""",,,1.0,1.0,0.0,,0.0,0.0,0.0,1.0
1555425766889178095,,,0,,1555425766,888937688,"""world""","""cf6_vrpn""",,,0.159761890769,-0.046929936856,0.0827481001616,,-0.000236701554968,-0.000986258033663,0.0394897051156,-0.999219536781
1555425766889485048,,,0,,1555425766,884809017,"""cf6_takeoff""","""cf6""",,,-0.000158991082571,0.00021610344993,0.0539220273495,,0.000278899581641,0.000452662734179,-0.000185988361757,0.99999984136
1555425766899480221,,,0,,1555425766,899252857,"""world""","""cf6_vrpn""",,,0.159775778651,-0.046930950135,0.0827460810542,,-0.000118173076771,-0.00127424637321,0.0395509749651,-0.999216794968
1555425766899568183,,,0,,1555425766,899324211,"""world""","""cf6_vrpn""",,,0.159765586257,-0.0469170883298,0.0827601328492,,-0.000277821702184,-0.00100414687768,0.0396529845893,-0.999213039875
1555425766910000627,,,0,,1555425766,909695119,"""world""","""cf6_vrpn""",,,0.159758210182,-0.0469134449959,0.0827604085207,,-8.13457008917e-05,-0.00113131443504,0.0395164676011,-0.999218285084
1555425766915083814,,,0,,1555425766,909873008,"""cf6_takeoff""","""cf6""",,,-0.000400339107728,-2.22891740123e-05,0.0529770851135,,0.0011164922049,0.000763309959775,-0.000193063995854,0.999999066764
1555425766919277444,,,0,,1555425766,919031171,"""world""","""cf6_vrpn""",,,0.159768983722,-0.046932157129,0.0827484503388,,-4.43916942459e-05,-0.00103607459459,0.0394976474345,-0.999219179153
1555425766929708212,,,0,,1555425766,929444913,"""world""","""cf6_vrpn""",,,0.159758642316,-0.0469265282154,0.0827604681253,,-7.60047114454e-05,-0.00106637564022,0.0394099727273,-0.999222636223
1555425766939479119,,,0,,1555425766,934842109,"""cf6_takeoff""","""cf6""",,,-0.000155663859914,-2.48036831181e-05,0.0553514882922,,0.000739400706944,0.00079770399231,-0.000182761912593,0.999999391776
1555425766940063739,,,0,,1555425766,939769220,"""world""","""cf6_vrpn""",,,0.159761890769,-0.0469145663083,0.0827792063355,,-0.000439025345258,-0.000740422925446,0.0393833145499,-0.99922388792
1555425766940097443,,,0,,1555425766,939795232,"""world""","""cf6_vrpn""",,,0.159759774804,-0.0469326898456,0.0827671587467,,-0.000292164913844,-0.00112760835327,0.0395550206304,-0.999216794968
