rosbagTimestamp,header,seq,stamp,secs,nsecs,frame_id,pose,position,x,y,z,orientation,x,y,z,w
1555425765249393346,,0,,1555425765,249098035,"""world""",,,0.159763291478,-0.0469217672944,0.0827598124743,,-0.000272015866358,-0.00104377232492,0.0395641252398,-0.999216556549
1555425765259783851,,1,,1555425765,259512684,"""world""",,,0.159754142165,-0.0469323433936,0.082741163671,,-0.000240905443206,-0.000999114243314,0.0395242720842,-0.999218165874
1555425765269184073,,2,,1555425765,268813798,"""world""",,,0.159760966897,-0.0469250828028,0.0827435255051,,-0.00028646067949,-0.000953178212512,0.0395502150059,-0.999217092991
1555425765279574369,,3,,1555425765,279282676,"""world""",,,0.159770444036,-0.046903423965,0.0827369391918,,-0.000353332870873,-0.000885468441993,0.0395013056695,-0.999219059944
1555425765289913101,,4,,1555425765,289682903,"""world""",,,0.159776523709,-0.0469288527966,0.0827402696013,,-0.000353363662725,-0.000956005475018,0.0394364260137,-0.999221563339
1555425765290118796,,5,,1555425765,289779803,"""world""",,,0.159768104553,-0.0469249524176,0.0827285572886,,-0.000120226992294,-0.0010114867473,0.0394886881113,-0.999219596386
1555425765299311839,,6,,1555425765,299073880,"""world""",,,0.159764051437,-0.046921890229,0.0827471986413,,-0.000260909000644,-0.000953286711592,0.0395140126348,-0.999218583107
1555425765309687277,,7,,1555425765,309473818,"""world""",,,0.159756854177,-0.0469238348305,0.0827538669109,,-0.00018398440443,-0.00091771123698,0.0394360423088,-0.999221742153
1555425765320035818,,8,,1555425765,319797866,"""world""",,,0.159738600254,-0.0469350144267,0.0827483683825,,-0.000171597552253,-0.000869312149007,0.0394460447133,-0.999221324921
1555425765329603738,,9,,1555425765,329334808,"""world""",,,0.159700155258,-0.0469234809279,0.0827608108521,,-0.000305888126604,-0.00111120089423,0.0399887524545,-0.999199450016
1555425765339870681,,10,,1555425765,339667715,"""world""",,,0.159738793969,-0.0469157360494,0.0827621743083,,-0.000291610951535,-0.000903368578292,0.0395255461335,-0.99921810627
1555425765349263899,,11,,1555425765,349017257,"""world""",,,0.159749254584,-0.046912021935,0.0827509313822,,-0.000279258296359,-0.000939696154092,0.0394341908395,-0.999221682549
1555425765349391372,,12,,1555425765,349069078,"""world""",,,0.159748345613,-0.0469325743616,0.0827362239361,,-0.000168055892573,-0.0010712579824,0.0394649244845,-0.999220371246
1555425765359719533,,13,,1555425765,359509501,"""world""",,,0.159757137299,-0.0469193570316,0.0827260762453,,-0.000306801841361,-0.000824078451842,0.0394050516188,-0.999222993851
1555425765368958302,,14,,1555425765,368760608,"""world""",,,0.159760668874,-0.0469139479101,0.0827246010303,,-0.000355790136382,-0.00071670836769,0.0393979586661,-0.999223291874
1555425765379345298,,15,,1555425765,379130091,"""world""",,,0.159756422043,-0.0469128079712,0.0827112495899,,-0.000227930169785,-0.000914011674467,0.0394030585885,-0.999223053455
1555425765389680764,,16,,1555425765,389440419,"""world""",,,0.159770354629,-0.0468991547823,0.0827142670751,,-0.000363162660506,-0.000889223651029,0.0395299457014,-0.999217987061
1555425765389744675,,17,,1555425765,389532539,"""world""",,,0.159767091274,-0.0469042807817,0.0827155560255,,-0.000261761684669,-0.00088342098752,0.0395842604339,-0.999215900898
1555425765400098968,,18,,1555425765,399834463,"""world""",,,0.159750536084,-0.0469093881547,0.0827191621065,,-0.000166208032169,-0.00086933048442,0.039380684495,-0.99922388792
1555425765409593013,,19,,1555425765,409242302,"""world""",,,0.159755632281,-0.0469049140811,0.0827335342765,,-0.000259460299276,-0.00100621487945,0.0394813083112,-0.999219834805
1555425765420098642,,20,,1555425765,419700462,"""world""",,,0.159757509828,-0.0469234585762,0.082727663219,,-0.000246433570283,-0.000796338368673,0.0394472517073,-0.999221384525
1555425765429404707,,21,,1555425765,429069211,"""world""",,,0.159709766507,-0.0469198040664,0.0827415660024,,-0.000395342998672,-0.00082421983825,0.0399121120572,-0.999202787876
1555425765439774904,,22,,1555425765,439447224,"""world""",,,0.159743487835,-0.0469353422523,0.0827487111092,,-0.00032381300116,-0.000882974360138,0.0395008064806,-0.999219179153
1555425765450250018,,23,,1555425765,449844229,"""world""",,,0.159757867455,-0.0469069108367,0.0827358067036,,-0.000249302363954,-0.000888232549187,0.0394379757345,-0.999221622944
1555425765450282904,,24,,1555425765,449929642,"""world""",,,0.159764677286,-0.0469133518636,0.0827420800924,,-0.000300881685689,-0.000991361099295,0.0394189804792,-0.9992223382
1555425765459654700,,25,,1555425765,459375618,"""world""",,,0.159754559398,-0.0469045676291,0.082726329565,,-0.000216762302443,-0.00104779319372,0.0396063178778,-0.999214828014
1555425765470099592,,26,,1555425765,469779818,"""world""",,,0.159770533442,-0.0469123795629,0.0827364698052,,-0.000192787294509,-0.000944231054746,0.0395152494311,-0.999218523502
1555425765479498188,,27,,1555425765,479174612,"""world""",,,0.159764930606,-0.0469092130661,0.0827230662107,,-0.000154770081281,-0.000912620918825,0.039399638772,-0.99922311306
1555425765489678232,,28,,1555425765,489498072,"""world""",,,0.159767195582,-0.0468954741955,0.0827373042703,,-8.22366855573e-05,-0.00114856590517,0.0394976511598,-0.99921900034
1555425765500148578,,29,,1555425765,499909677,"""world""",,,0.159770935774,-0.0469131842256,0.0827365741134,,-0.00019495934248,-0.00108498777263,0.0395618453622,-0.999216616154
1555425765500312387,,30,,1555425765,500009273,"""world""",,,0.159718200564,-0.0469185747206,0.0827584415674,,-0.000259240419837,-0.000979169621132,0.0400377698243,-0.999197661877
1555425765509554028,,31,,1555425765,509259604,"""world""",,,0.159754112363,-0.0469270125031,0.082742549479,,-0.00016642450646,-0.00106750545092,0.0394071005285,-0.999222695827
1555425765519809471,,32,,1555425765,519545729,"""world""",,,0.159749567509,-0.0469321459532,0.0827410668135,,-0.00035547488369,-0.000845242699143,0.0393820106983,-0.999223828316
1555425765529068839,,33,,1555425765,528796748,"""world""",,,0.159771978855,-0.0469283051789,0.0827633515,,-0.000303742126562,-0.000759128772188,0.0395049527287,-0.999219059944
1555425765539349260,,34,,1555425765,539093692,"""world""",,,0.159774377942,-0.0469345226884,0.0827658772469,,-0.000287603121251,-0.000870280666277,0.0395283401012,-0.999218046665
1555425765549782737,,35,,1555425765,549480499,"""world""",,,0.159710839391,-0.0469374321401,0.0827472060919,,-0.000402146164561,-0.00106797053013,0.0399621762335,-0.999200582504
1555425765549809424,,36,,1555425765,549531257,"""world""",,,0.159773156047,-0.046946298331,0.0827483013272,,-0.000265110516921,-0.00104551995173,0.0394958928227,-0.999219179153
1555425765559033105,,37,,1555425765,558777689,"""world""",,,0.159762442112,-0.0469533540308,0.082762658596,,-0.000490050646476,-0.000770682992879,0.03944574669,-0.999221384525
1555425765569303449,,38,,1555425765,569086812,"""world""",,,0.159755915403,-0.0469388253987,0.0827631279826,,-0.000355957308784,-0.000875074707437,0.039354801178,-0.999224901199
1555425765579832298,,39,,1555425765,579553169,"""world""",,,0.159758090973,-0.0469378456473,0.0827489346266,,-0.000338011974236,-0.00099500536453,0.0395103804767,-0.999218642712
1555425765589110982,,40,,1555425765,588825715,"""world""",,,0.159759372473,-0.0469307638705,0.0827473402023,,-0.000154844732606,-0.00102260673884,0.0394056215882,-0.999222815037
1555425765599411097,,41,,1555425765,599165837,"""world""",,,0.159755244851,-0.046932913363,0.08275475353,,-0.000416789087467,-0.000842509092763,0.0394101962447,-0.999222695827
1555425765599544927,,42,,1555425765,599311809,"""world""",,,0.159757345915,-0.0469393655658,0.0827347934246,,-0.000284215377178,-0.000894163385965,0.0394678376615,-0.999220490456
1555425765610025209,,43,,1555425765,609710076,"""world""",,,0.159762784839,-0.0469371005893,0.0827292650938,,-0.000390652072383,-0.000728205486666,0.0393756963313,-0.999224126339
1555425765619345103,,44,,1555425765,619096920,"""world""",,,0.159766256809,-0.0469337068498,0.0827471241355,,-0.000329999398673,-0.000890405033715,0.0394620746374,-0.99922066927
1555425765629791401,,45,,1555425765,629472081,"""world""",,,0.159774795175,-0.0469506345689,0.0827440917492,,-0.000297420308925,-0.000818407337647,0.0394368804991,-0.999221742153
1555425765639973203,,46,,1555425765,639804917,"""world""",,,0.159762442112,-0.0469544753432,0.0827297493815,,-0.00029721998726,-0.000828459393233,0.039526373148,-0.999218165874
1555425765649473199,,47,,1555425765,649189050,"""world""",,,0.1597648561,-0.0469326451421,0.0827455967665,,-0.000380355952075,-0.000879904138856,0.0394508205354,-0.999221086502
1555425765649510532,,48,,1555425765,649233551,"""world""",,,0.15975561738,-0.0469132214785,0.0827237293124,,-0.000409505242715,-0.000935455143917,0.039472438395,-0.999220192432
1555425765659797038,,49,,1555425765,659554385,"""world""",,,0.159739345312,-0.0469174310565,0.0827063396573,,-0.000231157333474,-0.000877456506714,0.0394422374666,-0.999221503735
1555425765669058122,,50,,1555425765,668838978,"""world""",,,0.159740537405,-0.0469210334122,0.0827212929726,,-0.000289634306682,-0.000955534982495,0.0394669622183,-0.999220371246
1555425765679681484,,51,,1555425765,679253626,"""world""",,,0.159759178758,-0.0469089709222,0.082742638886,,-0.000265109818429,-0.00106080272235,0.0394234731793,-0.999221980572
1555425765689956494,,52,,1555425765,689653899,"""world""",,,0.159747093916,-0.0469390191138,0.0827249065042,,-0.000299864797853,-0.00103805412073,0.0394939854741,-0.999219298363
1555425765690279845,,53,,1555425765,689799909,"""world""",,,0.159744769335,-0.0469357147813,0.0827442258596,,-0.000170566243469,-0.000932131544687,0.0393767543137,-0.999224066734
1555425765699437600,,54,,1555425765,699186048,"""world""",,,0.159763306379,-0.0469367206097,0.0827462375164,,-0.000192770268768,-0.00108491524588,0.0394800230861,-0.999219834805
1555425765710027770,,55,,1555425765,709670915,"""world""",,,0.159738108516,-0.0469321683049,0.0827458947897,,-7.94368897914e-05,-0.00102746568155,0.0395292975008,-0.999217867851
1555425765719485191,,56,,1555425765,719224031,"""world""",,,0.159746780992,-0.0469509549439,0.0827420800924,,-0.000327182380715,-0.00104145950172,0.039579693228,-0.999215841293
1555425765730015966,,57,,1555425765,729607099,"""world""",,,0.159757852554,-0.0469489991665,0.0827359482646,,-0.000116389266623,-0.00110940111335,0.039590485394,-0.999215424061
1555425765739467719,,58,,1555425765,739070601,"""world""",,,0.159703269601,-0.0469411872327,0.0827436670661,,-0.000341993290931,-0.0011199885048,0.0400279276073,-0.9991979599
1555425765749909617,,59,,1555425765,749475767,"""world""",,,0.15975895524,-0.046951238066,0.0827497988939,,-0.000313318741973,-0.000816034269519,0.0395599231124,-0.999216914177
1555425765749940871,,60,,1555425765,749544176,"""world""",,,0.159754037857,-0.0469348318875,0.0827440172434,,-0.000369459594367,-0.000984313432127,0.0395257286727,-0.999218046665
1555425765759126079,,61,,1555425765,758776115,"""world""",,,0.159750923514,-0.0469226874411,0.0827545970678,,-0.000115723174531,-0.000929019588511,0.0394551642239,-0.999220907688
1555425765769487031,,62,,1555425765,769110806,"""world""",,,0.159748867154,-0.0469299890101,0.0827515944839,,-0.00033753470052,-0.000889286282472,0.0395120605826,-0.999218642712
1555425765779858862,,63,,1555425765,779474943,"""world""",,,0.159745410085,-0.0469252094626,0.0827420800924,,-0.00038581044646,-0.000791769940406,0.0394607745111,-0.999220788479
1555425765790337426,,64,,1555425765,789895443,"""world""",,,0.159757912159,-0.0469505339861,0.0827491655946,,-0.00016651066835,-0.00101805175655,0.0394785515964,-0.999219954014
1555425765790370231,,65,,1555425765,789966072,"""world""",,,0.159779235721,-0.0469455607235,0.0827540829778,,-0.000323808693793,-0.000966749037616,0.0394562222064,-0.999220788479
1555425765799737354,,66,,1555425765,799384686,"""world""",,,0.159776479006,-0.0469506978989,0.0827524214983,,-9.0131208708e-05,-0.00104721344542,0.0395168550313,-0.999218404293
1555425765810259489,,67,,1555425765,809895039,"""world""",,,0.159763514996,-0.0469588749111,0.0827447846532,,-0.000225531679462,-0.000911752926186,0.0394676364958,-0.999220430851
1555425765819688886,,68,,1555425765,819320291,"""world""",,,0.159763291478,-0.0469543002546,0.0827499553561,,-0.00027223143843,-0.00094528181944,0.0395014025271,-0.999219119549
1555425765830138896,,69,,1555425765,829749599,"""world""",,,0.159767225385,-0.0469381287694,0.0827514305711,,-0.000326039124047,-0.000875152356457,0.0393904484808,-0.999223530293
1555425765839498071,,70,,1555425765,839170379,"""world""",,,0.159771427512,-0.0469377189875,0.082738019526,,-0.000207938384847,-0.00089239643421,0.0394767224789,-0.999220073223
1555425765849931870,,71,,1555425765,849565879,"""world""",,,0.159756183624,-0.0469406507909,0.082751326263,,-0.000228128395975,-0.000916592194699,0.0394698046148,-0.999220311642
1555425765849989850,,72,,1555425765,849630982,"""world""",,,0.159767627716,-0.0469347015023,0.0827588960528,,-0.000158778770128,-0.00105116434861,0.0395377017558,-0.999217510223
1555425765859527740,,73,,1555425765,859169995,"""world""",,,0.159754216671,-0.0469522960484,0.0827467888594,,-0.000336647382937,-0.00089312705677,0.039367031306,-0.999224364758
1555425765869331749,,74,,1555425765,868986277,"""world""",,,0.159769207239,-0.046940214932,0.0827545523643,,-0.000268613017397,-0.000926759443246,0.0394835658371,-0.999219834805
1555425765879721765,,75,,1555425765,879393499,"""world""",,,0.159757643938,-0.0469504706562,0.0827554315329,,-0.000146161939483,-0.000999439042062,0.0394386276603,-0.999221503735
1555425765890326295,,76,,1555425765,889761455,"""world""",,,0.159763395786,-0.0469426214695,0.0827526822686,,-0.000223010298214,-0.00100918521639,0.0395512916148,-0.999217092991
1555425765890367577,,77,,1555425765,889928891,"""world""",,,0.159762635827,-0.0469501428306,0.0827515572309,,-0.000139214564115,-0.000909832655452,0.0394705608487,-0.999220371246
1555425765899771226,,78,,1555425765,899337604,"""world""",,,0.159760937095,-0.0469545014203,0.0827641710639,,-0.000486014265334,-0.000757628818974,0.0395199507475,-0.999218463898
1555425765910224299,,79,,1555425765,909824331,"""world""",,,0.159692302346,-0.0469666533172,0.0827507898211,,-0.000287175993435,-0.00102092849556,0.0399975776672,-0.999199211597
1555425765920625127,,80,,1555425765,919204174,"""world""",,,0.159758850932,-0.0469756275415,0.0827717334032,,-0.000346325716237,-0.000875898113009,0.0395029298961,-0.999219059944
1555425765930058276,,81,,1555425765,929676262,"""world""",,,0.159773230553,-0.0469627380371,0.0827509462833,,-0.000130073298351,-0.00102283630986,0.0395119227469,-0.999218642712
1555425765939556741,,82,,1555425765,939091116,"""world""",,,0.15976510942,-0.0469622984529,0.0827579274774,,-0.000249347736826,-0.00103797612246,0.039498411119,-0.999219119549
1555425765949897447,,83,,1555425765,949485510,"""world""",,,0.159751683474,-0.0469589717686,0.0827613994479,,-0.000329019327182,-0.000978169962764,0.0394930541515,-0.999219357967
1555425765949936034,,84,,1555425765,949556992,"""world""",,,0.15975689888,-0.0469456799328,0.0827595964074,,-0.000252546014963,-0.000919255253393,0.0394527874887,-0.999221086502
1555425765959262331,,85,,1555425765,958814922,"""world""",,,0.159755840898,-0.046966444701,0.0827603638172,,-0.000282965396764,-0.000857312581502,0.039545532316,-0.999217450619
1555425765969571566,,86,,1555425765,969234321,"""world""",,,0.159775450826,-0.046946015209,0.0827694833279,,-0.000141482640174,-0.000848903262522,0.0393683388829,-0.999224424362
1555425765980092628,,87,,1555425765,979730364,"""world""",,,0.159772083163,-0.0469441749156,0.0827613174915,,-0.000273892306723,-0.000993232009932,0.0394972786307,-0.999219179153
1555425765990056785,,88,,1555425765,989185703,"""world""",,,0.159723669291,-0.0469661951065,0.0827606022358,,-1.50640898937e-05,-0.00119095225818,0.0399867147207,-0.999199509621
1555425765999914973,,89,,1555425765,999576327,"""world""",,,0.159773990512,-0.0469554178417,0.0827533975244,,-0.000221265974687,-0.000983721809462,0.0396065823734,-0.999214887619
1555425765999948370,,90,,1555425765,999650556,"""world""",,,0.159760281444,-0.0469585135579,0.0827536433935,,-0.000427661812864,-0.000629717193078,0.0394935458899,-0.999219536781
1555425766009547536,,91,,1555425766,9124344,"""world""",,,0.159756615758,-0.0469323247671,0.0827481299639,,-0.000371376081603,-0.000802835915238,0.0395413674414,-0.999217569828
1555425766020277289,,92,,1555425766,19544333,"""world""",,,0.159767016768,-0.0469297096133,0.0827310234308,,-0.000292340671876,-0.000905160617549,0.0394436232746,-0.999221324921
1555425766029262876,,93,,1555425766,28909671,"""world""",,,0.159760057926,-0.0469152405858,0.0827345475554,,-0.000418460491346,-0.000691159511916,0.0394780375063,-0.999220192432
1555425766039782213,,94,,1555425766,39377613,"""world""",,,0.159746021032,-0.0469146221876,0.0827282816172,,-0.00027544182376,-0.000792721286416,0.039543621242,-0.999217510223
1555425766039822290,,95,,1555425766,39475482,"""world""",,,0.159696489573,-0.0469241291285,0.082709684968,,-0.000238699416514,-0.00102460605558,0.0400366485119,-0.999197721481
1555425766050390460,,96,,1555425766,49918818,"""world""",,,0.159756600857,-0.0469255298376,0.0827268958092,,-0.000226336560445,-0.000965170678683,0.0394230224192,-0.99922221899
1555425766059878837,,97,,1555425766,59421376,"""world""",,,0.159758150578,-0.0469424761832,0.0827337428927,,-0.000426858343417,-0.000775338732637,0.0394868142903,-0.999219715595
1555425766070139513,,98,,1555425766,69795138,"""world""",,,0.15977615118,-0.0469484515488,0.082754611969,,-0.000248084863415,-0.000942297861911,0.0394132882357,-0.999222576618
1555425766079556548,,99,,1555425766,79226882,"""world""",,,0.159769758582,-0.046948581934,0.0827429890633,,-0.000382293161238,-0.000779663096182,0.0393555387855,-0.999224960804
1555425766090039684,,100,,1555425766,89642104,"""world""",,,0.159768357873,-0.0469233989716,0.0827553570271,,-0.000293440156383,-0.000923809770029,0.0394177846611,-0.9992223382
1555425766099282911,,101,,1555425766,99001658,"""world""",,,0.159745156765,-0.0469281151891,0.0827686935663,,-0.000348944071447,-0.000862845801748,0.0394504778087,-0.999221146107
1555425766099448340,,102,,1555425766,99133741,"""world""",,,0.159742832184,-0.0469397157431,0.0827601104975,,-0.000392058864236,-0.000824227521662,0.0394552573562,-0.999220907688
1555425766109824990,,103,,1555425766,109481544,"""world""",,,0.159747719765,-0.046939548105,0.0827601402998,,-0.000285807298496,-0.000996252521873,0.0394667871296,-0.999220371246
1555425766119205277,,104,,1555425766,118826247,"""world""",,,0.15975305438,-0.0469405353069,0.0827578529716,,-0.000252285797615,-0.00102228322066,0.0395224429667,-0.999218165874
1555425766129789722,,105,,1555425766,129365554,"""world""",,,0.159697204828,-0.0469382815063,0.0827571302652,,-0.000122637764434,-0.00105599185918,0.0399739071727,-0.999200165272
1555425766140119337,,106,,1555425766,139764470,"""world""",,,0.159691095352,-0.0469420738518,0.0827376171947,,-0.000225051990128,-0.000908615242224,0.0400244407356,-0.999198257923
1555425766140543655,,107,,1555425766,139921972,"""world""",,,0.159754902124,-0.0469359382987,0.0827318206429,,-0.000389568856917,-0.000712982960977,0.0393655523658,-0.999224603176
1555425766149677313,,108,,1555425766,149356987,"""world""",,,0.159753978252,-0.0469332523644,0.0827488824725,,-0.000262669607764,-0.000826358853374,0.0394229590893,-0.999222278595
1555425766160166635,,109,,1555425766,159773416,"""world""",,,0.159755200148,-0.0469361245632,0.0827479735017,,-0.000252691475907,-0.000820547749754,0.0394645258784,-0.999220609665
1555425766169567219,,110,,1555425766,169209596,"""world""",,,0.159754917026,-0.0469558760524,0.0827335938811,,-0.000297870283248,-0.00098195055034,0.0394990667701,-0.999219059944
1555425766180031856,,111,,1555425766,179659278,"""world""",,,0.159749090672,-0.0469379462302,0.0827565565705,,-0.000224070885452,-0.000997245311737,0.0395405143499,-0.999217450619
1555425766189444760,,112,,1555425766,189119358,"""world""",,,0.159746527672,-0.0469475574791,0.0827584341168,,-0.000332359835738,-0.000804165552836,0.0395009182394,-0.999219179153
1555425766199838647,,113,,1555425766,199563492,"""world""",,,0.159747391939,-0.0469438284636,0.0827582627535,,-0.000286374561256,-0.000973952410277,0.0395130738616,-0.999218583107
1555425766200339348,,114,,1555425766,199703037,"""world""",,,0.159752085805,-0.0469314828515,0.0827427506447,,-0.000226224743528,-0.000986885628663,0.0394242890179,-0.999222040176
1555425766209369876,,115,,1555425766,209054059,"""world""",,,0.159745275974,-0.0469250157475,0.082753777504,,-0.000408182328101,-0.000822042697109,0.0393969006836,-0.999223232269
1555425766219741316,,116,,1555425766,219453464,"""world""",,,0.159731850028,-0.0469215996563,0.0827547982335,,-0.00033031986095,-0.000860979838762,0.0394520834088,-0.999221086502
1555425766229237993,,117,,1555425766,228847649,"""world""",,,0.159754395485,-0.0469189807773,0.0827341899276,,-0.000298625411233,-0.000883573142346,0.0395168140531,-0.999218523502
1555425766239676399,,118,,1555425766,239272251,"""world""",,,0.159756794572,-0.0469019412994,0.0827218741179,,-0.000131022010464,-0.000927266839426,0.0394937507808,-0.999219417572
1555425766250099154,,119,,1555425766,249690280,"""world""",,,0.159757599235,-0.04688873142,0.0827192589641,,-0.000202294409974,-0.00101431109942,0.0395334400237,-0.999217808247
1555425766250142470,,120,,1555425766,249761873,"""world""",,,0.159757778049,-0.0468984730542,0.0827124640346,,-0.000402002944611,-0.000866404559929,0.0394024774432,-0.999223053455
1555425766259629612,,121,,1555425766,259239054,"""world""",,,0.159763842821,-0.0469068922102,0.0827096924186,,-0.00026302220067,-0.00104149698745,0.0394447669387,-0.999221265316
1555425766270042212,,122,,1555425766,269734934,"""world""",,,0.159770831466,-0.0469029545784,0.0827177688479,,-8.18210173748e-05,-0.00100984354503,0.0395147055387,-0.999218583107
1555425766280017046,,123,,1555425766,279245208,"""world""",,,0.15975920856,-0.0469222813845,0.0827191919088,,-0.00021211366402,-0.000904370099306,0.0394399054348,-0.999221503735
1555425766290110024,,124,,1555425766,289734139,"""world""",,,0.159749567509,-0.0469093248248,0.0827061533928,,-0.000135680427775,-0.00118019757792,0.0394944176078,-0.999219179153
1555425766290147656,,125,,1555425766,289805684,"""world""",,,0.159759014845,-0.0469179153442,0.0827127099037,,-0.000205667965929,-0.00100272148848,0.039481960237,-0.999219834805
1555425766299544829,,126,,1555425766,299157103,"""world""",,,0.159750446677,-0.0469013638794,0.0827041864395,,-0.000128194427816,-0.000965756829828,0.0395448431373,-0.999217391014
1555425766310558446,,127,,1555425766,309589543,"""world""",,,0.159742936492,-0.0469010658562,0.0827018469572,,-0.000160040537594,-0.000934656593017,0.0394993983209,-0.999219238758
1555425766319272541,,128,,1555425766,318791079,"""world""",,,0.159755319357,-0.0469006225467,0.082702152431,,-0.000276227394352,-0.000903246051166,0.0394399799407,-0.999221503735
1555425766329529086,,129,,1555425766,329226436,"""world""",,,0.159765914083,-0.0469022244215,0.082700073719,,-0.000309995375574,-0.000860207015648,0.0395845621824,-0.999215841293
1555425766340135532,,130,,1555425766,339729496,"""world""",,,0.159752577543,-0.0468795001507,0.0826937407255,,-0.000410924461903,-0.000909944472369,0.039511859417,-0.999218642712
1555425766349515337,,131,,1555425766,349177313,"""world""",,,0.159749269485,-0.0468998327851,0.0826914682984,,-0.000444354402134,-0.000998612726107,0.0395668335259,-0.999216377735
1555425766349640970,,132,,1555425766,349249054,"""world""",,,0.159769386053,-0.0468789227307,0.082684867084,,-0.000444950070232,-0.00101685663685,0.0395196378231,-0.999218285084
1555425766360123704,,133,,1555425766,359671913,"""world""",,,0.159710332751,-0.0469034910202,0.0826992690563,,-2.75929924101e-05,-0.00108126434498,0.0400214195251,-0.999198317528
1555425766369462895,,134,,1555425766,369089420,"""world""",,,0.159751832485,-0.0468985848129,0.0826979577541,,-0.000427022372605,-0.000609944632743,0.0394911244512,-0.999219655991
1555425766379930276,,135,,1555425766,379522762,"""world""",,,0.159707292914,-0.0469155237079,0.0827031508088,,-0.000132902612677,-0.00112561578862,0.0401459187269,-0.999193251133
1555425766389272425,,136,,1555425766,388902912,"""world""",,,0.159746184945,-0.0469027273357,0.0826868936419,,-0.000308961549308,-0.000871453783475,0.0394956693053,-0.999219417572
1555425766399701308,,137,,1555425766,399282312,"""world""",,,0.159752681851,-0.0469109751284,0.082705013454,,-0.00034208688885,-0.000828214047942,0.0393719337881,-0.999224305153
1555425766399757034,,138,,1555425766,399424662,"""world""",,,0.159753829241,-0.0469034053385,0.0826934576035,,-0.000244425260462,-0.000867936876602,0.0395660437644,-0.999216556549
1555425766410150577,,139,,1555425766,409760733,"""world""",,,0.159747838974,-0.0468933060765,0.0826995447278,,-0.000545396818779,-0.000927612127271,0.0395013131201,-0.99921900034
1555425766419365913,,140,,1555425766,419124801,"""world""",,,0.159760564566,-0.0468896590173,0.0826852321625,,-0.000328742637066,-0.000924520369153,0.0395767688751,-0.999216139317
1555425766429905406,,141,,1555425766,429512786,"""world""",,,0.159761399031,-0.0469010546803,0.0826891437173,,-0.000419346732087,-0.000763385556638,0.0395245663822,-0.999218285084
1555425766439246998,,142,,1555425766,438893111,"""world""",,,0.159770712256,-0.0468840114772,0.082687728107,,-0.000338629237376,-0.000849777483381,0.0395322144032,-0.999217867851
1555425766449688236,,143,,1555425766,449319429,"""world""",,,0.159784898162,-0.0468914918602,0.0826787725091,,-0.000330807029968,-0.00090995139908,0.0394936650991,-0.999219417572
1555425766449738679,,144,,1555425766,449391557,"""world""",,,0.159772217274,-0.0468950159848,0.0827055424452,,-0.000323301181197,-0.000875404570252,0.0395727641881,-0.999216258526
1555425766460230574,,145,,1555425766,459816750,"""world""",,,0.159718170762,-0.0468958765268,0.0827260389924,,-0.000212476224988,-0.00115281238686,0.0399913601577,-0.999199330807
1555425766469514791,,146,,1555425766,469201459,"""world""",,,0.159758612514,-0.0468979626894,0.0827156156301,,-0.000302453379845,-0.000799715984613,0.0394435711205,-0.99922144413
1555425766480018158,,147,,1555425766,479683835,"""world""",,,0.159762874246,-0.0469113774598,0.0827048048377,,-0.000221070891712,-0.000953637354542,0.0394680127501,-0.999220371246
1555425766489622296,,148,,1555425766,489153257,"""world""",,,0.15975818038,-0.0468820631504,0.0827204734087,,-0.000488602207042,-0.000861577806063,0.0395421162248,-0.999217510223
1555425766499893755,,149,,1555425766,499561464,"""world""",,,0.159757971764,-0.0468779951334,0.0827098861337,,-0.000269720039796,-0.000857818638906,0.0394606217742,-0.999220728874
1555425766500134511,,150,,1555425766,499707301,"""world""",,,0.159712329507,-0.0469185039401,0.082705937326,,-0.000139944837429,-0.000870926887728,0.0400512591004,-0.999197304249
1555425766509565138,,151,,1555425766,509203984,"""world""",,,0.159756362438,-0.046909853816,0.0826967433095,,-0.000459183589555,-0.000775649910793,0.0394745394588,-0.999220192432
1555425766519868475,,152,,1555425766,519576571,"""world""",,,0.159751132131,-0.0468845516443,0.0827099084854,,-0.000336441124091,-0.000905646127649,0.0394161380827,-0.999222397804
1555425766529331225,,153,,1555425766,528965388,"""world""",,,0.159760847688,-0.0468811914325,0.0827057138085,,-0.00024820244289,-0.000927529239561,0.0394241511822,-0.999222159386
1555425766540243560,,154,,1555425766,539408236,"""world""",,,0.15975920856,-0.0469058044255,0.0827094838023,,-0.00011051857291,-0.00110842927825,0.0394425392151,-0.999221265316
1555425766550290443,,155,,1555425766,549827962,"""world""",,,0.159762069583,-0.0468961521983,0.0827187374234,,-0.000557927123737,-0.000696578936186,0.0394972749054,-0.999219298363
1555425766550332921,,156,,1555425766,549903006,"""world""",,,0.159752950072,-0.0469127856195,0.0827117413282,,-0.000198983383598,-0.000914441829082,0.0394916944206,-0.999219477177
1555425766559748605,,157,,1555425766,559306202,"""world""",,,0.159740269184,-0.0469167008996,0.0827233269811,,-0.000373115908587,-0.000859434716403,0.0394519455731,-0.999221086502
1555425766570075498,,158,,1555425766,569665527,"""world""",,,0.159742429852,-0.0469069369137,0.0827000439167,,-0.000408355786931,-0.000912108807825,0.039514310658,-0.999218523502
1555425766579590040,,159,,1555425766,579172717,"""world""",,,0.159740686417,-0.046913061291,0.082711391151,,-0.000268966163276,-0.000877433922142,0.0393878556788,-0.999223589897
1555425766589993542,,160,,1555425766,589610194,"""world""",,,0.159745797515,-0.0468900240958,0.0827027112246,,-0.000368475622963,-0.000873505545314,0.039419580251,-0.9992223382
1555425766599840212,,161,,1555425766,599009132,"""world""",,,0.159736528993,-0.0468892790377,0.0826802477241,,-0.000303499196889,-0.000994149013422,0.0394448004663,-0.999221265316
1555425766599954288,,162,,1555425766,599137318,"""world""",,,0.159744083881,-0.0468971692026,0.0826818719506,,-0.000442141841631,-0.000818818400148,0.0394704006612,-0.999220311642
1555425766609910425,,163,,1555425766,609516020,"""world""",,,0.159760177135,-0.0468955412507,0.082689166069,,-0.000419001502451,-0.000911157811061,0.0395066812634,-0.99921888113
1555425766619256509,,164,,1555425766,618978621,"""world""",,,0.159749731421,-0.0469012260437,0.0826977491379,,-0.000339800259098,-0.000873762764968,0.0394220724702,-0.999222278595
1555425766629860938,,165,,1555425766,629433077,"""world""",,,0.159765332937,-0.0469014644623,0.0827020853758,,-0.000320129125612,-0.00111418857705,0.0394700430334,-0.999220073223
1555425766640244130,,166,,1555425766,639898507,"""world""",,,0.15975433588,-0.0468939654529,0.0827130302787,,-0.000460164534161,-0.000888154667336,0.0395024493337,-0.99921900034
1555425766649830406,,167,,1555425766,649413289,"""world""",,,0.159759700298,-0.0468984618783,0.0827169194818,,-0.000344428175595,-0.000931284623221,0.0395141765475,-0.999218523502
1555425766649874353,,168,,1555425766,649496791,"""world""",,,0.159750461578,-0.0469002127647,0.082723416388,,-0.000281503103906,-0.000839226413518,0.0394712164998,-0.999220371246
1555425766659189426,,169,,1555425766,658834341,"""world""",,,0.15975433588,-0.046906016767,0.0827223956585,,-0.000373674643924,-0.000812135927845,0.0394222028553,-0.99922221899
1555425766669707457,,170,,1555425766,669296885,"""world""",,,0.159753113985,-0.0468940474093,0.0827233940363,,-0.000352269998984,-0.000957843090873,0.0394747070968,-0.999220073223
1555425766680260693,,171,,1555425766,679729175,"""world""",,,0.159746915102,-0.0468986518681,0.0827273055911,,-0.000390177883673,-0.000736297864933,0.0394537709653,-0.999221146107
1555425766689516943,,172,,1555425766,689135479,"""world""",,,0.159754052758,-0.0469056330621,0.0827155187726,,-0.000339502701536,-0.000772076135036,0.0394743531942,-0.999220252037
1555425766699981392,,173,,1555425766,699596228,"""world""",,,0.159769564867,-0.0469101406634,0.0827123001218,,-0.000445573939942,-0.00083771510981,0.0395911037922,-0.999215602875
1555425766700025527,,174,,1555425766,699680883,"""world""",,,0.159758970141,-0.0469108596444,0.0827230587602,,-0.000335675373208,-0.00091508886544,0.0394466072321,-0.999221205711
1555425766709452006,,175,,1555425766,709121211,"""world""",,,0.159751728177,-0.0468981489539,0.0827133581042,,-0.000138350282214,-0.00117594946641,0.0395710617304,-0.999216139317
1555425766719949903,,176,,1555425766,719594155,"""world""",,,0.159760355949,-0.0469022281468,0.0827228873968,,-0.000313171563903,-0.00104561017361,0.0395570769906,-0.999216735363
1555425766729308753,,177,,1555425766,729017756,"""world""",,,0.159743562341,-0.0469233505428,0.0827233344316,,-0.000190458958969,-0.000948963628616,0.0395094007254,-0.999218821526
1555425766739525970,,178,,1555425766,739337954,"""world""",,,0.159748509526,-0.0469202585518,0.0827557370067,,-0.000410761887906,-0.000899672450032,0.039488080889,-0.999219596386
1555425766749925402,,179,,1555425766,749640145,"""world""",,,0.159756794572,-0.046946361661,0.0827467888594,,-0.000323163840221,-0.000890011957381,0.0394690185785,-0.999220371246
1555425766749948361,,180,,1555425766,749690741,"""world""",,,0.159712076187,-0.0469315238297,0.0827499628067,,-0.000263214635197,-0.000964266015217,0.0398452244699,-0.999205350876
1555425766759290902,,181,,1555425766,759065039,"""world""",,,0.159744203091,-0.0469327569008,0.0827415138483,,-0.000313758762786,-0.000679887656588,0.0395680293441,-0.999216675758
1555425766769653062,,182,,1555425766,769424029,"""world""",,,0.159743025899,-0.0469222925603,0.0827391296625,,-0.000285014306428,-0.000891905394383,0.0394041091204,-0.999222993851
1555425766780123905,,183,,1555425766,779865978,"""world""",,,0.159751340747,-0.0469115749002,0.0827325135469,,-0.000159891278599,-0.000951781286858,0.0394816100597,-0.999219834805
1555425766789507913,,184,,1555425766,789219797,"""world""",,,0.159749254584,-0.0468959324062,0.082726046443,,-0.00024712231243,-0.00103392859455,0.0395315028727,-0.999217748642
1555425766799731780,,185,,1555425766,799509394,"""world""",,,0.159743010998,-0.04692087695,0.0827346742153,,-0.0002857579384,-0.000868495670147,0.0393908023834,-0.999223470688
1555425766799748559,,186,,1555425766,799557885,"""world""",,,0.15970030427,-0.0469185225666,0.0827380791306,,-0.00011366957915,-0.00107197102625,0.0400071069598,-0.99919885397
1555425766810161023,,187,,1555425766,809850728,"""world""",,,0.15975061059,-0.0469342619181,0.0827328935266,,-0.000488136371132,-0.000827935291454,0.0394596159458,-0.999220788479
1555425766819415254,,188,,1555425766,819177912,"""world""",,,0.159750282764,-0.0469374246895,0.0827332064509,,-0.000196585839149,-0.000945470179431,0.03945376724,-0.999220967293
1555425766829744103,,189,,1555425766,829534535,"""world""",,,0.159746438265,-0.0469333082438,0.0827464014292,,-0.00019290218188,-0.000954508141149,0.039424829185,-0.999222099781
1555425766839100742,,190,,1555425766,838819644,"""world""",,,0.159738078713,-0.0469413101673,0.0827421322465,,-0.00021110707894,-0.00101548712701,0.0394415669143,-0.999221324921
1555425766849421588,,191,,1555425766,849137967,"""world""",,,0.159686490893,-0.0469234921038,0.0827494338155,,-0.000338010402629,-0.00116891646758,0.0399431735277,-0.999201238155
1555425766849542065,,192,,1555425766,849228354,"""world""",,,0.159751325846,-0.0469196215272,0.0827558711171,,-0.000271158816759,-0.000817256863229,0.0394384525716,-0.999221622944
1555425766859722286,,193,,1555425766,859510339,"""world""",,,0.159755051136,-0.0469128601253,0.0827408879995,,-8.79165963852e-05,-0.000983016914688,0.0395026914775,-0.99921900034
1555425766869468831,,194,,1555425766,869191019,"""world""",,,0.159754440188,-0.0469359755516,0.0827351436019,,-0.000206851371331,-0.000940401456319,0.0394491441548,-0.999221205711
1555425766879865074,,195,,1555425766,879616414,"""world""",,,0.15969966352,-0.0469178818166,0.0827457681298,,-6.82608733769e-05,-0.00126049597748,0.0399476476014,-0.999201059341
1555425766889156235,,196,,1555425766,888907590,"""world""",,,0.159761890769,-0.046929936856,0.0827481001616,,-0.000236701554968,-0.000986258033663,0.0394897051156,-0.999219536781
1555425766899456022,,197,,1555425766,899223427,"""world""",,,0.159775778651,-0.046930950135,0.0827460810542,,-0.000118173076771,-0.00127424637321,0.0395509749651,-0.999216794968
1555425766899500788,,198,,1555425766,899316206,"""world""",,,0.159765586257,-0.0469170883298,0.0827601328492,,-0.000277821702184,-0.00100414687768,0.0396529845893,-0.999213039875
1555425766909977530,,199,,1555425766,909668160,"""world""",,,0.159758210182,-0.0469134449959,0.0827604085207,,-8.13457008917e-05,-0.00113131443504,0.0395164676011,-0.999218285084
1555425766919268262,,200,,1555425766,918997240,"""world""",,,0.159768983722,-0.046932157129,0.0827484503388,,-4.43916942459e-05,-0.00103607459459,0.0394976474345,-0.999219179153
1555425766929687669,,201,,1555425766,929416813,"""world""",,,0.159758642316,-0.0469265282154,0.0827604681253,,-7.60047114454e-05,-0.00106637564022,0.0394099727273,-0.999222636223
1555425766939953930,,202,,1555425766,939742652,"""world""",,,0.159761890769,-0.0469145663083,0.0827792063355,,-0.000439025345258,-0.000740422925446,0.0393833145499,-0.99922388792
1555425766939969051,,203,,1555425766,939789845,"""world""",,,0.159759774804,-0.0469326898456,0.0827671587467,,-0.000292164913844,-0.00112760835327,0.0395550206304,-0.999216794968
1555425766949465050,,204,,1555425766,949130004,"""world""",,,0.159768179059,-0.0469321124256,0.0827721878886,,-0.000274307589279,-0.00105047097895,0.0396346785128,-0.999213695526
1555425766959839771,,205,,1555425766,959533663,"""world""",,,0.1597186625,-0.0469368100166,0.0827507823706,,-0.000107293853944,-0.00105064350646,0.0399257093668,-0.99920207262
1555425766969068522,,206,,1555425766,968797780,"""world""",,,0.159764811397,-0.0469310581684,0.0827584937215,,-0.000264466652879,-0.00114850269165,0.0394190140069,-0.999222099781
1555425766979418451,,207,,1555425766,979130765,"""world""",,,0.15976241231,-0.0469348691404,0.0827498808503,,-0.000220412548515,-0.000873451877851,0.0394330210984,-0.999221861362
1555425766989759814,,208,,1555425766,989499912,"""world""",,,0.159755557775,-0.046917244792,0.0827509611845,,-0.000240965382545,-0.000855094753206,0.0395597703755,-0.999216914177
1555425767000062726,,209,,1555425766,999810444,"""world""",,,0.159700140357,-0.0469403900206,0.0827518701553,,-0.000223309878493,-0.00097026914591,0.0399157777429,-0.999202549458
1555425767000109635,,210,,1555425766,999858000,"""world""",,,0.159757211804,-0.0469110347331,0.0827611163259,,-0.000277459679637,-0.000993938418105,0.0394491590559,-0.999221086502
1555425767009471493,,211,,1555425767,9179340,"""world""",,,0.159770697355,-0.0469329617918,0.0827653929591,,-0.000233305909205,-0.00107562087942,0.0395693778992,-0.99921631813
1555425767019818630,,212,,1555425767,19518023,"""world""",,,0.159756839275,-0.0469315387309,0.0827668532729,,-0.000111513167212,-0.000893365475349,0.0392600595951,-0.999228715897
1555425767029055713,,213,,1555425767,28758255,"""world""",,,0.159753501415,-0.0469481758773,0.0827659964561,,-5.27726206201e-06,-0.00116202479694,0.0394666194916,-0.999220252037
1555425767039329694,,214,,1555425767,39080245,"""world""",,,0.159753441811,-0.0469384230673,0.0827744156122,,-4.41624251835e-05,-0.00117655366194,0.0395070798695,-0.999218642712
1555425767049794999,,215,,1555425767,49470992,"""world""",,,0.159752130508,-0.046929884702,0.0827687755227,,-0.000115833900054,-0.0011937962845,0.0396189801395,-0.999214172363
1555425767049821984,,216,,1555425767,49527540,"""world""",,,0.159755304456,-0.0469285622239,0.0827630534768,,-0.00016343878815,-0.00108805531636,0.0395010709763,-0.99921900034
1555425767059102073,,217,,1555425767,58804306,"""world""",,,0.159695893526,-0.046947773546,0.0827547162771,,1.77876445377e-05,-0.00134704413358,0.0400520041585,-0.999196708202
1555425767069528441,,218,,1555425767,69348838,"""world""",,,0.159718871117,-0.0468441434205,0.0829345658422,,-0.000252116471529,-0.00302871223539,0.0410986207426,-0.999150454998
1555425767079984283,,219,,1555425767,79738217,"""world""",,,0.159793183208,-0.0469283461571,0.0828351601958,,-0.000954798655584,0.00110644882079,0.0400911569595,-0.999195039272
1555425767089363057,,220,,1555425767,89109649,"""world""",,,0.159783855081,-0.0470155514777,0.0829370096326,,0.000271122611593,-0.00146444234997,0.0402041263878,-0.999190449715
1555425767099767781,,221,,1555425767,99454122,"""world""",,,0.15971429646,-0.0470229387283,0.0827288404107,,0.00103694014251,-0.000517776643392,0.0399618111551,-0.999200582504
1555425767099793492,,222,,1555425767,99505309,"""world""",,,0.159801155329,-0.0470796637237,0.0829015523195,,0.00152806355618,-0.00262431195006,0.0408068411052,-0.999162435532
1555425767109062947,,223,,1555425767,108793643,"""world""",,,0.159684851766,-0.0469147861004,0.0827399268746,,-0.000186782301171,-0.000596118101384,0.0401784516871,-0.999192416668
1555425767119378192,,224,,1555425767,119135596,"""world""",,,0.159729704261,-0.0469344183803,0.0828226581216,,0.000148042949149,6.78391079418e-05,0.0397985428572,-0.999207735062
1555425767129892275,,225,,1555425767,129581371,"""world""",,,0.159684479237,-0.0467997565866,0.0829057246447,,-0.000841675675474,-0.00345806148835,0.0411305204034,-0.99914753437
1555425767139211128,,226,,1555425767,138920157,"""world""",,,0.159762978554,-0.0470811501145,0.0828557983041,,0.000604129978456,-0.000943074410316,0.0395396649837,-0.999217391014
1555425767149668851,,227,,1555425767,149340597,"""world""",,,0.159782484174,-0.0470789931715,0.0828948244452,,0.00109646713827,-0.00103875272907,0.0395092815161,-0.999218046665
1555425767149692066,,228,,1555425767,149391433,"""world""",,,0.159783780575,-0.0470971167088,0.0828914046288,,0.000567051232792,-0.000546575931367,0.0395540520549,-0.9992172122
1555425767160001674,,229,,1555425767,159728989,"""world""",,,0.159765556455,-0.0470596216619,0.0829926505685,,-7.02603301761e-06,-0.00358637329191,0.0401973314583,-0.99918538332
1555425767169431885,,230,,1555425767,169092434,"""world""",,,0.159885540605,-0.0471506677568,0.0828307420015,,0.000458089372842,-0.00147368351463,0.0392562001944,-0.999228060246
1555425767179874911,,231,,1555425767,179592684,"""world""",,,0.159960061312,-0.0471645742655,0.0828387290239,,7.01370154275e-05,-0.00160579930525,0.0395583845675,-0.999215960503
1555425767189170369,,232,,1555425767,188921436,"""world""",,,0.159991681576,-0.0472733825445,0.0830019637942,,0.000766080396716,-0.00407312531024,0.0406983047724,-0.999162852764
1555425767199658650,,233,,1555425767,199411652,"""world""",,,0.160079583526,-0.0476028583944,0.0828642547131,,0.00138859753497,-0.000298029684927,0.0390954501927,-0.999234557152
1555425767199679960,,234,,1555425767,199462408,"""world""",,,0.160124927759,-0.0477111786604,0.0828922241926,,0.00164586782921,-0.000435610476416,0.0391526333988,-0.999231815338
1555425767210045820,,235,,1555425767,209782842,"""world""",,,0.160130158067,-0.0478219799697,0.0828929021955,,0.000742691801861,-0.000696122529916,0.0396359860897,-0.999213755131
1555425767219347495,,236,,1555425767,219130739,"""world""",,,0.160205170512,-0.0479002296925,0.0829396396875,,4.92707931699e-06,-6.42067607259e-05,0.0408334881067,-0.999165952206
1555425767229815251,,237,,1555425767,229591278,"""world""",,,0.160257816315,-0.0480294786394,0.0829133540392,,0.000135942376801,-0.00073055725079,0.0413718447089,-0.999143540859
1555425767239263395,,238,,1555425767,238930830,"""world""",,,0.160268887877,-0.0480769351125,0.0827339887619,,-8.45278045745e-05,-0.00133567175362,0.0422283560038,-0.999107122421
1555425767249730713,,239,,1555425767,249451397,"""world""",,,0.160323932767,-0.048155516386,0.0830869078636,,0.000501402595546,-0.00346444151364,0.0437586046755,-0.99903601408
1555425767249758640,,240,,1555425767,249500129,"""world""",,,0.160474851727,-0.0483983531594,0.0830187350512,,0.00282702967525,-0.00100276188459,0.0436090752482,-0.999044179916
1555425767259087924,,241,,1555425767,258804540,"""world""",,,0.160539478064,-0.0484845638275,0.0831029266119,,0.0015828977339,-0.000142018659972,0.044818315655,-0.998993933201
1555425767269387322,,242,,1555425767,269136971,"""world""",,,0.160632520914,-0.0486573241651,0.082973331213,,0.000983285717666,0.00108652748168,0.0447145663202,-0.998998761177
1555425767279858807,,243,,1555425767,279579730,"""world""",,,0.160520300269,-0.0486569069326,0.0834587663412,,-0.00154343887698,-0.00463699782267,0.0467865727842,-0.998893022537
1555425767289276062,,244,,1555425767,288963356,"""world""",,,0.160777211189,-0.0489571765065,0.0830802246928,,-0.000891779491212,-2.45197725235e-06,0.0460230186582,-0.998939990997
1555425767299606851,,245,,1555425767,299330603,"""world""",,,0.160883739591,-0.0491110421717,0.0830445066094,,0.000664574559778,-0.00142499164212,0.0457999892533,-0.998949408531
1555425767299626939,,246,,1555425767,299381484,"""world""",,,0.160983860493,-0.0492105856538,0.0829115509987,,0.000933721836191,-0.00238168798387,0.0457328781486,-0.998950541019
1555425767310048003,,247,,1555425767,309762728,"""world""",,,0.161037012935,-0.0495340898633,0.0831109434366,,0.000809005461633,-0.0024545523338,0.0455064028502,-0.998960793018
1555425767319402749,,248,,1555425767,319099210,"""world""",,,0.161005318165,-0.0494212917984,0.0831750333309,,-0.00177917501424,-0.00494562322274,0.0485223941505,-0.998808264732
1555425767329990975,,249,,1555425767,329498176,"""world""",,,0.161193698645,-0.049810372293,0.0831826999784,,0.000717970367987,-0.00247951759957,0.0458978191018,-0.99894285202
1555425767339391587,,250,,1555425767,339098032,"""world""",,,0.161250337958,-0.0498845875263,0.0828815773129,,0.00135463278275,-0.000554131751414,0.0448923148215,-0.998990833759
1555425767339412160,,251,,1555425767,339151189,"""world""",,,0.161401033401,-0.0502989366651,0.0829805135727,,0.000646828790195,-0.000406876468332,0.0449804849923,-0.998987615108
1555425767349761192,,252,,1555425767,349449007,"""world""",,,0.161367207766,-0.0504770167172,0.0831448957324,,4.33486093243e-06,-0.00327794370241,0.0439472049475,-0.999028563499
1555425767359925454,,253,,1555425767,359720174,"""world""",,,0.161548450589,-0.050684351474,0.0829891264439,,0.000235512998188,-0.00160656135995,0.042626272887,-0.999089837074
1555425767369308132,,254,,1555425767,369101539,"""world""",,,0.161670610309,-0.0508708581328,0.0830857083201,,0.00171653903089,-0.00236591976136,0.0421047136188,-0.999108970165
1555425767379717989,,255,,1555425767,379458539,"""world""",,,0.161785960197,-0.0510894581676,0.083100028336,,0.00363923981786,-0.00243963766843,0.0420396886766,-0.999106407166
1555425767389981628,,256,,1555425767,389767096,"""world""",,,0.161808595061,-0.0512934364378,0.083240032196,,0.00440935092047,-0.00229321816005,0.0401945523918,-0.999179542065
1555425767390138413,,257,,1555425767,389861455,"""world""",,,0.162091627717,-0.0515872575343,0.0832953080535,,0.00752583052963,-0.000770097773056,0.0398372486234,-0.999177634716
1555425767399465810,,258,,1555425767,399215658,"""world""",,,0.162126719952,-0.0517920143902,0.0833874717355,,0.00900099240243,-0.00148220255505,0.0387765355408,-0.999206244946
1555425767409926105,,259,,1555425767,409708638,"""world""",,,0.162320673466,-0.052038192749,0.0833536460996,,0.0110488571227,0.00182338862214,0.0377236008644,-0.999225437641
1555425767419434070,,260,,1555425767,419161821,"""world""",,,0.162544816732,-0.0523409843445,0.0837495997548,,0.0142977209762,-0.000641034392174,0.036820281297,-0.999219477177
1555425767429866789,,261,,1555425767,429536473,"""world""",,,0.162683308125,-0.0523396246135,0.0838832780719,,0.0153837241232,-0.00242577539757,0.0372017249465,-0.999186456203
1555425767439007730,,262,,1555425767,438800593,"""world""",,,0.162837862968,-0.0526027418673,0.0837814211845,,0.0161962285638,0.000333447242156,0.0343494229019,-0.999278664589
1555425767449362773,,263,,1555425767,449112385,"""world""",,,0.163096040487,-0.0529568567872,0.0839699283242,,0.0188646502793,-0.000886683701538,0.0327762253582,-0.999284267426
1555425767449546483,,264,,1555425767,449217246,"""world""",,,0.16335119307,-0.0530102290213,0.0841736793518,,0.0192497391254,-0.00231541506946,0.0325414016843,-0.999282360077
1555425767459884471,,265,,1555425767,459596764,"""world""",,,0.163499101996,-0.0532019995153,0.0839785709977,,0.0204820483923,-0.000810689409263,0.0305453874171,-0.999323248863
1555425767469244349,,266,,1555425767,468962572,"""world""",,,0.16366019845,-0.0532104372978,0.0841169506311,,0.0211335141212,-0.0017635372933,0.0286274626851,-0.999365150928
1555425767479579802,,267,,1555425767,479333892,"""world""",,,0.163881704211,-0.0531744174659,0.0843406915665,,0.0219527389854,-0.00506357196718,0.0295268073678,-0.999310135841
1555425767489832343,,268,,1555425767,489629453,"""world""",,,0.164101153612,-0.0533481985331,0.0843930989504,,0.0226663462818,-0.00206056283787,0.0267741307616,-0.999382436275
1555425767499265571,,269,,1555425767,498960233,"""world""",,,0.164375916123,-0.0532327704132,0.0844645053148,,0.0225583910942,-0.0025650835596,0.0243604686111,-0.99944537878
1555425767499297291,,270,,1555425767,499010725,"""world""",,,0.164596870542,-0.0532334968448,0.0846874937415,,0.0221777223051,-0.00216926820576,0.0233296360821,-0.999479472637
1555425767509633233,,271,,1555425767,509383781,"""world""",,,0.164822548628,-0.0532563626766,0.0848291814327,,0.0260823201388,-0.00229073874652,0.0222120974213,-0.999410450459
1555425767519903466,,272,,1555425767,519699278,"""world""",,,0.165019929409,-0.0534708946943,0.0849171727896,,0.0246857590973,-0.000614195247181,0.0217392109334,-0.999458730221
1555425767529394343,,273,,1555425767,529132974,"""world""",,,0.16519099474,-0.0533390529454,0.0850679278374,,0.0248083434999,-0.000234409439145,0.0202769786119,-0.999486625195
1555425767539859945,,274,,1555425767,539458954,"""world""",,,0.165391072631,-0.0531576685607,0.0852319821715,,0.022981332615,0.000810172758065,0.019080562517,-0.999553501606
1555425767550131249,,275,,1555425767,549825085,"""world""",,,0.165659755468,-0.0530000627041,0.0856092348695,,0.0274607464671,0.000706063350663,0.0190627202392,-0.999440848827
1555425767550560942,,276,,1555425767,549964370,"""world""",,,0.165883764625,-0.0528192818165,0.0857740566134,,0.0263490155339,0.00115504884161,0.0191253572702,-0.999469220638
1555425767559619978,,277,,1555425767,559337084,"""world""",,,0.166076600552,-0.0525861792266,0.0861409902573,,0.0242911837995,0.00133203878067,0.0186386965215,-0.999530255795
1555425767569881606,,278,,1555425767,569646350,"""world""",,,0.166374027729,-0.0524040386081,0.0863039270043,,0.0237174928188,0.00194870133419,0.0182800404727,-0.999549686909
1555425767579137735,,279,,1555425767,578954283,"""world""",,,0.166500747204,-0.0520814210176,0.0866618379951,,0.0205560699105,0.000703240919393,0.0180814564228,-0.999624967575
1555425767589744119,,280,,1555425767,589277631,"""world""",,,0.166822314262,-0.0519217886031,0.0868690013885,,0.0193289127201,0.00217567710206,0.0167633928359,-0.99967032671
1555425767590088344,,281,,1555425767,589410215,"""world""",,,0.167096182704,-0.0516708754003,0.0868906900287,,0.016589300707,0.00533013837412,0.0155017254874,-0.999728024006
1555425767600046934,,282,,1555425767,599811974,"""world""",,,0.167320072651,-0.0516593456268,0.0869720950723,,0.0155901834369,0.00811386201531,0.0127988886088,-0.999763607979
1555425767609579222,,283,,1555425767,609247041,"""world""",,,0.167610108852,-0.0514024831355,0.087267562747,,0.0141441766173,0.00846427213401,0.0117386970669,-0.999795258045
1555425767619860215,,284,,1555425767,619580155,"""world""",,,0.167789503932,-0.050891969353,0.0874375849962,,0.0121637973934,0.009914890863,0.0106866648421,-0.999819815159
1555425767629277205,,285,,1555425767,628999442,"""world""",,,0.167969793081,-0.050617299974,0.0876028612256,,0.011772012338,0.010062135756,0.010012566112,-0.999830007553
1555425767639589490,,286,,1555425767,639389953,"""world""",,,0.168116167188,-0.0503359362483,0.0879067033529,,0.0110684894025,0.00926515832543,0.0088110063225,-0.999857068062
1555425767639700241,,287,,1555425767,639486054,"""world""",,,0.168354362249,-0.0500158891082,0.0881239101291,,0.00997784454376,0.0105724837631,0.00788795296103,-0.999863266945
1555425767650344968,,288,,1555425767,649795341,"""world""",,,0.168649613857,-0.0496421344578,0.0881868302822,,0.00956499297172,0.0115798357874,0.00857028830796,-0.999850511551
1555425767659593467,,289,,1555425767,659312433,"""world""",,,0.168822154403,-0.0493471361697,0.0885183364153,,0.00831718556583,0.0122022461146,0.00784454680979,-0.999860286713
1555425767670036148,,290,,1555425767,669679976,"""world""",,,0.168993845582,-0.0490380674601,0.088641166687,,0.00851008016616,0.0128697790205,0.00715665752068,-0.999855458736
1555425767679233518,,291,,1555425767,678968866,"""world""",,,0.169184446335,-0.0486201867461,0.0888410806656,,0.00605924427509,0.0139559339732,0.00649563409388,-0.999863147736
1555425767690078147,,292,,1555425767,689280199,"""world""",,,0.169326364994,-0.0481910519302,0.0889155939221,,0.00329634873196,0.0146036492661,0.00629047770053,-0.99986821413
1555425767699793942,,293,,1555425767,699580197,"""world""",,,0.169449001551,-0.0478051677346,0.089021384716,,0.00116775359493,0.0147792240605,0.00541880587116,-0.999875426292
1555425767699812774,,294,,1555425767,699620034,"""world""",,,0.169578880072,-0.0474650338292,0.0890725180507,,-0.000485974334879,0.0144359041005,0.00504825031385,-0.999882936478
1555425767709173162,,295,,1555425767,708953934,"""world""",,,0.169702276587,-0.0471597760916,0.089224755764,,-0.00207319669425,0.0136405937374,0.00523962359875,-0.999891102314
1555425767719385697,,296,,1555425767,719245653,"""world""",,,0.169809296727,-0.046825196594,0.0893016979098,,-0.00534200435504,0.0142706502229,0.00445639062673,-0.999873995781
1555425767729742642,,297,,1555425767,729559223,"""world""",,,0.169931858778,-0.0464195013046,0.0893022567034,,-0.00764395669103,0.0148917157203,0.00408814894035,-0.999851644039
1555425767739868243,,298,,1555425767,739753124,"""world""",,,0.169952064753,-0.0459367409348,0.0894810333848,,-0.0098932730034,0.0111302090809,0.00445290049538,-0.99987924099
1555425767749315717,,299,,1555425767,749073868,"""world""",,,0.17006456852,-0.0454870797694,0.0894824042916,,-0.0125392153859,0.0112860305235,0.00443177623674,-0.999847948551
1555425767749333932,,300,,1555425767,749101139,"""world""",,,0.170205593109,-0.0454380698502,0.0892475619912,,-0.0131400935352,0.0158310402185,0.00221737707034,-0.999785900116
1555425767759676388,,301,,1555425767,759529957,"""world""",,,0.170241072774,-0.0451039336622,0.0889469981194,,-0.012660915032,0.0149407954887,0.00219094171189,-0.999805808067
1555425767768978941,,302,,1555425767,768832691,"""world""",,,0.1702914536,-0.0447391197085,0.0887217968702,,-0.0144533794373,0.0144658209756,0.00171001581475,-0.999789476395
1555425767779348280,,303,,1555425767,779189469,"""world""",,,0.170316442847,-0.0445013530552,0.088528521359,,-0.0154878459871,0.014264584519,0.00098234845791,-0.999777853489
1555425767789906273,,304,,1555425767,789542127,"""world""",,,0.170368641615,-0.0443130917847,0.0883652120829,,-0.0153694050387,0.0143234804273,0.000784260744695,-0.999779045582
1555425767799280791,,305,,1555425767,798989524,"""world""",,,0.170412480831,-0.0440915189683,0.0880986377597,,-0.0156116895378,0.0150154512376,0.000403338577598,-0.999765276909
1555425767799385667,,306,,1555425767,799167237,"""world""",,,0.170465946198,-0.0438686013222,0.0877434909344,,-0.0146843483672,0.0142047824338,0.000143632671097,-0.999791264534
1555425767810334691,,307,,1555425767,809631943,"""world""",,,0.170518770814,-0.0436834581196,0.0873389169574,,-0.0150015316904,0.0148395029828,0.000588236434851,-0.999777197838
1555425767819312674,,308,,1555425767,819005691,"""world""",,,0.170514017344,-0.0436094067991,0.0870557576418,,-0.0141582554206,0.0132676772773,0.000787567347288,-0.999811410904
1555425767829732996,,309,,1555425767,829404568,"""world""",,,0.170509904623,-0.0433569848537,0.0865652412176,,-0.0141508318484,0.0135842347518,0.0010199904209,-0.999807059765
1555425767840195271,,310,,1555425767,839765620,"""world""",,,0.170446366072,-0.0431950204074,0.0860489532351,,-0.0135545684025,0.0129453763366,0.00124567467719,-0.999823629856
1555425767840599657,,311,,1555425767,839849406,"""world""",,,0.170505568385,-0.0431637763977,0.08568161726,,-0.0122584300116,0.012493558228,0.00118550693151,-0.999846100807
1555425767849815965,,312,,1555425767,849347635,"""world""",,,0.17024615407,-0.0430639535189,0.0853971838951,,-0.0123320026323,0.00849529635161,0.000540602370165,-0.999887824059
1555425767860189587,,313,,1555425767,859815211,"""world""",,,0.17022690177,-0.043087400496,0.0851313099265,,-0.0119124706835,0.00826418399811,0.000485292490339,-0.999894797802
1555425767869935691,,314,,1555425767,869530494,"""world""",,,0.17031647265,-0.042866114527,0.0843542218208,,-0.0133204385638,0.0107957692817,0.0021776901558,-0.999850690365
1555425767879250511,,315,,1555425767,878890049,"""world""",,,0.170356050134,-0.0428125336766,0.0840774029493,,-0.00974861439317,0.00828335154802,0.00141231424641,-0.999917149544
1555425767889768048,,316,,1555425767,889269184,"""world""",,,0.170331433415,-0.042842451483,0.0837003588676,,-0.0061947889626,0.00573149137199,0.000492257880978,-0.999964296818
1555425767899964556,,317,,1555425767,899679229,"""world""",,,0.170337408781,-0.0428133793175,0.0832847729325,,-0.00264971749857,0.00370587105863,-0.000912235118449,-0.999989271164
1555425767900217783,,318,,1555425767,899748625,"""world""",,,0.170219689608,-0.0425982661545,0.0832399204373,,-0.0020943810232,-0.00109180854633,-0.00145781110041,-0.999996244907
1555425767909851093,,319,,1555425767,909401168,"""world""",,,0.170339494944,-0.0428234450519,0.0832449570298,,-0.00120363256428,0.00347122410312,-0.00249750027433,-0.999990224838
1555425767920461397,,320,,1555425767,919801114,"""world""",,,0.170388072729,-0.0428716987371,0.0834356173873,,-0.00308483187109,0.0079386299476,-0.00254629040137,-0.999960482121
1555425767929515963,,321,,1555425767,929192646,"""world""",,,0.170615598559,-0.0426771305501,0.0833897292614,,-0.00576055422425,0.01405356545,-0.00208347709849,-0.99988257885
1555425767939966517,,322,,1555425767,939641586,"""world""",,,0.170692741871,-0.0425600856543,0.0834647938609,,-0.00786186289042,0.0163608957082,-0.00156684406102,-0.999834120274
1555425767949505777,,323,,1555425767,949107088,"""world""",,,0.170752137899,-0.0423225611448,0.0840180069208,,-0.0100733442232,0.0128474161029,0.000450886611361,-0.999866604805
1555425767949555062,,324,,1555425767,949182056,"""world""",,,0.170954838395,-0.0424705445766,0.0838930606842,,-0.0095896050334,0.0181493423879,-0.00139376299921,-0.999788403511
1555425767960343233,,325,,1555425767,959561665,"""world""",,,0.170975312591,-0.0425121411681,0.0841359943151,,-0.00908281933516,0.0160251706839,-0.00191324693151,-0.999828517437
1555425767969243897,,326,,1555425767,968922063,"""world""",,,0.170862257481,-0.0424035079777,0.0841568633914,,-0.00927622616291,0.0140207428485,-0.00241516064852,-0.99985575676
1555425767979830861,,327,,1555425767,979371229,"""world""",,,0.17099379003,-0.0424361526966,0.0842240154743,,-0.00625100871548,0.0129942921922,-0.00217993278056,-0.999893665314
1555425767990236117,,328,,1555425767,989866183,"""world""",,,0.17109271884,-0.0423564985394,0.0841676592827,,-0.00451653450727,0.0141288349405,-0.000585285422858,-0.999889910221
1555425767990254313,,329,,1555425767,989960009,"""world""",,,0.171216651797,-0.0423383563757,0.0841078162193,,-0.00122796138749,0.0128266327083,-0.000363837083569,-0.999916911125
1555425767999590805,,330,,1555425767,999374464,"""world""",,,0.171268522739,-0.042234044522,0.0840309783816,,0.00184104859363,0.00971473101526,0.000615959870629,-0.999951004982
1555425768010011149,,331,,1555425768,9761107,"""world""",,,0.171217739582,-0.0420832447708,0.0842405483127,,0.00318602565676,0.00499247666448,0.00199593044817,-0.999980509281
1555425768019269802,,332,,1555425768,19042017,"""world""",,,0.171354159713,-0.042043350637,0.0839718356729,,0.004930856172,0.00771068781614,0.00299460859969,-0.999953687191
1555425768029666547,,333,,1555425768,29394643,"""world""",,,0.17134462297,-0.0421109311283,0.0838173180819,,0.00642066355795,0.0092451851815,0.00135296571534,-0.999935746193
1555425768040121259,,334,,1555425768,39749373,"""world""",,,0.171371638775,-0.0420428328216,0.0836761668324,,0.00680331140757,0.00856928899884,0.00149835809134,-0.999939024448
