rosbagTimestamp,header,seq,stamp,secs,nsecs,frame_id,orientation,x,y,z,w,orientation_covariance,angular_velocity,x,y,z,angular_velocity_covariance,linear_acceleration,x,y,z,linear_acceleration_covariance
1555425765254635524,,92,,1555425765,254412180,"""cf6/base_link""",,0.0,0.0,0.0,0.0,"[-1.0, 0.0, 0.0, 0.0, 0.0, 0.0, 0.0, 0.0, 0.0]",,0.00135820123282,0.000820830785691,0.000691270144271,"[0.0, 0.0, 0.0, 0.0, 0.0, 0.0, 0.0, 0.0, 0.0]",,-0.00323283559905,0.0316537922993,9.82418651462,"[0.0, 0.0, 0.0, 0.0, 0.0, 0.0, 0.0, 0.0, 0.0]"
1555425765261598670,,93,,1555425765,261308951,"""cf6/base_link""",,0.0,0.0,0.0,0.0,"[-1.0, 0.0, 0.0, 0.0, 0.0, 0.0, 0.0, 0.0, 0.0]",,-0.000571928018145,0.000270064690294,-0.000440653519432,"[0.0, 0.0, 0.0, 0.0, 0.0, 0.0, 0.0, 0.0, 0.0]",,0.00243285655539,0.0361045238329,9.80233897805,"[0.0, 0.0, 0.0, 0.0, 0.0, 0.0, 0.0, 0.0, 0.0]"
1555425765273575600,,94,,1555425765,273412366,"""cf6/base_link""",,0.0,0.0,0.0,0.0,"[-1.0, 0.0, 0.0, 0.0, 0.0, 0.0, 0.0, 0.0, 0.0]",,-0.000690249222508,-0.000101100659248,-0.000470939304639,"[0.0, 0.0, 0.0, 0.0, 0.0, 0.0, 0.0, 0.0, 0.0]",,0.00601663815498,0.0346169487736,9.78715843678,"[0.0, 0.0, 0.0, 0.0, 0.0, 0.0, 0.0, 0.0, 0.0]"
1555425765288817948,,95,,1555425765,288548025,"""cf6/base_link""",,0.0,0.0,0.0,0.0,"[-1.0, 0.0, 0.0, 0.0, 0.0, 0.0, 0.0, 0.0, 0.0]",,0.00160545220331,-0.000577834826219,-0.000703598122416,"[0.0, 0.0, 0.0, 0.0, 0.0, 0.0, 0.0, 0.0, 0.0]",,0.0120077541273,0.0293598199636,9.79623214602,"[0.0, 0.0, 0.0, 0.0, 0.0, 0.0, 0.0, 0.0, 0.0]"
1555425765295597326,,96,,1555425765,295352327,"""cf6/base_link""",,0.0,0.0,0.0,0.0,"[-1.0, 0.0, 0.0, 0.0, 0.0, 0.0, 0.0, 0.0, 0.0]",,0.000449621239767,0.000114344854859,-0.00146181497402,"[0.0, 0.0, 0.0, 0.0, 0.0, 0.0, 0.0, 0.0, 0.0]",,-0.00149871888731,0.0383094152086,9.79119009197,"[0.0, 0.0, 0.0, 0.0, 0.0, 0.0, 0.0, 0.0, 0.0]"
1555425765302629654,,97,,1555425765,302307125,"""cf6/base_link""",,0.0,0.0,0.0,0.0,"[-1.0, 0.0, 0.0, 0.0, 0.0, 0.0, 0.0, 0.0, 0.0]",,0.00139421203415,-0.000570791753418,-0.0010308027024,"[0.0, 0.0, 0.0, 0.0, 0.0, 0.0, 0.0, 0.0, 0.0]",,0.00571592167835,0.0426413546177,9.80252959728,"[0.0, 0.0, 0.0, 0.0, 0.0, 0.0, 0.0, 0.0, 0.0]"
1555425765314917475,,98,,1555425765,314659084,"""cf6/base_link""",,0.0,0.0,0.0,0.0,"[-1.0, 0.0, 0.0, 0.0, 0.0, 0.0, 0.0, 0.0, 0.0]",,0.00061536017038,0.000231949009925,0.00101076488591,"[0.0, 0.0, 0.0, 0.0, 0.0, 0.0, 0.0, 0.0, 0.0]",,0.0184877241659,0.0329162221472,9.79130937517,"[0.0, 0.0, 0.0, 0.0, 0.0, 0.0, 0.0, 0.0, 0.0]"
1555425765321816813,,99,,1555425765,321566568,"""cf6/base_link""",,0.0,0.0,0.0,0.0,"[-1.0, 0.0, 0.0, 0.0, 0.0, 0.0, 0.0, 0.0, 0.0]",,0.000981784543775,0.000495259635012,0.000364699983091,"[0.0, 0.0, 0.0, 0.0, 0.0, 0.0, 0.0, 0.0, 0.0]",,0.0077807887987,0.0224214476324,9.7940651679,"[0.0, 0.0, 0.0, 0.0, 0.0, 0.0, 0.0, 0.0, 0.0]"
1555425765334340799,,100,,1555425765,334122776,"""cf6/base_link""",,0.0,0.0,0.0,0.0,"[-1.0, 0.0, 0.0, 0.0, 0.0, 0.0, 0.0, 0.0, 0.0]",,-0.00106827297583,7.93685966873e-05,-0.000712337725059,"[0.0, 0.0, 0.0, 0.0, 0.0, 0.0, 0.0, 0.0, 0.0]",,0.00221947886545,0.0256667916477,9.80116134882,"[0.0, 0.0, 0.0, 0.0, 0.0, 0.0, 0.0, 0.0, 0.0]"
1555425765345061361,,101,,1555425765,344770795,"""cf6/base_link""",,0.0,0.0,0.0,0.0,"[-1.0, 0.0, 0.0, 0.0, 0.0, 0.0, 0.0, 0.0, 0.0]",,-0.000208348402738,-0.00038721890865,-0.000656007511759,"[0.0, 0.0, 0.0, 0.0, 0.0, 0.0, 0.0, 0.0, 0.0]",,-0.00344994717016,0.0223841921892,9.81404510379,"[0.0, 0.0, 0.0, 0.0, 0.0, 0.0, 0.0, 0.0, 0.0]"
1555425765353629548,,102,,1555425765,353368860,"""cf6/base_link""",,0.0,0.0,0.0,0.0,"[-1.0, 0.0, 0.0, 0.0, 0.0, 0.0, 0.0, 0.0, 0.0]",,0.00113667343361,0.00152444984409,-0.00065683558841,"[0.0, 0.0, 0.0, 0.0, 0.0, 0.0, 0.0, 0.0, 0.0]",,0.000160822662983,0.0348041990027,9.79601755321,"[0.0, 0.0, 0.0, 0.0, 0.0, 0.0, 0.0, 0.0, 0.0]"
1555425765362510628,,103,,1555425765,362286469,"""cf6/base_link""",,0.0,0.0,0.0,0.0,"[-1.0, 0.0, 0.0, 0.0, 0.0, 0.0, 0.0, 0.0, 0.0]",,-0.00173037318378,-0.00202792434928,-4.85969073039e-05,"[0.0, 0.0, 0.0, 0.0, 0.0, 0.0, 0.0, 0.0, 0.0]",,0.0155643036333,0.0328500549635,9.79259751678,"[0.0, 0.0, 0.0, 0.0, 0.0, 0.0, 0.0, 0.0, 0.0]"
1555425765374947148,,104,,1555425765,374725122,"""cf6/base_link""",,0.0,0.0,0.0,0.0,"[-1.0, 0.0, 0.0, 0.0, 0.0, 0.0, 0.0, 0.0, 0.0]",,5.28814367558e-05,-0.000285256411852,-2.56597862934e-05,"[0.0, 0.0, 0.0, 0.0, 0.0, 0.0, 0.0, 0.0, 0.0]",,0.00555353753327,0.0369537085667,9.8001684916,"[0.0, 0.0, 0.0, 0.0, 0.0, 0.0, 0.0, 0.0, 0.0]"
1555425765381901478,,105,,1555425765,381585326,"""cf6/base_link""",,0.0,0.0,0.0,0.0,"[-1.0, 0.0, 0.0, 0.0, 0.0, 0.0, 0.0, 0.0, 0.0]",,-0.000293811361724,0.000905588683181,-0.000119501226595,"[0.0, 0.0, 0.0, 0.0, 0.0, 0.0, 0.0, 0.0, 0.0]",,0.00584127079288,0.0396645965148,9.80818502426,"[0.0, 0.0, 0.0, 0.0, 0.0, 0.0, 0.0, 0.0, 0.0]"
1555425765393926393,,106,,1555425765,393734496,"""cf6/base_link""",,0.0,0.0,0.0,0.0,"[-1.0, 0.0, 0.0, 0.0, 0.0, 0.0, 0.0, 0.0, 0.0]",,-0.000993408825814,0.000839270445459,0.000211572105272,"[0.0, 0.0, 0.0, 0.0, 0.0, 0.0, 0.0, 0.0, 0.0]",,0.0155323209625,0.0360519194487,9.80164549828,"[0.0, 0.0, 0.0, 0.0, 0.0, 0.0, 0.0, 0.0, 0.0]"
1555425765402748593,,107,,1555425765,402506874,"""cf6/base_link""",,0.0,0.0,0.0,0.0,"[-1.0, 0.0, 0.0, 0.0, 0.0, 0.0, 0.0, 0.0, 0.0]",,0.00142850010314,0.000629908012927,-0.000297933572288,"[0.0, 0.0, 0.0, 0.0, 0.0, 0.0, 0.0, 0.0, 0.0]",,0.0241929164319,0.029446783592,9.7794342649,"[0.0, 0.0, 0.0, 0.0, 0.0, 0.0, 0.0, 0.0, 0.0]"
1555425765423719667,,108,,1555425765,423451399,"""cf6/base_link""",,0.0,0.0,0.0,0.0,"[-1.0, 0.0, 0.0, 0.0, 0.0, 0.0, 0.0, 0.0, 0.0]",,-0.00247141401174,0.000852541453107,-0.00115320388776,"[0.0, 0.0, 0.0, 0.0, 0.0, 0.0, 0.0, 0.0, 0.0]",,0.00450573533191,0.0322180623142,9.78386996269,"[0.0, 0.0, 0.0, 0.0, 0.0, 0.0, 0.0, 0.0, 0.0]"
1555425765430750596,,109,,1555425765,430509802,"""cf6/base_link""",,0.0,0.0,0.0,0.0,"[-1.0, 0.0, 0.0, 0.0, 0.0, 0.0, 0.0, 0.0, 0.0]",,0.000509876949914,0.00028168409594,-0.00131650741737,"[0.0, 0.0, 0.0, 0.0, 0.0, 0.0, 0.0, 0.0, 0.0]",,0.00198416412401,0.0223776688892,9.78584632158,"[0.0, 0.0, 0.0, 0.0, 0.0, 0.0, 0.0, 0.0, 0.0]"
1555425765437746324,,110,,1555425765,437386665,"""cf6/base_link""",,0.0,0.0,0.0,0.0,"[-1.0, 0.0, 0.0, 0.0, 0.0, 0.0, 0.0, 0.0, 0.0]",,-8.8581185127e-05,-0.000952032366065,0.00036910840545,"[0.0, 0.0, 0.0, 0.0, 0.0, 0.0, 0.0, 0.0, 0.0]",,-0.0151478996524,0.0252073009964,9.78662692487,"[0.0, 0.0, 0.0, 0.0, 0.0, 0.0, 0.0, 0.0, 0.0]"
1555425765444849541,,111,,1555425765,444493024,"""cf6/base_link""",,0.0,0.0,0.0,0.0,"[-1.0, 0.0, 0.0, 0.0, 0.0, 0.0, 0.0, 0.0, 0.0]",,-0.000822449228216,0.00142768451006,0.000220294217916,"[0.0, 0.0, 0.0, 0.0, 0.0, 0.0, 0.0, 0.0, 0.0]",,-0.00617230085714,0.0406404465577,9.79950717151,"[0.0, 0.0, 0.0, 0.0, 0.0, 0.0, 0.0, 0.0, 0.0]"
1555425765453508091,,112,,1555425765,453286670,"""cf6/base_link""",,0.0,0.0,0.0,0.0,"[-1.0, 0.0, 0.0, 0.0, 0.0, 0.0, 0.0, 0.0, 0.0]",,-0.000557663916687,-0.000711102957181,7.25116639574e-05,"[0.0, 0.0, 0.0, 0.0, 0.0, 0.0, 0.0, 0.0, 0.0]",,0.00560174965358,0.0388416877063,9.80316402018,"[0.0, 0.0, 0.0, 0.0, 0.0, 0.0, 0.0, 0.0, 0.0]"
1555425765464456255,,113,,1555425765,464269520,"""cf6/base_link""",,0.0,0.0,0.0,0.0,"[-1.0, 0.0, 0.0, 0.0, 0.0, 0.0, 0.0, 0.0, 0.0]",,-0.00250896432304,-0.000637279754657,0.000631335430861,"[0.0, 0.0, 0.0, 0.0, 0.0, 0.0, 0.0, 0.0, 0.0]",,0.00972177032148,0.0366111096949,9.79695661604,"[0.0, 0.0, 0.0, 0.0, 0.0, 0.0, 0.0, 0.0, 0.0]"
1555425765473357217,,114,,1555425765,473159327,"""cf6/base_link""",,0.0,0.0,0.0,0.0,"[-1.0, 0.0, 0.0, 0.0, 0.0, 0.0, 0.0, 0.0, 0.0]",,0.000368679737943,-0.000571511249039,0.00174449886068,"[0.0, 0.0, 0.0, 0.0, 0.0, 0.0, 0.0, 0.0, 0.0]",,0.0122020301514,0.0310977609199,9.77454423845,"[0.0, 0.0, 0.0, 0.0, 0.0, 0.0, 0.0, 0.0, 0.0]"
1555425765482222857,,115,,1555425765,481986223,"""cf6/base_link""",,0.0,0.0,0.0,0.0,"[-1.0, 0.0, 0.0, 0.0, 0.0, 0.0, 0.0, 0.0, 0.0]",,0.000137027944208,0.000491873564826,-0.00083490236713,"[0.0, 0.0, 0.0, 0.0, 0.0, 0.0, 0.0, 0.0, 0.0]",,0.0063173774723,0.0267154760705,9.7861533004,"[0.0, 0.0, 0.0, 0.0, 0.0, 0.0, 0.0, 0.0, 0.0]"
1555425765494215300,,116,,1555425765,494008051,"""cf6/base_link""",,0.0,0.0,0.0,0.0,"[-1.0, 0.0, 0.0, 0.0, 0.0, 0.0, 0.0, 0.0, 0.0]",,0.000882661440932,0.00135380636683,-0.000697801455819,"[0.0, 0.0, 0.0, 0.0, 0.0, 0.0, 0.0, 0.0, 0.0]",,0.0201005438436,0.0235820308607,9.79206074238,"[0.0, 0.0, 0.0, 0.0, 0.0, 0.0, 0.0, 0.0, 0.0]"
1555425765503199480,,117,,1555425765,502999271,"""cf6/base_link""",,0.0,0.0,0.0,0.0,"[-1.0, 0.0, 0.0, 0.0, 0.0, 0.0, 0.0, 0.0, 0.0]",,-0.00180974890813,4.92153234126e-05,-0.0014117705621,"[0.0, 0.0, 0.0, 0.0, 0.0, 0.0, 0.0, 0.0, 0.0]",,0.00704733725055,0.0363540012273,9.7872134006,"[0.0, 0.0, 0.0, 0.0, 0.0, 0.0, 0.0, 0.0, 0.0]"
1555425765513634349,,118,,1555425765,513401144,"""cf6/base_link""",,0.0,0.0,0.0,0.0,"[-1.0, 0.0, 0.0, 0.0, 0.0, 0.0, 0.0, 0.0, 0.0]",,-0.000433912815544,-0.000100170690353,-0.000411676233174,"[0.0, 0.0, 0.0, 0.0, 0.0, 0.0, 0.0, 0.0, 0.0]",,0.0142028993822,0.032933526251,9.79406984568,"[0.0, 0.0, 0.0, 0.0, 0.0, 0.0, 0.0, 0.0, 0.0]"
1555425765522483493,,119,,1555425765,522195125,"""cf6/base_link""",,0.0,0.0,0.0,0.0,"[-1.0, 0.0, 0.0, 0.0, 0.0, 0.0, 0.0, 0.0, 0.0]",,-0.000327430779632,0.0013625460345,0.00196993648725,"[0.0, 0.0, 0.0, 0.0, 0.0, 0.0, 0.0, 0.0, 0.0]",,0.000447786405603,0.0324009865173,9.77678138316,"[0.0, 0.0, 0.0, 0.0, 0.0, 0.0, 0.0, 0.0, 0.0]"
1555425765535035283,,120,,1555425765,534812660,"""cf6/base_link""",,0.0,0.0,0.0,0.0,"[-1.0, 0.0, 0.0, 0.0, 0.0, 0.0, 0.0, 0.0, 0.0]",,-0.000534529980367,0.00163487623224,0.00162188096839,"[0.0, 0.0, 0.0, 0.0, 0.0, 0.0, 0.0, 0.0, 0.0]",,0.0162666661525,0.0225876684417,9.79565736473,"[0.0, 0.0, 0.0, 0.0, 0.0, 0.0, 0.0, 0.0, 0.0]"
1555425765552384272,,121,,1555425765,551962349,"""cf6/base_link""",,0.0,0.0,0.0,0.0,"[-1.0, 0.0, 0.0, 0.0, 0.0, 0.0, 0.0, 0.0, 0.0]",,-0.00143508076379,-0.00057740947466,-0.00174873807218,"[0.0, 0.0, 0.0, 0.0, 0.0, 0.0, 0.0, 0.0, 0.0]",,-0.00296454404597,0.020938831286,9.8079312551,"[0.0, 0.0, 0.0, 0.0, 0.0, 0.0, 0.0, 0.0, 0.0]"
1555425765559172476,,122,,1555425765,558952208,"""cf6/base_link""",,0.0,0.0,0.0,0.0,"[-1.0, 0.0, 0.0, 0.0, 0.0, 0.0, 0.0, 0.0, 0.0]",,0.00164983245649,0.00152820804813,-0.00124376124765,"[0.0, 0.0, 0.0, 0.0, 0.0, 0.0, 0.0, 0.0, 0.0]",,0.00924424238037,0.0162625319883,9.80174314678,"[0.0, 0.0, 0.0, 0.0, 0.0, 0.0, 0.0, 0.0, 0.0]"
1555425765568039185,,123,,1555425765,567805866,"""cf6/base_link""",,0.0,0.0,0.0,0.0,"[-1.0, 0.0, 0.0, 0.0, 0.0, 0.0, 0.0, 0.0, 0.0]",,-0.000747416159931,0.000481100733618,-0.00228112829104,"[0.0, 0.0, 0.0, 0.0, 0.0, 0.0, 0.0, 0.0, 0.0]",,0.013225574973,0.0281342389947,9.79756238759,"[0.0, 0.0, 0.0, 0.0, 0.0, 0.0, 0.0, 0.0, 0.0]"
1555425765574757384,,124,,1555425765,574556800,"""cf6/base_link""",,0.0,0.0,0.0,0.0,"[-1.0, 0.0, 0.0, 0.0, 0.0, 0.0, 0.0, 0.0, 0.0]",,0.000128145479488,0.00123544875207,-0.00055997357175,"[0.0, 0.0, 0.0, 0.0, 0.0, 0.0, 0.0, 0.0, 0.0]",,0.00896741954552,0.0429262602003,9.78503999054,"[0.0, 0.0, 0.0, 0.0, 0.0, 0.0, 0.0, 0.0, 0.0]"
1555425765581757596,,125,,1555425765,581501421,"""cf6/base_link""",,0.0,0.0,0.0,0.0,"[-1.0, 0.0, 0.0, 0.0, 0.0, 0.0, 0.0, 0.0, 0.0]",,-0.000849285777685,-0.00150553567872,-9.95183589264e-05,"[0.0, 0.0, 0.0, 0.0, 0.0, 0.0, 0.0, 0.0, 0.0]",,0.0115496761724,0.0255452198116,9.79164559007,"[0.0, 0.0, 0.0, 0.0, 0.0, 0.0, 0.0, 0.0, 0.0]"
1555425765594008451,,126,,1555425765,593733628,"""cf6/base_link""",,0.0,0.0,0.0,0.0,"[-1.0, 0.0, 0.0, 0.0, 0.0, 0.0, 0.0, 0.0, 0.0]",,-0.000275747639393,-0.000616267764756,-0.000443217624714,"[0.0, 0.0, 0.0, 0.0, 0.0, 0.0, 0.0, 0.0, 0.0]",,-0.00156733744763,0.0229890957847,9.7969256258,"[0.0, 0.0, 0.0, 0.0, 0.0, 0.0, 0.0, 0.0, 0.0]"
1555425765602629863,,127,,1555425765,602350360,"""cf6/base_link""",,0.0,0.0,0.0,0.0,"[-1.0, 0.0, 0.0, 0.0, 0.0, 0.0, 0.0, 0.0, 0.0]",,0.000673826569169,-0.00110382890716,0.000404183751939,"[0.0, 0.0, 0.0, 0.0, 0.0, 0.0, 0.0, 0.0, 0.0]",,0.0152816809772,0.0333663595375,9.79512994587,"[0.0, 0.0, 0.0, 0.0, 0.0, 0.0, 0.0, 0.0, 0.0]"
1555425765613145494,,128,,1555425765,612922783,"""cf6/base_link""",,0.0,0.0,0.0,0.0,"[-1.0, 0.0, 0.0, 0.0, 0.0, 0.0, 0.0, 0.0, 0.0]",,-8.53910403082e-05,0.00106243138139,0.00121359379626,"[0.0, 0.0, 0.0, 0.0, 0.0, 0.0, 0.0, 0.0, 0.0]",,0.000474431386465,0.0375148722483,9.81705057263,"[0.0, 0.0, 0.0, 0.0, 0.0, 0.0, 0.0, 0.0, 0.0]"
1555425765621380839,,129,,1555425765,621075586,"""cf6/base_link""",,0.0,0.0,0.0,0.0,"[-1.0, 0.0, 0.0, 0.0, 0.0, 0.0, 0.0, 0.0, 0.0]",,-0.00119897020706,0.000930037425252,-0.00246482632908,"[0.0, 0.0, 0.0, 0.0, 0.0, 0.0, 0.0, 0.0, 0.0]",,-0.00271575272869,0.0319766271254,9.79058607459,"[0.0, 0.0, 0.0, 0.0, 0.0, 0.0, 0.0, 0.0, 0.0]"
1555425765633619113,,130,,1555425765,633347965,"""cf6/base_link""",,0.0,0.0,0.0,0.0,"[-1.0, 0.0, 0.0, 0.0, 0.0, 0.0, 0.0, 0.0, 0.0]",,0.00115849562006,0.000896810914631,0.000109550831676,"[0.0, 0.0, 0.0, 0.0, 0.0, 0.0, 0.0, 0.0, 0.0]",,0.00433458207641,0.0367382660788,9.81068295479,"[0.0, 0.0, 0.0, 0.0, 0.0, 0.0, 0.0, 0.0, 0.0]"
1555425765642196312,,131,,1555425765,642029482,"""cf6/base_link""",,0.0,0.0,0.0,0.0,"[-1.0, 0.0, 0.0, 0.0, 0.0, 0.0, 0.0, 0.0, 0.0]",,0.000806156286947,-0.000316541857747,-0.000219416564597,"[0.0, 0.0, 0.0, 0.0, 0.0, 0.0, 0.0, 0.0, 0.0]",,0.019872164391,0.0278922464931,9.7950410682,"[0.0, 0.0, 0.0, 0.0, 0.0, 0.0, 0.0, 0.0, 0.0]"
1555425765654574177,,132,,1555425765,654396106,"""cf6/base_link""",,0.0,0.0,0.0,0.0,"[-1.0, 0.0, 0.0, 0.0, 0.0, 0.0, 0.0, 0.0, 0.0]",,-0.00162802145325,-0.000762158408036,-0.000240827703567,"[0.0, 0.0, 0.0, 0.0, 0.0, 0.0, 0.0, 0.0, 0.0]",,0.00141437123122,0.0273418841721,9.78968267977,"[0.0, 0.0, 0.0, 0.0, 0.0, 0.0, 0.0, 0.0, 0.0]"
1555425765661582437,,133,,1555425765,661360406,"""cf6/base_link""",,0.0,0.0,0.0,0.0,"[-1.0, 0.0, 0.0, 0.0, 0.0, 0.0, 0.0, 0.0, 0.0]",,-0.00154989447577,-0.00133344553803,0.000972932524005,"[0.0, 0.0, 0.0, 0.0, 0.0, 0.0, 0.0, 0.0, 0.0]",,0.00576672678755,0.0169461194635,9.78651524305,"[0.0, 0.0, 0.0, 0.0, 0.0, 0.0, 0.0, 0.0, 0.0]"
1555425765682586692,,134,,1555425765,682191520,"""cf6/base_link""",,0.0,0.0,0.0,0.0,"[-1.0, 0.0, 0.0, 0.0, 0.0, 0.0, 0.0, 0.0, 0.0]",,0.00245279269006,-0.000378998739454,-0.000930053419823,"[0.0, 0.0, 0.0, 0.0, 0.0, 0.0, 0.0, 0.0, 0.0]",,0.00812564375927,0.0240898409835,9.80014042497,"[0.0, 0.0, 0.0, 0.0, 0.0, 0.0, 0.0, 0.0, 0.0]"
1555425765689847387,,135,,1555425765,689538220,"""cf6/base_link""",,0.0,0.0,0.0,0.0,"[-1.0, 0.0, 0.0, 0.0, 0.0, 0.0, 0.0, 0.0, 0.0]",,-0.000275164650284,-0.00212811421199,-0.000777708577033,"[0.0, 0.0, 0.0, 0.0, 0.0, 0.0, 0.0, 0.0, 0.0]",,0.00533426294918,0.0313847884024,9.80288276911,"[0.0, 0.0, 0.0, 0.0, 0.0, 0.0, 0.0, 0.0, 0.0]"
1555425765696653483,,136,,1555425765,696336512,"""cf6/base_link""",,0.0,0.0,0.0,0.0,"[-1.0, 0.0, 0.0, 0.0, 0.0, 0.0, 0.0, 0.0, 0.0]",,0.000224309359131,-0.00140291958263,0.000105236604987,"[0.0, 0.0, 0.0, 0.0, 0.0, 0.0, 0.0, 0.0, 0.0]",,0.0168456432852,0.0462032225775,9.79420725524,"[0.0, 0.0, 0.0, 0.0, 0.0, 0.0, 0.0, 0.0, 0.0]"
1555425765703768338,,137,,1555425765,703463998,"""cf6/base_link""",,0.0,0.0,0.0,0.0,"[-1.0, 0.0, 0.0, 0.0, 0.0, 0.0, 0.0, 0.0, 0.0]",,7.71214092416e-06,0.000874127817154,0.0001912187536,"[0.0, 0.0, 0.0, 0.0, 0.0, 0.0, 0.0, 0.0, 0.0]",,0.00117802808789,0.0409180065757,9.79100064218,"[0.0, 0.0, 0.0, 0.0, 0.0, 0.0, 0.0, 0.0, 0.0]"
1555425765714467529,,138,,1555425765,714120480,"""cf6/base_link""",,0.0,0.0,0.0,0.0,"[-1.0, 0.0, 0.0, 0.0, 0.0, 0.0, 0.0, 0.0, 0.0]",,0.00234287383696,-0.000680108274382,-0.000307784049901,"[0.0, 0.0, 0.0, 0.0, 0.0, 0.0, 0.0, 0.0, 0.0]",,0.00113164736234,0.0366227561608,9.79181340516,"[0.0, 0.0, 0.0, 0.0, 0.0, 0.0, 0.0, 0.0, 0.0]"
1555425765721461201,,139,,1555425765,721156836,"""cf6/base_link""",,0.0,0.0,0.0,0.0,"[-1.0, 0.0, 0.0, 0.0, 0.0, 0.0, 0.0, 0.0, 0.0]",,0.000493883256664,-0.000678002907701,0.00042994411385,"[0.0, 0.0, 0.0, 0.0, 0.0, 0.0, 0.0, 0.0, 0.0]",,-0.00107122318368,0.0248081531539,9.79541821361,"[0.0, 0.0, 0.0, 0.0, 0.0, 0.0, 0.0, 0.0, 0.0]"
1555425765734323770,,140,,1555425765,733981451,"""cf6/base_link""",,0.0,0.0,0.0,0.0,"[-1.0, 0.0, 0.0, 0.0, 0.0, 0.0, 0.0, 0.0, 0.0]",,0.000269574498955,0.000356167074518,8.08993047649e-05,"[0.0, 0.0, 0.0, 0.0, 0.0, 0.0, 0.0, 0.0, 0.0]",,0.000435701898205,0.0256889790902,9.78986862123,"[0.0, 0.0, 0.0, 0.0, 0.0, 0.0, 0.0, 0.0, 0.0]"
1555425765741462227,,141,,1555425765,741145755,"""cf6/base_link""",,0.0,0.0,0.0,0.0,"[-1.0, 0.0, 0.0, 0.0, 0.0, 0.0, 0.0, 0.0, 0.0]",,0.0013491957692,-6.90591772903e-05,0.000618104799752,"[0.0, 0.0, 0.0, 0.0, 0.0, 0.0, 0.0, 0.0, 0.0]",,0.004875906909,0.0268220278714,9.77045177221,"[0.0, 0.0, 0.0, 0.0, 0.0, 0.0, 0.0, 0.0, 0.0]"
1555425765753835801,,142,,1555425765,753508737,"""cf6/base_link""",,0.0,0.0,0.0,0.0,"[-1.0, 0.0, 0.0, 0.0, 0.0, 0.0, 0.0, 0.0, 0.0]",,-0.000942396807372,-0.0004046671976,0.00103295364711,"[0.0, 0.0, 0.0, 0.0, 0.0, 0.0, 0.0, 0.0, 0.0]",,0.0154533378698,0.0262750139949,9.78570598841,"[0.0, 0.0, 0.0, 0.0, 0.0, 0.0, 0.0, 0.0, 0.0]"
1555425765762933739,,143,,1555425765,762530365,"""cf6/base_link""",,0.0,0.0,0.0,0.0,"[-1.0, 0.0, 0.0, 0.0, 0.0, 0.0, 0.0, 0.0, 0.0]",,3.49815693767e-05,0.000228352279535,-0.00226977292585,"[0.0, 0.0, 0.0, 0.0, 0.0, 0.0, 0.0, 0.0, 0.0]",,0.00332772694412,0.0321117046592,9.81549755216,"[0.0, 0.0, 0.0, 0.0, 0.0, 0.0, 0.0, 0.0, 0.0]"
1555425765773539637,,144,,1555425765,773241961,"""cf6/base_link""",,0.0,0.0,0.0,0.0,"[-1.0, 0.0, 0.0, 0.0, 0.0, 0.0, 0.0, 0.0, 0.0]",,0.000257902964662,-0.00185112608309,-0.00176626396081,"[0.0, 0.0, 0.0, 0.0, 0.0, 0.0, 0.0, 0.0, 0.0]",,0.0137426161591,0.0290094780992,9.80772484839,"[0.0, 0.0, 0.0, 0.0, 0.0, 0.0, 0.0, 0.0, 0.0]"
1555425765782695023,,145,,1555425765,782318454,"""cf6/base_link""",,0.0,0.0,0.0,0.0,"[-1.0, 0.0, 0.0, 0.0, 0.0, 0.0, 0.0, 0.0, 0.0]",,-0.000408710345569,8.31498762245e-06,0.00109125730439,"[0.0, 0.0, 0.0, 0.0, 0.0, 0.0, 0.0, 0.0, 0.0]",,0.0133972455701,0.0378945438378,9.80722841978,"[0.0, 0.0, 0.0, 0.0, 0.0, 0.0, 0.0, 0.0, 0.0]"
1555425765793348220,,146,,1555425765,793010267,"""cf6/base_link""",,0.0,0.0,0.0,0.0,"[-1.0, 0.0, 0.0, 0.0, 0.0, 0.0, 0.0, 0.0, 0.0]",,-0.000454789469267,0.000651582542171,0.000525517462229,"[0.0, 0.0, 0.0, 0.0, 0.0, 0.0, 0.0, 0.0, 0.0]",,-0.000879631082935,0.0273003849294,9.79104858935,"[0.0, 0.0, 0.0, 0.0, 0.0, 0.0, 0.0, 0.0, 0.0]"
1555425765812461416,,147,,1555425765,812180597,"""cf6/base_link""",,0.0,0.0,0.0,0.0,"[-1.0, 0.0, 0.0, 0.0, 0.0, 0.0, 0.0, 0.0, 0.0]",,0.00116810133522,-0.000240333139729,-0.000414388970932,"[0.0, 0.0, 0.0, 0.0, 0.0, 0.0, 0.0, 0.0, 0.0]",,0.00276157742628,0.0192137564882,9.80473107398,"[0.0, 0.0, 0.0, 0.0, 0.0, 0.0, 0.0, 0.0, 0.0]"
1555425765819650010,,148,,1555425765,819361667,"""cf6/base_link""",,0.0,0.0,0.0,0.0,"[-1.0, 0.0, 0.0, 0.0, 0.0, 0.0, 0.0, 0.0, 0.0]",,-0.000278782771787,0.0016248311215,-0.000209496988486,"[0.0, 0.0, 0.0, 0.0, 0.0, 0.0, 0.0, 0.0, 0.0]",,-0.00205473185139,0.0197267902759,9.79093749225,"[0.0, 0.0, 0.0, 0.0, 0.0, 0.0, 0.0, 0.0, 0.0]"
1555425765826696527,,149,,1555425765,826412995,"""cf6/base_link""",,0.0,0.0,0.0,0.0,"[-1.0, 0.0, 0.0, 0.0, 0.0, 0.0, 0.0, 0.0, 0.0]",,-0.000272861367041,-0.000181126341846,-0.00124480986733,"[0.0, 0.0, 0.0, 0.0, 0.0, 0.0, 0.0, 0.0, 0.0]",,0.00989666031324,0.0147793320625,9.81445207,"[0.0, 0.0, 0.0, 0.0, 0.0, 0.0, 0.0, 0.0, 0.0]"
1555425765833670842,,150,,1555425765,833327020,"""cf6/base_link""",,0.0,0.0,0.0,0.0,"[-1.0, 0.0, 0.0, 0.0, 0.0, 0.0, 0.0, 0.0, 0.0]",,0.00127443337327,0.000509348186301,0.000775805613196,"[0.0, 0.0, 0.0, 0.0, 0.0, 0.0, 0.0, 0.0, 0.0]",,0.00942213877745,0.00931054946326,9.82791352987,"[0.0, 0.0, 0.0, 0.0, 0.0, 0.0, 0.0, 0.0, 0.0]"
1555425765842527854,,151,,1555425765,842191956,"""cf6/base_link""",,0.0,0.0,0.0,0.0,"[-1.0, 0.0, 0.0, 0.0, 0.0, 0.0, 0.0, 0.0, 0.0]",,-0.00163928969354,-0.00187909174524,-0.00139907022254,"[0.0, 0.0, 0.0, 0.0, 0.0, 0.0, 0.0, 0.0, 0.0]",,0.0133319063613,0.0301942062168,9.81494791389,"[0.0, 0.0, 0.0, 0.0, 0.0, 0.0, 0.0, 0.0, 0.0]"
1555425765853366007,,152,,1555425765,853006859,"""cf6/base_link""",,0.0,0.0,0.0,0.0,"[-1.0, 0.0, 0.0, 0.0, 0.0, 0.0, 0.0, 0.0, 0.0]",,0.00136948884864,0.000586234056589,-0.00122277025875,"[0.0, 0.0, 0.0, 0.0, 0.0, 0.0, 0.0, 0.0, 0.0]",,0.00476509674772,0.0305463433592,9.78674562335,"[0.0, 0.0, 0.0, 0.0, 0.0, 0.0, 0.0, 0.0, 0.0]"
1555425765862356458,,153,,1555425765,861980067,"""cf6/base_link""",,0.0,0.0,0.0,0.0,"[-1.0, 0.0, 0.0, 0.0, 0.0, 0.0, 0.0, 0.0, 0.0]",,-0.000129965845345,-0.00187179145893,0.00125959405242,"[0.0, 0.0, 0.0, 0.0, 0.0, 0.0, 0.0, 0.0, 0.0]",,0.00948243476276,0.0157087755413,9.77448635101,"[0.0, 0.0, 0.0, 0.0, 0.0, 0.0, 0.0, 0.0, 0.0]"
1555425765874853673,,154,,1555425765,874503029,"""cf6/base_link""",,0.0,0.0,0.0,0.0,"[-1.0, 0.0, 0.0, 0.0, 0.0, 0.0, 0.0, 0.0, 0.0]",,-0.000655524163625,0.000541468275724,-0.00111842271784,"[0.0, 0.0, 0.0, 0.0, 0.0, 0.0, 0.0, 0.0, 0.0]",,-0.00413289282209,0.018307904012,9.78108084083,"[0.0, 0.0, 0.0, 0.0, 0.0, 0.0, 0.0, 0.0, 0.0]"
1555425765884310906,,155,,1555425765,883918620,"""cf6/base_link""",,0.0,0.0,0.0,0.0,"[-1.0, 0.0, 0.0, 0.0, 0.0, 0.0, 0.0, 0.0, 0.0]",,-0.0002446044379,-0.00115326331474,-0.00125249662408,"[0.0, 0.0, 0.0, 0.0, 0.0, 0.0, 0.0, 0.0, 0.0]",,0.00551186869852,0.0284578915173,9.78275197506,"[0.0, 0.0, 0.0, 0.0, 0.0, 0.0, 0.0, 0.0, 0.0]"
1555425765893302234,,156,,1555425765,892970590,"""cf6/base_link""",,0.0,0.0,0.0,0.0,"[-1.0, 0.0, 0.0, 0.0, 0.0, 0.0, 0.0, 0.0, 0.0]",,-0.00157631724699,0.000498293954673,6.76128877132e-05,"[0.0, 0.0, 0.0, 0.0, 0.0, 0.0, 0.0, 0.0, 0.0]",,0.0142444979819,0.0175821012387,9.78704441607,"[0.0, 0.0, 0.0, 0.0, 0.0, 0.0, 0.0, 0.0, 0.0]"
1555425765902196536,,157,,1555425765,901892273,"""cf6/base_link""",,0.0,0.0,0.0,0.0,"[-1.0, 0.0, 0.0, 0.0, 0.0, 0.0, 0.0, 0.0, 0.0]",,0.000454347668007,0.00252889589917,-0.000460459154575,"[0.0, 0.0, 0.0, 0.0, 0.0, 0.0, 0.0, 0.0, 0.0]",,0.0145579407178,0.022897892925,9.79361844063,"[0.0, 0.0, 0.0, 0.0, 0.0, 0.0, 0.0, 0.0, 0.0]"
1555425765914732327,,158,,1555425765,914419387,"""cf6/base_link""",,0.0,0.0,0.0,0.0,"[-1.0, 0.0, 0.0, 0.0, 0.0, 0.0, 0.0, 0.0, 0.0]",,0.000572702519486,0.000443576332227,-1.64467569465e-05,"[0.0, 0.0, 0.0, 0.0, 0.0, 0.0, 0.0, 0.0, 0.0]",,0.0153349100542,0.0306811399525,9.8053011775,"[0.0, 0.0, 0.0, 0.0, 0.0, 0.0, 0.0, 0.0, 0.0]"
1555425765921734164,,159,,1555425765,921402985,"""cf6/base_link""",,0.0,0.0,0.0,0.0,"[-1.0, 0.0, 0.0, 0.0, 0.0, 0.0, 0.0, 0.0, 0.0]",,0.00023019645032,-4.36488307204e-05,0.000901869815387,"[0.0, 0.0, 0.0, 0.0, 0.0, 0.0, 0.0, 0.0, 0.0]",,0.0104274070531,0.0327206921694,9.78128490865,"[0.0, 0.0, 0.0, 0.0, 0.0, 0.0, 0.0, 0.0, 0.0]"
1555425765942303310,,160,,1555425765,942005253,"""cf6/base_link""",,0.0,0.0,0.0,0.0,"[-1.0, 0.0, 0.0, 0.0, 0.0, 0.0, 0.0, 0.0, 0.0]",,0.00111201448647,-0.000388357839139,-0.000955501237414,"[0.0, 0.0, 0.0, 0.0, 0.0, 0.0, 0.0, 0.0, 0.0]",,-0.00414013160655,0.0223313731025,9.79091527283,"[0.0, 0.0, 0.0, 0.0, 0.0, 0.0, 0.0, 0.0, 0.0]"
1555425765949363424,,161,,1555425765,948983287,"""cf6/base_link""",,0.0,0.0,0.0,0.0,"[-1.0, 0.0, 0.0, 0.0, 0.0, 0.0, 0.0, 0.0, 0.0]",,-0.00191283833949,0.00116343781246,-0.00107848381893,"[0.0, 0.0, 0.0, 0.0, 0.0, 0.0, 0.0, 0.0, 0.0]",,-0.00778057752235,0.022899060084,9.79146023333,"[0.0, 0.0, 0.0, 0.0, 0.0, 0.0, 0.0, 0.0, 0.0]"
1555425765956292445,,162,,1555425765,955940781,"""cf6/base_link""",,0.0,0.0,0.0,0.0,"[-1.0, 0.0, 0.0, 0.0, 0.0, 0.0, 0.0, 0.0, 0.0]",,-0.000231887209763,-0.00139526806594,0.00130631068331,"[0.0, 0.0, 0.0, 0.0, 0.0, 0.0, 0.0, 0.0, 0.0]",,-0.000209381069508,0.0456910795765,9.79889964581,"[0.0, 0.0, 0.0, 0.0, 0.0, 0.0, 0.0, 0.0, 0.0]"
1555425765963291898,,163,,1555425765,962936227,"""cf6/base_link""",,0.0,0.0,0.0,0.0,"[-1.0, 0.0, 0.0, 0.0, 0.0, 0.0, 0.0, 0.0, 0.0]",,0.00108616101795,-0.00121262618973,-0.000394282819907,"[0.0, 0.0, 0.0, 0.0, 0.0, 0.0, 0.0, 0.0, 0.0]",,0.00858967970707,0.0424410463683,9.80098417819,"[0.0, 0.0, 0.0, 0.0, 0.0, 0.0, 0.0, 0.0, 0.0]"
1555425765973707195,,164,,1555425765,973379287,"""cf6/base_link""",,0.0,0.0,0.0,0.0,"[-1.0, 0.0, 0.0, 0.0, 0.0, 0.0, 0.0, 0.0, 0.0]",,-0.00180527706015,-0.000197218521991,3.21866725136e-05,"[0.0, 0.0, 0.0, 0.0, 0.0, 0.0, 0.0, 0.0, 0.0]",,-0.00113423863819,0.0189405076497,9.81168750644,"[0.0, 0.0, 0.0, 0.0, 0.0, 0.0, 0.0, 0.0, 0.0]"
1555425765982747489,,165,,1555425765,982372969,"""cf6/base_link""",,0.0,0.0,0.0,0.0,"[-1.0, 0.0, 0.0, 0.0, 0.0, 0.0, 0.0, 0.0, 0.0]",,0.00105085651347,-0.00135980992256,-0.000162011025235,"[0.0, 0.0, 0.0, 0.0, 0.0, 0.0, 0.0, 0.0, 0.0]",,0.00810454695951,0.0199671199755,9.81709618092,"[0.0, 0.0, 0.0, 0.0, 0.0, 0.0, 0.0, 0.0, 0.0]"
1555425765993329114,,166,,1555425765,993051272,"""cf6/base_link""",,0.0,0.0,0.0,0.0,"[-1.0, 0.0, 0.0, 0.0, 0.0, 0.0, 0.0, 0.0, 0.0]",,-0.000208177290086,0.000687218901489,0.0010357497712,"[0.0, 0.0, 0.0, 0.0, 0.0, 0.0, 0.0, 0.0, 0.0]",,0.0210320075811,0.0196138567873,9.81003742218,"[0.0, 0.0, 0.0, 0.0, 0.0, 0.0, 0.0, 0.0, 0.0]"
1555425766002208834,,167,,1555425766,1907739,"""cf6/base_link""",,0.0,0.0,0.0,0.0,"[-1.0, 0.0, 0.0, 0.0, 0.0, 0.0, 0.0, 0.0, 0.0]",,-0.00127844957103,0.000753241434704,-6.53508993971e-05,"[0.0, 0.0, 0.0, 0.0, 0.0, 0.0, 0.0, 0.0, 0.0]",,0.0153901982191,0.0300336978631,9.81320661306,"[0.0, 0.0, 0.0, 0.0, 0.0, 0.0, 0.0, 0.0, 0.0]"
1555425766015272408,,168,,1555425766,14935130,"""cf6/base_link""",,0.0,0.0,0.0,0.0,"[-1.0, 0.0, 0.0, 0.0, 0.0, 0.0, 0.0, 0.0, 0.0]",,-0.000109282816957,-0.00025588493419,-0.000228690197357,"[0.0, 0.0, 0.0, 0.0, 0.0, 0.0, 0.0, 0.0, 0.0]",,0.00982116956147,0.0384888356505,9.79693030357,"[0.0, 0.0, 0.0, 0.0, 0.0, 0.0, 0.0, 0.0, 0.0]"
1555425766022463166,,169,,1555425766,22105283,"""cf6/base_link""",,0.0,0.0,0.0,0.0,"[-1.0, 0.0, 0.0, 0.0, 0.0, 0.0, 0.0, 0.0, 0.0]",,-0.000750791014412,-0.000393921121539,0.000968418934091,"[0.0, 0.0, 0.0, 0.0, 0.0, 0.0, 0.0, 0.0, 0.0]",,-0.00290041225293,0.0313793523191,9.80522750258,"[0.0, 0.0, 0.0, 0.0, 0.0, 0.0, 0.0, 0.0, 0.0]"
1555425766035358243,,170,,1555425766,34897509,"""cf6/base_link""",,0.0,0.0,0.0,0.0,"[-1.0, 0.0, 0.0, 0.0, 0.0, 0.0, 0.0, 0.0, 0.0]",,-0.0010434800904,-0.000751887487767,0.000976349250453,"[0.0, 0.0, 0.0, 0.0, 0.0, 0.0, 0.0, 0.0, 0.0]",,0.00448336916103,0.0206076481892,9.79372193635,"[0.0, 0.0, 0.0, 0.0, 0.0, 0.0, 0.0, 0.0, 0.0]"
1555425766042311283,,171,,1555425766,42004625,"""cf6/base_link""",,0.0,0.0,0.0,0.0,"[-1.0, 0.0, 0.0, 0.0, 0.0, 0.0, 0.0, 0.0, 0.0]",,-0.000656239628094,0.000224405797942,-0.000785254178449,"[0.0, 0.0, 0.0, 0.0, 0.0, 0.0, 0.0, 0.0, 0.0]",,-0.00434152678703,0.0205612153583,9.79495686829,"[0.0, 0.0, 0.0, 0.0, 0.0, 0.0, 0.0, 0.0, 0.0]"
1555425766054548510,,172,,1555425766,54134223,"""cf6/base_link""",,0.0,0.0,0.0,0.0,"[-1.0, 0.0, 0.0, 0.0, 0.0, 0.0, 0.0, 0.0, 0.0]",,-0.00128623047469,0.00134195490987,0.00117536521112,"[0.0, 0.0, 0.0, 0.0, 0.0, 0.0, 0.0, 0.0, 0.0]",,0.000534237403372,0.0314017339074,9.79360031426,"[0.0, 0.0, 0.0, 0.0, 0.0, 0.0, 0.0, 0.0, 0.0]"
1555425766061768812,,173,,1555425766,61358023,"""cf6/base_link""",,0.0,0.0,0.0,0.0,"[-1.0, 0.0, 0.0, 0.0, 0.0, 0.0, 0.0, 0.0, 0.0]",,0.000194978371791,-0.000883847769966,-0.00137681631272,"[0.0, 0.0, 0.0, 0.0, 0.0, 0.0, 0.0, 0.0, 0.0]",,0.00247645942523,0.0338287349674,9.78841500342,"[0.0, 0.0, 0.0, 0.0, 0.0, 0.0, 0.0, 0.0, 0.0]"
1555425766078994355,,174,,1555425766,78645239,"""cf6/base_link""",,0.0,0.0,0.0,0.0,"[-1.0, 0.0, 0.0, 0.0, 0.0, 0.0, 0.0, 0.0, 0.0]",,-0.00121746110147,0.000289003822804,-0.00153427402169,"[0.0, 0.0, 0.0, 0.0, 0.0, 0.0, 0.0, 0.0, 0.0]",,0.0193065399234,0.0267082835385,9.78056862473,"[0.0, 0.0, 0.0, 0.0, 0.0, 0.0, 0.0, 0.0, 0.0]"
1555425766086099025,,175,,1555425766,85716505,"""cf6/base_link""",,0.0,0.0,0.0,0.0,"[-1.0, 0.0, 0.0, 0.0, 0.0, 0.0, 0.0, 0.0, 0.0]",,-0.00167481077491,0.00187004076861,-0.00144428206338,"[0.0, 0.0, 0.0, 0.0, 0.0, 0.0, 0.0, 0.0, 0.0]",,0.00961168735055,0.0261058581574,9.79784597754,"[0.0, 0.0, 0.0, 0.0, 0.0, 0.0, 0.0, 0.0, 0.0]"
1555425766094574801,,176,,1555425766,94317455,"""cf6/base_link""",,0.0,0.0,0.0,0.0,"[-1.0, 0.0, 0.0, 0.0, 0.0, 0.0, 0.0, 0.0, 0.0]",,0.000818882568921,0.00166632624016,0.000585467877627,"[0.0, 0.0, 0.0, 0.0, 0.0, 0.0, 0.0, 0.0, 0.0]",,0.0201851046318,0.0240057233046,9.83305674076,"[0.0, 0.0, 0.0, 0.0, 0.0, 0.0, 0.0, 0.0, 0.0]"
1555425766101642355,,177,,1555425766,101312238,"""cf6/base_link""",,0.0,0.0,0.0,0.0,"[-1.0, 0.0, 0.0, 0.0, 0.0, 0.0, 0.0, 0.0, 0.0]",,-0.00112633196818,0.000821207828444,-0.000318524046726,"[0.0, 0.0, 0.0, 0.0, 0.0, 0.0, 0.0, 0.0, 0.0]",,0.00937758973218,0.0308878276055,9.79129475713,"[0.0, 0.0, 0.0, 0.0, 0.0, 0.0, 0.0, 0.0, 0.0]"
1555425766114074029,,178,,1555425766,113794601,"""cf6/base_link""",,0.0,0.0,0.0,0.0,"[-1.0, 0.0, 0.0, 0.0, 0.0, 0.0, 0.0, 0.0, 0.0]",,-0.00159536665101,-0.00166283955372,3.94751254403e-05,"[0.0, 0.0, 0.0, 0.0, 0.0, 0.0, 0.0, 0.0, 0.0]",,-0.00309176780982,0.0292990226252,9.78992650867,"[0.0, 0.0, 0.0, 0.0, 0.0, 0.0, 0.0, 0.0, 0.0]"
1555425766121170002,,179,,1555425766,120895063,"""cf6/base_link""",,0.0,0.0,0.0,0.0,"[-1.0, 0.0, 0.0, 0.0, 0.0, 0.0, 0.0, 0.0, 0.0]",,-0.000764735354488,-0.00016147434561,-0.000702206009572,"[0.0, 0.0, 0.0, 0.0, 0.0, 0.0, 0.0, 0.0, 0.0]",,0.00348728798039,0.0166015528666,9.77949332178,"[0.0, 0.0, 0.0, 0.0, 0.0, 0.0, 0.0, 0.0, 0.0]"
1555425766138323044,,180,,1555425766,137909018,"""cf6/base_link""",,0.0,0.0,0.0,0.0,"[-1.0, 0.0, 0.0, 0.0, 0.0, 0.0, 0.0, 0.0, 0.0]",,0.00137656560107,-8.96868829933e-05,0.000232939714303,"[0.0, 0.0, 0.0, 0.0, 0.0, 0.0, 0.0, 0.0, 0.0]",,-0.00173199309895,0.0231423133914,9.78853019357,"[0.0, 0.0, 0.0, 0.0, 0.0, 0.0, 0.0, 0.0, 0.0]"
1555425766145173959,,181,,1555425766,144916615,"""cf6/base_link""",,0.0,0.0,0.0,0.0,"[-1.0, 0.0, 0.0, 0.0, 0.0, 0.0, 0.0, 0.0, 0.0]",,0.000280443996539,0.00102057319897,0.000287518603352,"[0.0, 0.0, 0.0, 0.0, 0.0, 0.0, 0.0, 0.0, 0.0]",,0.00317026753648,0.0243334688782,9.79629997373,"[0.0, 0.0, 0.0, 0.0, 0.0, 0.0, 0.0, 0.0, 0.0]"
1555425766156375777,,182,,1555425766,155958485,"""cf6/base_link""",,0.0,0.0,0.0,0.0,"[-1.0, 0.0, 0.0, 0.0, 0.0, 0.0, 0.0, 0.0, 0.0]",,0.000603208782702,-0.000736607796068,-0.00048714144746,"[0.0, 0.0, 0.0, 0.0, 0.0, 0.0, 0.0, 0.0, 0.0]",,0.00533696785744,0.0246876114327,9.79853127122,"[0.0, 0.0, 0.0, 0.0, 0.0, 0.0, 0.0, 0.0, 0.0]"
1555425766163591220,,183,,1555425766,163207196,"""cf6/base_link""",,0.0,0.0,0.0,0.0,"[-1.0, 0.0, 0.0, 0.0, 0.0, 0.0, 0.0, 0.0, 0.0]",,-0.00143345412893,0.000740732054717,3.00106367301e-05,"[0.0, 0.0, 0.0, 0.0, 0.0, 0.0, 0.0, 0.0, 0.0]",,0.0155539236835,0.0235898332391,9.81190736175,"[0.0, 0.0, 0.0, 0.0, 0.0, 0.0, 0.0, 0.0, 0.0]"
1555425766174072031,,184,,1555425766,173721766,"""cf6/base_link""",,0.0,0.0,0.0,0.0,"[-1.0, 0.0, 0.0, 0.0, 0.0, 0.0, 0.0, 0.0, 0.0]",,-0.000858718673461,0.000739251516602,-0.00116710603078,"[0.0, 0.0, 0.0, 0.0, 0.0, 0.0, 0.0, 0.0, 0.0]",,0.00336225920648,0.0237811034289,9.80203199923,"[0.0, 0.0, 0.0, 0.0, 0.0, 0.0, 0.0, 0.0, 0.0]"
1555425766183227886,,185,,1555425766,182895323,"""cf6/base_link""",,0.0,0.0,0.0,0.0,"[-1.0, 0.0, 0.0, 0.0, 0.0, 0.0, 0.0, 0.0, 0.0]",,-0.000126412718042,-0.00122433759667,-0.0011351334035,"[0.0, 0.0, 0.0, 0.0, 0.0, 0.0, 0.0, 0.0, 0.0]",,-0.00328975915705,0.0218029880896,9.81068646312,"[0.0, 0.0, 0.0, 0.0, 0.0, 0.0, 0.0, 0.0, 0.0]"
1555425766204271620,,186,,1555425766,203908198,"""cf6/base_link""",,0.0,0.0,0.0,0.0,"[-1.0, 0.0, 0.0, 0.0, 0.0, 0.0, 0.0, 0.0, 0.0]",,-0.00149543335163,0.000566839598954,-0.000371894776751,"[0.0, 0.0, 0.0, 0.0, 0.0, 0.0, 0.0, 0.0, 0.0]",,-0.00218750490269,0.0373501269473,9.81095192671,"[0.0, 0.0, 0.0, 0.0, 0.0, 0.0, 0.0, 0.0, 0.0]"
1555425766211253266,,187,,1555425766,210950813,"""cf6/base_link""",,0.0,0.0,0.0,0.0,"[-1.0, 0.0, 0.0, 0.0, 0.0, 0.0, 0.0, 0.0, 0.0]",,0.000746517603137,0.000951452140245,0.000270692542225,"[0.0, 0.0, 0.0, 0.0, 0.0, 0.0, 0.0, 0.0, 0.0]",,-0.00518270129221,0.0426542961504,9.78794196367,"[0.0, 0.0, 0.0, 0.0, 0.0, 0.0, 0.0, 0.0, 0.0]"
1555425766218237297,,188,,1555425766,217959923,"""cf6/base_link""",,0.0,0.0,0.0,0.0,"[-1.0, 0.0, 0.0, 0.0, 0.0, 0.0, 0.0, 0.0, 0.0]",,-0.00223004709283,0.00138095370512,0.00025100107971,"[0.0, 0.0, 0.0, 0.0, 0.0, 0.0, 0.0, 0.0, 0.0]",,-0.000114976810992,0.0310470523126,9.79795298159,"[0.0, 0.0, 0.0, 0.0, 0.0, 0.0, 0.0, 0.0, 0.0]"
1555425766225376526,,189,,1555425766,225025421,"""cf6/base_link""",,0.0,0.0,0.0,0.0,"[-1.0, 0.0, 0.0, 0.0, 0.0, 0.0, 0.0, 0.0, 0.0]",,0.000928213719065,-1.88751156212e-05,0.00110178095188,"[0.0, 0.0, 0.0, 0.0, 0.0, 0.0, 0.0, 0.0, 0.0]",,-0.0086746196507,0.0290680576069,9.80744885981,"[0.0, 0.0, 0.0, 0.0, 0.0, 0.0, 0.0, 0.0, 0.0]"
1555425766234172718,,190,,1555425766,233747974,"""cf6/base_link""",,0.0,0.0,0.0,0.0,"[-1.0, 0.0, 0.0, 0.0, 0.0, 0.0, 0.0, 0.0, 0.0]",,-0.00087970686656,0.000385616200621,-0.00244216579306,"[0.0, 0.0, 0.0, 0.0, 0.0, 0.0, 0.0, 0.0, 0.0]",,0.00350048504333,0.0267158666463,9.80841481984,"[0.0, 0.0, 0.0, 0.0, 0.0, 0.0, 0.0, 0.0, 0.0]"
1555425766241234696,,191,,1555425766,240867304,"""cf6/base_link""",,0.0,0.0,0.0,0.0,"[-1.0, 0.0, 0.0, 0.0, 0.0, 0.0, 0.0, 0.0, 0.0]",,-0.00106269334125,0.00106614797353,0.000553252861075,"[0.0, 0.0, 0.0, 0.0, 0.0, 0.0, 0.0, 0.0, 0.0]",,-0.00012578113362,0.0304690390569,9.79092989087,"[0.0, 0.0, 0.0, 0.0, 0.0, 0.0, 0.0, 0.0, 0.0]"
1555425766253549213,,192,,1555425766,253143820,"""cf6/base_link""",,0.0,0.0,0.0,0.0,"[-1.0, 0.0, 0.0, 0.0, 0.0, 0.0, 0.0, 0.0, 0.0]",,0.000804084794947,0.00108752530284,0.00136343548869,"[0.0, 0.0, 0.0, 0.0, 0.0, 0.0, 0.0, 0.0, 0.0]",,0.00991476726718,0.0190153006185,9.79758694589,"[0.0, 0.0, 0.0, 0.0, 0.0, 0.0, 0.0, 0.0, 0.0]"
1555425766262500617,,193,,1555425766,262167968,"""cf6/base_link""",,0.0,0.0,0.0,0.0,"[-1.0, 0.0, 0.0, 0.0, 0.0, 0.0, 0.0, 0.0, 0.0]",,-0.00123155283867,-0.00237025602236,0.000903156142999,"[0.0, 0.0, 0.0, 0.0, 0.0, 0.0, 0.0, 0.0, 0.0]",,0.013294081043,0.026454943784,9.8063694638,"[0.0, 0.0, 0.0, 0.0, 0.0, 0.0, 0.0, 0.0, 0.0]"
1555425766273029619,,194,,1555425766,272659030,"""cf6/base_link""",,0.0,0.0,0.0,0.0,"[-1.0, 0.0, 0.0, 0.0, 0.0, 0.0, 0.0, 0.0, 0.0]",,-0.00299505442004,-0.00100570000344,7.41168589472e-05,"[0.0, 0.0, 0.0, 0.0, 0.0, 0.0, 0.0, 0.0, 0.0]",,0.0105910548591,0.024565217332,9.79326468408,"[0.0, 0.0, 0.0, 0.0, 0.0, 0.0, 0.0, 0.0, 0.0]"
1555425766281969116,,195,,1555425766,281583215,"""cf6/base_link""",,0.0,0.0,0.0,0.0,"[-1.0, 0.0, 0.0, 0.0, 0.0, 0.0, 0.0, 0.0, 0.0]",,0.00102420929811,-0.000320634452347,0.00177940590657,"[0.0, 0.0, 0.0, 0.0, 0.0, 0.0, 0.0, 0.0, 0.0]",,0.00219503319284,0.0366881581815,9.79402540684,"[0.0, 0.0, 0.0, 0.0, 0.0, 0.0, 0.0, 0.0, 0.0]"
1555425766294294299,,196,,1555425766,293988191,"""cf6/base_link""",,0.0,0.0,0.0,0.0,"[-1.0, 0.0, 0.0, 0.0, 0.0, 0.0, 0.0, 0.0, 0.0]",,-0.00153394697822,0.000475404748294,-5.60285758468e-05,"[0.0, 0.0, 0.0, 0.0, 0.0, 0.0, 0.0, 0.0, 0.0]",,-0.00353692250443,0.0447297699144,9.79487442255,"[0.0, 0.0, 0.0, 0.0, 0.0, 0.0, 0.0, 0.0, 0.0]"
1555425766301563287,,197,,1555425766,301202917,"""cf6/base_link""",,0.0,0.0,0.0,0.0,"[-1.0, 0.0, 0.0, 0.0, 0.0, 0.0, 0.0, 0.0, 0.0]",,-6.99829206569e-05,-0.000159097916464,-0.0012669320495,"[0.0, 0.0, 0.0, 0.0, 0.0, 0.0, 0.0, 0.0, 0.0]",,0.00759985573241,0.0322160477657,9.80617884457,"[0.0, 0.0, 0.0, 0.0, 0.0, 0.0, 0.0, 0.0, 0.0]"
1555425766314292110,,198,,1555425766,313981130,"""cf6/base_link""",,0.0,0.0,0.0,0.0,"[-1.0, 0.0, 0.0, 0.0, 0.0, 0.0, 0.0, 0.0, 0.0]",,0.00126052355806,-0.00205564294083,0.00133769853347,"[0.0, 0.0, 0.0, 0.0, 0.0, 0.0, 0.0, 0.0, 0.0]",,0.00165074549499,0.0302106789197,9.8216780591,"[0.0, 0.0, 0.0, 0.0, 0.0, 0.0, 0.0, 0.0, 0.0]"
1555425766329329814,,199,,1555425766,328963963,"""cf6/base_link""",,0.0,0.0,0.0,0.0,"[-1.0, 0.0, 0.0, 0.0, 0.0, 0.0, 0.0, 0.0, 0.0]",,0.000454624972257,-0.000258914344949,0.00107328896432,"[0.0, 0.0, 0.0, 0.0, 0.0, 0.0, 0.0, 0.0, 0.0]",,0.0114660575625,0.0381659734156,9.81200793386,"[0.0, 0.0, 0.0, 0.0, 0.0, 0.0, 0.0, 0.0, 0.0]"
1555425766336353829,,200,,1555425766,335965572,"""cf6/base_link""",,0.0,0.0,0.0,0.0,"[-1.0, 0.0, 0.0, 0.0, 0.0, 0.0, 0.0, 0.0, 0.0]",,0.000459990793225,0.000200320428467,0.00249913689451,"[0.0, 0.0, 0.0, 0.0, 0.0, 0.0, 0.0, 0.0, 0.0]",,0.00143920719405,0.0242164012254,9.8066811204,"[0.0, 0.0, 0.0, 0.0, 0.0, 0.0, 0.0, 0.0, 0.0]"
1555425766343967367,,201,,1555425766,343711757,"""cf6/base_link""",,0.0,0.0,0.0,0.0,"[-1.0, 0.0, 0.0, 0.0, 0.0, 0.0, 0.0, 0.0, 0.0]",,1.82463595262e-05,0.00093151965385,-0.00044959822319,"[0.0, 0.0, 0.0, 0.0, 0.0, 0.0, 0.0, 0.0, 0.0]",,0.00998658866272,0.0206594462972,9.79975041568,"[0.0, 0.0, 0.0, 0.0, 0.0, 0.0, 0.0, 0.0, 0.0]"
1555425766352683067,,202,,1555425766,352386400,"""cf6/base_link""",,0.0,0.0,0.0,0.0,"[-1.0, 0.0, 0.0, 0.0, 0.0, 0.0, 0.0, 0.0, 0.0]",,0.00125626887213,-0.00053366458305,0.00182925279204,"[0.0, 0.0, 0.0, 0.0, 0.0, 0.0, 0.0, 0.0, 0.0]",,0.00705533091968,0.0296613421454,9.79222446442,"[0.0, 0.0, 0.0, 0.0, 0.0, 0.0, 0.0, 0.0, 0.0]"
1555425766361727184,,203,,1555425766,361388087,"""cf6/base_link""",,0.0,0.0,0.0,0.0,"[-1.0, 0.0, 0.0, 0.0, 0.0, 0.0, 0.0, 0.0, 0.0]",,-0.00146962981738,-0.00186015300284,0.000436761637193,"[0.0, 0.0, 0.0, 0.0, 0.0, 0.0, 0.0, 0.0, 0.0]",,0.011043042345,0.0251930506923,9.78659534991,"[0.0, 0.0, 0.0, 0.0, 0.0, 0.0, 0.0, 0.0, 0.0]"
1555425766374197206,,204,,1555425766,373903090,"""cf6/base_link""",,0.0,0.0,0.0,0.0,"[-1.0, 0.0, 0.0, 0.0, 0.0, 0.0, 0.0, 0.0, 0.0]",,0.00181799742543,0.000770859714735,-0.000610493334514,"[0.0, 0.0, 0.0, 0.0, 0.0, 0.0, 0.0, 0.0, 0.0]",,0.000333451176994,0.0185601611179,9.79943174243,"[0.0, 0.0, 0.0, 0.0, 0.0, 0.0, 0.0, 0.0, 0.0]"
1555425766381431815,,205,,1555425766,381053799,"""cf6/base_link""",,0.0,0.0,0.0,0.0,"[-1.0, 0.0, 0.0, 0.0, 0.0, 0.0, 0.0, 0.0, 0.0]",,-0.00143736356618,3.74382731051e-06,0.00100345127079,"[0.0, 0.0, 0.0, 0.0, 0.0, 0.0, 0.0, 0.0, 0.0]",,0.00451490700943,0.0240623248089,9.80353181005,"[0.0, 0.0, 0.0, 0.0, 0.0, 0.0, 0.0, 0.0, 0.0]"
1555425766393861673,,206,,1555425766,393609526,"""cf6/base_link""",,0.0,0.0,0.0,0.0,"[-1.0, 0.0, 0.0, 0.0, 0.0, 0.0, 0.0, 0.0, 0.0]",,9.3197736028e-06,0.00122324320391,-0.000365944568774,"[0.0, 0.0, 0.0, 0.0, 0.0, 0.0, 0.0, 0.0, 0.0]",,0.0032017191613,0.0235153520457,9.80096780598,"[0.0, 0.0, 0.0, 0.0, 0.0, 0.0, 0.0, 0.0, 0.0]"
1555425766400939327,,207,,1555425766,400615668,"""cf6/base_link""",,0.0,0.0,0.0,0.0,"[-1.0, 0.0, 0.0, 0.0, 0.0, 0.0, 0.0, 0.0, 0.0]",,0.00101356946241,-0.00193904381861,-0.000881373422836,"[0.0, 0.0, 0.0, 0.0, 0.0, 0.0, 0.0, 0.0, 0.0]",,0.00475464513525,0.0252800737065,9.82131787062,"[0.0, 0.0, 0.0, 0.0, 0.0, 0.0, 0.0, 0.0, 0.0]"
1555425766413779795,,208,,1555425766,413335506,"""cf6/base_link""",,0.0,0.0,0.0,0.0,"[-1.0, 0.0, 0.0, 0.0, 0.0, 0.0, 0.0, 0.0, 0.0]",,0.000899307433098,0.000205118929805,0.00101054772385,"[0.0, 0.0, 0.0, 0.0, 0.0, 0.0, 0.0, 0.0, 0.0]",,0.0115822355705,0.0344364867965,9.80157182336,"[0.0, 0.0, 0.0, 0.0, 0.0, 0.0, 0.0, 0.0, 0.0]"
1555425766420750336,,209,,1555425766,420443050,"""cf6/base_link""",,0.0,0.0,0.0,0.0,"[-1.0, 0.0, 0.0, 0.0, 0.0, 0.0, 0.0, 0.0, 0.0]",,0.000710720647923,-0.000184602348984,-0.00136515588035,"[0.0, 0.0, 0.0, 0.0, 0.0, 0.0, 0.0, 0.0, 0.0]",,0.00886126003345,0.0163038702041,9.79567724526,"[0.0, 0.0, 0.0, 0.0, 0.0, 0.0, 0.0, 0.0, 0.0]"
1555425766433497689,,210,,1555425766,433159727,"""cf6/base_link""",,0.0,0.0,0.0,0.0,"[-1.0, 0.0, 0.0, 0.0, 0.0, 0.0, 0.0, 0.0, 0.0]",,0.000196917307158,-0.00148933135777,0.000694278684065,"[0.0, 0.0, 0.0, 0.0, 0.0, 0.0, 0.0, 0.0, 0.0]",,0.00948017981602,0.0331944262725,9.80925097167,"[0.0, 0.0, 0.0, 0.0, 0.0, 0.0, 0.0, 0.0, 0.0]"
1555425766441693780,,211,,1555425766,440441027,"""cf6/base_link""",,0.0,0.0,0.0,0.0,"[-1.0, 0.0, 0.0, 0.0, 0.0, 0.0, 0.0, 0.0, 0.0]",,0.00191451009725,0.00251196011919,-0.00145934179722,"[0.0, 0.0, 0.0, 0.0, 0.0, 0.0, 0.0, 0.0, 0.0]",,0.000326684695101,0.0416834025364,9.79381490707,"[0.0, 0.0, 0.0, 0.0, 0.0, 0.0, 0.0, 0.0, 0.0]"
1555425766457916121,,212,,1555425766,457571217,"""cf6/base_link""",,0.0,0.0,0.0,0.0,"[-1.0, 0.0, 0.0, 0.0, 0.0, 0.0, 0.0, 0.0, 0.0]",,0.00202557990928,-0.00172910948264,-0.00158889288091,"[0.0, 0.0, 0.0, 0.0, 0.0, 0.0, 0.0, 0.0, 0.0]",,0.0111594795948,0.0208730249852,9.808118366,"[0.0, 0.0, 0.0, 0.0, 0.0, 0.0, 0.0, 0.0, 0.0]"
1555425766465009204,,213,,1555425766,464645457,"""cf6/base_link""",,0.0,0.0,0.0,0.0,"[-1.0, 0.0, 0.0, 0.0, 0.0, 0.0, 0.0, 0.0, 0.0]",,0.00165634432748,-0.000881838370711,0.00023762246631,"[0.0, 0.0, 0.0, 0.0, 0.0, 0.0, 0.0, 0.0, 0.0]",,0.00637480009929,0.0323261809861,9.81287799954,"[0.0, 0.0, 0.0, 0.0, 0.0, 0.0, 0.0, 0.0, 0.0]"
1555425766473808323,,214,,1555425766,473492839,"""cf6/base_link""",,0.0,0.0,0.0,0.0,"[-1.0, 0.0, 0.0, 0.0, 0.0, 0.0, 0.0, 0.0, 0.0]",,0.00129976162169,-0.000253504668947,-0.000464763774769,"[0.0, 0.0, 0.0, 0.0, 0.0, 0.0, 0.0, 0.0, 0.0]",,0.0128633993492,0.0307235916518,9.80840721846,"[0.0, 0.0, 0.0, 0.0, 0.0, 0.0, 0.0, 0.0, 0.0]"
1555425766481097990,,215,,1555425766,480694549,"""cf6/base_link""",,0.0,0.0,0.0,0.0,"[-1.0, 0.0, 0.0, 0.0, 0.0, 0.0, 0.0, 0.0, 0.0]",,0.000477970056419,0.00146261184175,-0.000671470425819,"[0.0, 0.0, 0.0, 0.0, 0.0, 0.0, 0.0, 0.0, 0.0]",,0.00849912552279,0.0264858860616,9.8057186687,"[0.0, 0.0, 0.0, 0.0, 0.0, 0.0, 0.0, 0.0, 0.0]"
1555425766493830330,,216,,1555425766,493503119,"""cf6/base_link""",,0.0,0.0,0.0,0.0,"[-1.0, 0.0, 0.0, 0.0, 0.0, 0.0, 0.0, 0.0, 0.0]",,-0.000104292551441,0.00105421244755,-0.00195044898803,"[0.0, 0.0, 0.0, 0.0, 0.0, 0.0, 0.0, 0.0, 0.0]",,-0.00330515435053,0.0298408425297,9.79698117435,"[0.0, 0.0, 0.0, 0.0, 0.0, 0.0, 0.0, 0.0, 0.0]"
1555425766500836595,,217,,1555425766,500492466,"""cf6/base_link""",,0.0,0.0,0.0,0.0,"[-1.0, 0.0, 0.0, 0.0, 0.0, 0.0, 0.0, 0.0, 0.0]",,0.000539301954123,-0.000421773001173,0.000661978948303,"[0.0, 0.0, 0.0, 0.0, 0.0, 0.0, 0.0, 0.0, 0.0]",,0.00584852784988,0.0290013856441,9.81458070874,"[0.0, 0.0, 0.0, 0.0, 0.0, 0.0, 0.0, 0.0, 0.0]"
1555425766513285525,,218,,1555425766,512942163,"""cf6/base_link""",,0.0,0.0,0.0,0.0,"[-1.0, 0.0, 0.0, 0.0, 0.0, 0.0, 0.0, 0.0, 0.0]",,-0.00105305706736,-0.000454516261189,-0.0018300711159,"[0.0, 0.0, 0.0, 0.0, 0.0, 0.0, 0.0, 0.0, 0.0]",,0.0172800308804,0.0324796521245,9.79356172264,"[0.0, 0.0, 0.0, 0.0, 0.0, 0.0, 0.0, 0.0, 0.0]"
1555425766522110673,,219,,1555425766,521845870,"""cf6/base_link""",,0.0,0.0,0.0,0.0,"[-1.0, 0.0, 0.0, 0.0, 0.0, 0.0, 0.0, 0.0, 0.0]",,0.00146091043551,-0.000217595654209,0.00148819535312,"[0.0, 0.0, 0.0, 0.0, 0.0, 0.0, 0.0, 0.0, 0.0]",,-0.000875621114974,0.018707466413,9.78437574685,"[0.0, 0.0, 0.0, 0.0, 0.0, 0.0, 0.0, 0.0, 0.0]"
1555425766533895656,,220,,1555425766,532381183,"""cf6/base_link""",,0.0,0.0,0.0,0.0,"[-1.0, 0.0, 0.0, 0.0, 0.0, 0.0, 0.0, 0.0, 0.0]",,0.000344606413161,-0.000445338693382,0.00019392981713,"[0.0, 0.0, 0.0, 0.0, 0.0, 0.0, 0.0, 0.0, 0.0]",,-0.00302049744583,0.0258861810062,9.78002717257,"[0.0, 0.0, 0.0, 0.0, 0.0, 0.0, 0.0, 0.0, 0.0]"
1555425766541712318,,221,,1555425766,541381574,"""cf6/base_link""",,0.0,0.0,0.0,0.0,"[-1.0, 0.0, 0.0, 0.0, 0.0, 0.0, 0.0, 0.0, 0.0]",,-0.000238386288349,7.01066022531e-05,-0.000530591479805,"[0.0, 0.0, 0.0, 0.0, 0.0, 0.0, 0.0, 0.0, 0.0]",,0.0127565083641,0.0177885867516,9.78653687775,"[0.0, 0.0, 0.0, 0.0, 0.0, 0.0, 0.0, 0.0, 0.0]"
1555425766552374918,,222,,1555425766,552111929,"""cf6/base_link""",,0.0,0.0,0.0,0.0,"[-1.0, 0.0, 0.0, 0.0, 0.0, 0.0, 0.0, 0.0, 0.0]",,-7.68132770416e-05,-9.90370426237e-05,-0.000278501306348,"[0.0, 0.0, 0.0, 0.0, 0.0, 0.0, 0.0, 0.0, 0.0]",,0.00432556999818,0.0225390406209,9.77754561424,"[0.0, 0.0, 0.0, 0.0, 0.0, 0.0, 0.0, 0.0, 0.0]"
1555425766561373641,,223,,1555425766,561004537,"""cf6/base_link""",,0.0,0.0,0.0,0.0,"[-1.0, 0.0, 0.0, 0.0, 0.0, 0.0, 0.0, 0.0, 0.0]",,-0.000837839906633,-0.000888186719971,-0.000797357387358,"[0.0, 0.0, 0.0, 0.0, 0.0, 0.0, 0.0, 0.0, 0.0]",,0.00266404826747,0.0310098950844,9.77530086815,"[0.0, 0.0, 0.0, 0.0, 0.0, 0.0, 0.0, 0.0, 0.0]"
1555425766582267309,,224,,1555425766,581941032,"""cf6/base_link""",,0.0,0.0,0.0,0.0,"[-1.0, 0.0, 0.0, 0.0, 0.0, 0.0, 0.0, 0.0, 0.0]",,-0.00106983582746,-0.00112605459892,-0.00165116819823,"[0.0, 0.0, 0.0, 0.0, 0.0, 0.0, 0.0, 0.0, 0.0]",,0.000203663653192,0.0377764597745,9.79244665861,"[0.0, 0.0, 0.0, 0.0, 0.0, 0.0, 0.0, 0.0, 0.0]"
1555425766589354479,,225,,1555425766,589089889,"""cf6/base_link""",,0.0,0.0,0.0,0.0,"[-1.0, 0.0, 0.0, 0.0, 0.0, 0.0, 0.0, 0.0, 0.0]",,-0.000417482067391,-0.00040912688711,-0.00165951762436,"[0.0, 0.0, 0.0, 0.0, 0.0, 0.0, 0.0, 0.0, 0.0]",,0.00697028019873,0.0275025569787,9.78984523237,"[0.0, 0.0, 0.0, 0.0, 0.0, 0.0, 0.0, 0.0, 0.0]"
1555425766596616186,,226,,1555425766,596049292,"""cf6/base_link""",,0.0,0.0,0.0,0.0,"[-1.0, 0.0, 0.0, 0.0, 0.0, 0.0, 0.0, 0.0, 0.0]",,-0.00115377956228,-0.00105189538036,0.000338895766147,"[0.0, 0.0, 0.0, 0.0, 0.0, 0.0, 0.0, 0.0, 0.0]",,0.00573013886344,0.0288544081128,9.80203082979,"[0.0, 0.0, 0.0, 0.0, 0.0, 0.0, 0.0, 0.0, 0.0]"
1555425766603419395,,227,,1555425766,603162367,"""cf6/base_link""",,0.0,0.0,0.0,0.0,"[-1.0, 0.0, 0.0, 0.0, 0.0, 0.0, 0.0, 0.0, 0.0]",,0.000335685538714,-0.00011937963372,0.000517728366226,"[0.0, 0.0, 0.0, 0.0, 0.0, 0.0, 0.0, 0.0, 0.0]",,0.0156548543915,0.0372497489839,9.79195607722,"[0.0, 0.0, 0.0, 0.0, 0.0, 0.0, 0.0, 0.0, 0.0]"
1555425766612388678,,228,,1555425766,612115802,"""cf6/base_link""",,0.0,0.0,0.0,0.0,"[-1.0, 0.0, 0.0, 0.0, 0.0, 0.0, 0.0, 0.0, 0.0]",,-0.000238326194925,-0.00137219856304,0.000754612611565,"[0.0, 0.0, 0.0, 0.0, 0.0, 0.0, 0.0, 0.0, 0.0]",,0.00878109607729,0.0376154831867,9.8094901228,"[0.0, 0.0, 0.0, 0.0, 0.0, 0.0, 0.0, 0.0, 0.0]"
1555425766621332163,,229,,1555425766,620998775,"""cf6/base_link""",,0.0,0.0,0.0,0.0,"[-1.0, 0.0, 0.0, 0.0, 0.0, 0.0, 0.0, 0.0, 0.0]",,0.000785602027859,0.000209363635375,0.00018614198899,"[0.0, 0.0, 0.0, 0.0, 0.0, 0.0, 0.0, 0.0, 0.0]",,0.00472661704378,0.0259951516357,9.8075055778,"[0.0, 0.0, 0.0, 0.0, 0.0, 0.0, 0.0, 0.0, 0.0]"
1555425766633962031,,230,,1555425766,633509366,"""cf6/base_link""",,0.0,0.0,0.0,0.0,"[-1.0, 0.0, 0.0, 0.0, 0.0, 0.0, 0.0, 0.0, 0.0]",,0.000773356753349,-0.000267053647285,0.00224391113495,"[0.0, 0.0, 0.0, 0.0, 0.0, 0.0, 0.0, 0.0, 0.0]",,-0.00209206623767,0.0201636024099,9.79696655631,"[0.0, 0.0, 0.0, 0.0, 0.0, 0.0, 0.0, 0.0, 0.0]"
1555425766642802173,,231,,1555425766,642526267,"""cf6/base_link""",,0.0,0.0,0.0,0.0,"[-1.0, 0.0, 0.0, 0.0, 0.0, 0.0, 0.0, 0.0, 0.0]",,-0.000646451080679,-0.00173577856856,-0.000280014646337,"[0.0, 0.0, 0.0, 0.0, 0.0, 0.0, 0.0, 0.0, 0.0]",,0.00344977643603,0.0120000453957,9.80196241736,"[0.0, 0.0, 0.0, 0.0, 0.0, 0.0, 0.0, 0.0, 0.0]"
1555425766653661114,,232,,1555425766,653169426,"""cf6/base_link""",,0.0,0.0,0.0,0.0,"[-1.0, 0.0, 0.0, 0.0, 0.0, 0.0, 0.0, 0.0, 0.0]",,0.000481070987617,0.00233594961812,-0.00185507401134,"[0.0, 0.0, 0.0, 0.0, 0.0, 0.0, 0.0, 0.0, 0.0]",,-0.00350558736711,0.03894533874,9.79485746562,"[0.0, 0.0, 0.0, 0.0, 0.0, 0.0, 0.0, 0.0, 0.0]"
1555425766660721961,,233,,1555425766,660341713,"""cf6/base_link""",,0.0,0.0,0.0,0.0,"[-1.0, 0.0, 0.0, 0.0, 0.0, 0.0, 0.0, 0.0, 0.0]",,0.00193272401251,-0.00160834240928,0.000932040907816,"[0.0, 0.0, 0.0, 0.0, 0.0, 0.0, 0.0, 0.0, 0.0]",,0.000383418568344,0.0313403815404,9.82086061835,"[0.0, 0.0, 0.0, 0.0, 0.0, 0.0, 0.0, 0.0, 0.0]"
1555425766673338156,,234,,1555425766,673020995,"""cf6/base_link""",,0.0,0.0,0.0,0.0,"[-1.0, 0.0, 0.0, 0.0, 0.0, 0.0, 0.0, 0.0, 0.0]",,0.000845222181373,0.000936938367434,-0.00276021640698,"[0.0, 0.0, 0.0, 0.0, 0.0, 0.0, 0.0, 0.0, 0.0]",,0.0188685001025,0.0303223127732,9.82229786396,"[0.0, 0.0, 0.0, 0.0, 0.0, 0.0, 0.0, 0.0, 0.0]"
1555425766680575626,,235,,1555425766,680150732,"""cf6/base_link""",,0.0,0.0,0.0,0.0,"[-1.0, 0.0, 0.0, 0.0, 0.0, 0.0, 0.0, 0.0, 0.0]",,-0.00117760484117,8.21431996257e-05,0.0025619919175,"[0.0, 0.0, 0.0, 0.0, 0.0, 0.0, 0.0, 0.0, 0.0]",,0.0189712637756,0.0210147994081,9.81371882915,"[0.0, 0.0, 0.0, 0.0, 0.0, 0.0, 0.0, 0.0, 0.0]"
1555425766693021166,,236,,1555425766,692689192,"""cf6/base_link""",,0.0,0.0,0.0,0.0,"[-1.0, 0.0, 0.0, 0.0, 0.0, 0.0, 0.0, 0.0, 0.0]",,-6.60385440403e-05,0.000816808541196,-0.00195059749047,"[0.0, 0.0, 0.0, 0.0, 0.0, 0.0, 0.0, 0.0, 0.0]",,-0.0113416831743,0.0252736029401,9.8118138063,"[0.0, 0.0, 0.0, 0.0, 0.0, 0.0, 0.0, 0.0, 0.0]"
1555425766701841773,,237,,1555425766,701509069,"""cf6/base_link""",,0.0,0.0,0.0,0.0,"[-1.0, 0.0, 0.0, 0.0, 0.0, 0.0, 0.0, 0.0, 0.0]",,0.00103151140494,-0.000449054602831,0.000112675193946,"[0.0, 0.0, 0.0, 0.0, 0.0, 0.0, 0.0, 0.0, 0.0]",,-0.00936571257538,0.0375085156853,9.80452700615,"[0.0, 0.0, 0.0, 0.0, 0.0, 0.0, 0.0, 0.0, 0.0]"
1555425766717060932,,238,,1555425766,716739865,"""cf6/base_link""",,0.0,0.0,0.0,0.0,"[-1.0, 0.0, 0.0, 0.0, 0.0, 0.0, 0.0, 0.0, 0.0]",,-0.00143852531819,-0.00288105161981,-0.00137525391621,"[0.0, 0.0, 0.0, 0.0, 0.0, 0.0, 0.0, 0.0, 0.0]",,-0.00775003895396,0.0212752357638,9.80912233293,"[0.0, 0.0, 0.0, 0.0, 0.0, 0.0, 0.0, 0.0, 0.0]"
1555425766724026060,,239,,1555425766,723790929,"""cf6/base_link""",,0.0,0.0,0.0,0.0,"[-1.0, 0.0, 0.0, 0.0, 0.0, 0.0, 0.0, 0.0, 0.0]",,0.000589236484636,0.000644248966349,-0.00119166979072,"[0.0, 0.0, 0.0, 0.0, 0.0, 0.0, 0.0, 0.0, 0.0]",,-0.00417956947727,0.0250097496179,9.80362302661,"[0.0, 0.0, 0.0, 0.0, 0.0, 0.0, 0.0, 0.0, 0.0]"
1555425766733028593,,240,,1555425766,732572067,"""cf6/base_link""",,0.0,0.0,0.0,0.0,"[-1.0, 0.0, 0.0, 0.0, 0.0, 0.0, 0.0, 0.0, 0.0]",,-0.000781336938963,-0.00037935913745,0.000823304547653,"[0.0, 0.0, 0.0, 0.0, 0.0, 0.0, 0.0, 0.0, 0.0]",,0.000376634170789,0.0384182579303,9.81177404523,"[0.0, 0.0, 0.0, 0.0, 0.0, 0.0, 0.0, 0.0, 0.0]"
1555425766741567027,,241,,1555425766,741373337,"""cf6/base_link""",,0.0,0.0,0.0,0.0,"[-1.0, 0.0, 0.0, 0.0, 0.0, 0.0, 0.0, 0.0, 0.0]",,0.00114815831582,0.000813749937094,0.0019376728368,"[0.0, 0.0, 0.0, 0.0, 0.0, 0.0, 0.0, 0.0, 0.0]",,0.0118482244969,0.030781689221,9.80925389528,"[0.0, 0.0, 0.0, 0.0, 0.0, 0.0, 0.0, 0.0, 0.0]"
1555425766752054239,,242,,1555425766,751807582,"""cf6/base_link""",,0.0,0.0,0.0,0.0,"[-1.0, 0.0, 0.0, 0.0, 0.0, 0.0, 0.0, 0.0, 0.0]",,-0.000205518647788,0.000715897232311,0.00047610610373,"[0.0, 0.0, 0.0, 0.0, 0.0, 0.0, 0.0, 0.0, 0.0]",,0.0100721578673,0.0374981254572,9.81206523657,"[0.0, 0.0, 0.0, 0.0, 0.0, 0.0, 0.0, 0.0, 0.0]"
1555425766760810535,,243,,1555425766,760589578,"""cf6/base_link""",,0.0,0.0,0.0,0.0,"[-1.0, 0.0, 0.0, 0.0, 0.0, 0.0, 0.0, 0.0, 0.0]",,3.03733571087e-05,0.00172602422092,0.000820146660178,"[0.0, 0.0, 0.0, 0.0, 0.0, 0.0, 0.0, 0.0, 0.0]",,-2.25648870878e-05,0.0321923048724,9.81959878922,"[0.0, 0.0, 0.0, 0.0, 0.0, 0.0, 0.0, 0.0, 0.0]"
1555425766773076905,,244,,1555425766,772791748,"""cf6/base_link""",,0.0,0.0,0.0,0.0,"[-1.0, 0.0, 0.0, 0.0, 0.0, 0.0, 0.0, 0.0, 0.0]",,0.000691997767215,-3.1565615025e-05,0.00148176241469,"[0.0, 0.0, 0.0, 0.0, 0.0, 0.0, 0.0, 0.0, 0.0]",,-0.00343040867621,0.0354905798938,9.80820607424,"[0.0, 0.0, 0.0, 0.0, 0.0, 0.0, 0.0, 0.0, 0.0]"
1555425766784053406,,245,,1555425766,783754885,"""cf6/base_link""",,0.0,0.0,0.0,0.0,"[-1.0, 0.0, 0.0, 0.0, 0.0, 0.0, 0.0, 0.0, 0.0]",,6.50944579851e-05,-0.000530813680806,-0.000562317686662,"[0.0, 0.0, 0.0, 0.0, 0.0, 0.0, 0.0, 0.0, 0.0]",,-0.000835902946201,0.0275711018778,9.79291911364,"[0.0, 0.0, 0.0, 0.0, 0.0, 0.0, 0.0, 0.0, 0.0]"
1555425766792572300,,246,,1555425766,792291603,"""cf6/base_link""",,0.0,0.0,0.0,0.0,"[-1.0, 0.0, 0.0, 0.0, 0.0, 0.0, 0.0, 0.0, 0.0]",,-9.24205486075e-05,-0.000424823087841,-0.00198287830582,"[0.0, 0.0, 0.0, 0.0, 0.0, 0.0, 0.0, 0.0, 0.0]",,0.00934012929385,0.0267313868925,9.78113755882,"[0.0, 0.0, 0.0, 0.0, 0.0, 0.0, 0.0, 0.0, 0.0]"
1555425766801332180,,247,,1555425766,801029729,"""cf6/base_link""",,0.0,0.0,0.0,0.0,"[-1.0, 0.0, 0.0, 0.0, 0.0, 0.0, 0.0, 0.0, 0.0]",,0.000794939606394,0.000229960611671,-0.00031152154552,"[0.0, 0.0, 0.0, 0.0, 0.0, 0.0, 0.0, 0.0, 0.0]",,0.00419536952191,0.028302990552,9.78537386656,"[0.0, 0.0, 0.0, 0.0, 0.0, 0.0, 0.0, 0.0, 0.0]"
1555425766813757308,,248,,1555425766,813551191,"""cf6/base_link""",,0.0,0.0,0.0,0.0,"[-1.0, 0.0, 0.0, 0.0, 0.0, 0.0, 0.0, 0.0, 0.0]",,0.00144959356133,-0.000621066981298,0.000227971693269,"[0.0, 0.0, 0.0, 0.0, 0.0, 0.0, 0.0, 0.0, 0.0]",,0.0074007266335,0.0283826565812,9.78376588225,"[0.0, 0.0, 0.0, 0.0, 0.0, 0.0, 0.0, 0.0, 0.0]"
1555425766820641761,,249,,1555425766,820376612,"""cf6/base_link""",,0.0,0.0,0.0,0.0,"[-1.0, 0.0, 0.0, 0.0, 0.0, 0.0, 0.0, 0.0, 0.0]",,0.000166198644491,0.000872951891093,0.000544787279244,"[0.0, 0.0, 0.0, 0.0, 0.0, 0.0, 0.0, 0.0, 0.0]",,0.0316874754592,0.030328198818,9.79926626623,"[0.0, 0.0, 0.0, 0.0, 0.0, 0.0, 0.0, 0.0, 0.0]"
1555425766841040727,,250,,1555425766,840852629,"""cf6/base_link""",,0.0,0.0,0.0,0.0,"[-1.0, 0.0, 0.0, 0.0, 0.0, 0.0, 0.0, 0.0, 0.0]",,0.000441820505439,0.00115408788039,0.00129710483242,"[0.0, 0.0, 0.0, 0.0, 0.0, 0.0, 0.0, 0.0, 0.0]",,0.00361715412611,0.0237599735102,9.8182480824,"[0.0, 0.0, 0.0, 0.0, 0.0, 0.0, 0.0, 0.0, 0.0]"
1555425766848122776,,251,,1555425766,847897968,"""cf6/base_link""",,0.0,0.0,0.0,0.0,"[-1.0, 0.0, 0.0, 0.0, 0.0, 0.0, 0.0, 0.0, 0.0]",,-0.00312167654668,0.00034627784583,-0.000875903734684,"[0.0, 0.0, 0.0, 0.0, 0.0, 0.0, 0.0, 0.0, 0.0]",,0.00274570771755,0.0277793815266,9.80421768844,"[0.0, 0.0, 0.0, 0.0, 0.0, 0.0, 0.0, 0.0, 0.0]"
1555425766854946410,,252,,1555425766,854723799,"""cf6/base_link""",,0.0,0.0,0.0,0.0,"[-1.0, 0.0, 0.0, 0.0, 0.0, 0.0, 0.0, 0.0, 0.0]",,-0.000336019474147,-0.000787552520279,-0.00119511837627,"[0.0, 0.0, 0.0, 0.0, 0.0, 0.0, 0.0, 0.0, 0.0]",,0.0149683056213,0.023362467913,9.79728639901,"[0.0, 0.0, 0.0, 0.0, 0.0, 0.0, 0.0, 0.0, 0.0]"
1555425766861893508,,253,,1555425766,861677852,"""cf6/base_link""",,0.0,0.0,0.0,0.0,"[-1.0, 0.0, 0.0, 0.0, 0.0, 0.0, 0.0, 0.0, 0.0]",,0.000298620038469,-0.000261465966663,1.1026726736e-05,"[0.0, 0.0, 0.0, 0.0, 0.0, 0.0, 0.0, 0.0, 0.0]",,0.0203784213471,0.0291612293338,9.79141754866,"[0.0, 0.0, 0.0, 0.0, 0.0, 0.0, 0.0, 0.0, 0.0]"
1555425766872381128,,254,,1555425766,872113813,"""cf6/base_link""",,0.0,0.0,0.0,0.0,"[-1.0, 0.0, 0.0, 0.0, 0.0, 0.0, 0.0, 0.0, 0.0]",,-0.00100436861795,-0.00144704288238,2.98697292735e-06,"[0.0, 0.0, 0.0, 0.0, 0.0, 0.0, 0.0, 0.0, 0.0]",,0.00809002656431,0.0418186879205,9.80202088952,"[0.0, 0.0, 0.0, 0.0, 0.0, 0.0, 0.0, 0.0, 0.0]"
1555425766881153733,,255,,1555425766,880909052,"""cf6/base_link""",,0.0,0.0,0.0,0.0,"[-1.0, 0.0, 0.0, 0.0, 0.0, 0.0, 0.0, 0.0, 0.0]",,0.00160645075868,0.00128959661668,-0.00123608827483,"[0.0, 0.0, 0.0, 0.0, 0.0, 0.0, 0.0, 0.0, 0.0]",,-0.000781243613965,0.0493071028031,9.80149639428,"[0.0, 0.0, 0.0, 0.0, 0.0, 0.0, 0.0, 0.0, 0.0]"
1555425766895886854,,256,,1555425766,895667321,"""cf6/base_link""",,0.0,0.0,0.0,0.0,"[-1.0, 0.0, 0.0, 0.0, 0.0, 0.0, 0.0, 0.0, 0.0]",,-0.00109061401055,0.000736648302644,0.00144839188791,"[0.0, 0.0, 0.0, 0.0, 0.0, 0.0, 0.0, 0.0, 0.0]",,0.00783283472818,0.0320152004762,9.80143558323,"[0.0, 0.0, 0.0, 0.0, 0.0, 0.0, 0.0, 0.0, 0.0]"
1555425766902875292,,257,,1555425766,902546216,"""cf6/base_link""",,0.0,0.0,0.0,0.0,"[-1.0, 0.0, 0.0, 0.0, 0.0, 0.0, 0.0, 0.0, 0.0]",,-1.93449602079e-05,0.000169276526602,-0.000163929739824,"[0.0, 0.0, 0.0, 0.0, 0.0, 0.0, 0.0, 0.0, 0.0]",,-0.000276958290833,0.0239261532063,9.8082809186,"[0.0, 0.0, 0.0, 0.0, 0.0, 0.0, 0.0, 0.0, 0.0]"
1555425766914037044,,258,,1555425766,913240003,"""cf6/base_link""",,0.0,0.0,0.0,0.0,"[-1.0, 0.0, 0.0, 0.0, 0.0, 0.0, 0.0, 0.0, 0.0]",,-0.00087735579466,-0.000329992999374,-0.00136960198098,"[0.0, 0.0, 0.0, 0.0, 0.0, 0.0, 0.0, 0.0, 0.0]",,-0.00332177009317,0.0188162817259,9.81922573686,"[0.0, 0.0, 0.0, 0.0, 0.0, 0.0, 0.0, 0.0, 0.0]"
1555425766920504976,,259,,1555425766,920239458,"""cf6/base_link""",,0.0,0.0,0.0,0.0,"[-1.0, 0.0, 0.0, 0.0, 0.0, 0.0, 0.0, 0.0, 0.0]",,-9.33970545527e-05,-0.00104878424125,0.000663579705774,"[0.0, 0.0, 0.0, 0.0, 0.0, 0.0, 0.0, 0.0, 0.0]",,0.00414401595073,0.014344568738,9.80564207017,"[0.0, 0.0, 0.0, 0.0, 0.0, 0.0, 0.0, 0.0, 0.0]"
1555425766932933659,,260,,1555425766,932695612,"""cf6/base_link""",,0.0,0.0,0.0,0.0,"[-1.0, 0.0, 0.0, 0.0, 0.0, 0.0, 0.0, 0.0, 0.0]",,0.000895124072558,0.000807870956973,0.00183064887102,"[0.0, 0.0, 0.0, 0.0, 0.0, 0.0, 0.0, 0.0, 0.0]",,-0.00246393730456,0.0316976715415,9.79193210363,"[0.0, 0.0, 0.0, 0.0, 0.0, 0.0, 0.0, 0.0, 0.0]"
1555425766941773346,,261,,1555425766,941564621,"""cf6/base_link""",,0.0,0.0,0.0,0.0,"[-1.0, 0.0, 0.0, 0.0, 0.0, 0.0, 0.0, 0.0, 0.0]",,-0.000240839845788,0.000840873283525,0.000782573202267,"[0.0, 0.0, 0.0, 0.0, 0.0, 0.0, 0.0, 0.0, 0.0]",,-0.00366731255839,0.0429151550587,9.79473818243,"[0.0, 0.0, 0.0, 0.0, 0.0, 0.0, 0.0, 0.0, 0.0]"
1555425766952292571,,262,,1555425766,952027666,"""cf6/base_link""",,0.0,0.0,0.0,0.0,"[-1.0, 0.0, 0.0, 0.0, 0.0, 0.0, 0.0, 0.0, 0.0]",,0.001147004236,0.000828198691324,-0.00045715367492,"[0.0, 0.0, 0.0, 0.0, 0.0, 0.0, 0.0, 0.0, 0.0]",,-0.0126866227167,0.0359529690281,9.79983110726,"[0.0, 0.0, 0.0, 0.0, 0.0, 0.0, 0.0, 0.0, 0.0]"
1555425766971054104,,263,,1555425766,970804311,"""cf6/base_link""",,0.0,0.0,0.0,0.0,"[-1.0, 0.0, 0.0, 0.0, 0.0, 0.0, 0.0, 0.0, 0.0]",,-0.00112253345263,0.000251070649592,-0.00152409549282,"[0.0, 0.0, 0.0, 0.0, 0.0, 0.0, 0.0, 0.0, 0.0]",,0.00216870287812,0.0143544633233,9.80319851875,"[0.0, 0.0, 0.0, 0.0, 0.0, 0.0, 0.0, 0.0, 0.0]"
1555425766977975834,,264,,1555425766,977767112,"""cf6/base_link""",,0.0,0.0,0.0,0.0,"[-1.0, 0.0, 0.0, 0.0, 0.0, 0.0, 0.0, 0.0, 0.0]",,-0.000559695422259,0.00162200190295,0.00174191268159,"[0.0, 0.0, 0.0, 0.0, 0.0, 0.0, 0.0, 0.0, 0.0]",,0.00537747238821,0.0204287439468,9.7945586729,"[0.0, 0.0, 0.0, 0.0, 0.0, 0.0, 0.0, 0.0, 0.0]"
1555425766985069573,,265,,1555425766,984843419,"""cf6/base_link""",,0.0,0.0,0.0,0.0,"[-1.0, 0.0, 0.0, 0.0, 0.0, 0.0, 0.0, 0.0, 0.0]",,0.000402483808622,0.000882265802864,-0.000312817885994,"[0.0, 0.0, 0.0, 0.0, 0.0, 0.0, 0.0, 0.0, 0.0]",,-0.00423858838272,0.0231153842225,9.8062121737,"[0.0, 0.0, 0.0, 0.0, 0.0, 0.0, 0.0, 0.0, 0.0]"
1555425766993974287,,266,,1555425766,993746396,"""cf6/base_link""",,0.0,0.0,0.0,0.0,"[-1.0, 0.0, 0.0, 0.0, 0.0, 0.0, 0.0, 0.0, 0.0]",,0.000658502209705,-0.00165020670345,0.00236406261238,"[0.0, 0.0, 0.0, 0.0, 0.0, 0.0, 0.0, 0.0, 0.0]",,0.00216598497922,0.0257490889239,9.81177170634,"[0.0, 0.0, 0.0, 0.0, 0.0, 0.0, 0.0, 0.0, 0.0]"
1555425767000736760,,267,,1555425767,539229,"""cf6/base_link""",,0.0,0.0,0.0,0.0,"[-1.0, 0.0, 0.0, 0.0, 0.0, 0.0, 0.0, 0.0, 0.0]",,0.000416931880156,0.000555497042428,-0.000974439719738,"[0.0, 0.0, 0.0, 0.0, 0.0, 0.0, 0.0, 0.0, 0.0]",,0.0109775386832,0.0369300319115,9.79588189781,"[0.0, 0.0, 0.0, 0.0, 0.0, 0.0, 0.0, 0.0, 0.0]"
1555425767013196027,,268,,1555425767,12948444,"""cf6/base_link""",,0.0,0.0,0.0,0.0,"[-1.0, 0.0, 0.0, 0.0, 0.0, 0.0, 0.0, 0.0, 0.0]",,0.00138008089569,0.000394856348812,0.00185372786663,"[0.0, 0.0, 0.0, 0.0, 0.0, 0.0, 0.0, 0.0, 0.0]",,0.00422025102336,0.0264065809152,9.80676298141,"[0.0, 0.0, 0.0, 0.0, 0.0, 0.0, 0.0, 0.0, 0.0]"
1555425767021887784,,269,,1555425767,21618905,"""cf6/base_link""",,0.0,0.0,0.0,0.0,"[-1.0, 0.0, 0.0, 0.0, 0.0, 0.0, 0.0, 0.0, 0.0]",,0.000461753089362,-0.000874779758469,0.000638171809592,"[0.0, 0.0, 0.0, 0.0, 0.0, 0.0, 0.0, 0.0, 0.0]",,0.00470623715606,0.0210339855845,9.80305233836,"[0.0, 0.0, 0.0, 0.0, 0.0, 0.0, 0.0, 0.0, 0.0]"
1555425767032475383,,270,,1555425767,32246340,"""cf6/base_link""",,0.0,0.0,0.0,0.0,"[-1.0, 0.0, 0.0, 0.0, 0.0, 0.0, 0.0, 0.0, 0.0]",,0.000163925090995,-0.000899827776804,0.000563333146865,"[0.0, 0.0, 0.0, 0.0, 0.0, 0.0, 0.0, 0.0, 0.0]",,0.00787344603916,0.0204959138366,9.78097266734,"[0.0, 0.0, 0.0, 0.0, 0.0, 0.0, 0.0, 0.0, 0.0]"
