rosbagTimestamp,header,seq,stamp,secs,nsecs,frame_id,pose,position,x,y,z,orientation,x,y,z,w
1555426869125145425,,0,,1555426869,124741649,"""world""",,,0.155151322484,-0.0465792864561,0.0809772089124,,-0.00491100270301,0.00315829529427,-0.019155189395,-0.99979954958
1555426869125383810,,1,,1555426869,124999647,"""world""",,,0.155150637031,-0.0466660410166,0.0809113308787,,-0.00593177834526,0.0034360953141,-0.0192176327109,-0.999791800976
1555426869134671720,,2,,1555426869,134313078,"""world""",,,0.155146300793,-0.0465802960098,0.0809713453054,,-0.00478671491146,0.00312852533534,-0.0190949756652,-0.999801337719
1555426869144834985,,3,,1555426869,144620184,"""world""",,,0.155157402158,-0.0465743727982,0.0809708759189,,-0.0047919084318,0.00313912145793,-0.0192678011954,-0.999797940254
1555426869154172141,,4,,1555426869,153948008,"""world""",,,0.155157610774,-0.046597506851,0.0809716433287,,-0.00491131702438,0.00303162378259,-0.0192000772804,-0.999799013138
1555426869164378295,,5,,1555426869,164177548,"""world""",,,0.155153408647,-0.046592283994,0.0809679850936,,-0.00486760679632,0.00320240925066,-0.0192735344172,-0.999797344208
1555426869174871659,,6,,1555426869,174634962,"""world""",,,0.15515846014,-0.0465843752027,0.08098179847,,-0.00480297626927,0.0031736374367,-0.0193664822727,-0.999795973301
1555426869174888878,,7,,1555426869,174675434,"""world""",,,0.155150532722,-0.0465783700347,0.0809773355722,,-0.00485799415037,0.00310126272961,-0.0190648809075,-0.999801635742
1555426869184070823,,8,,1555426869,183942781,"""world""",,,0.155162647367,-0.0466797538102,0.0809217020869,,-0.00600105617195,0.00357208936475,-0.0192151386291,-0.999790966511
1555426869194608069,,9,,1555426869,194343480,"""world""",,,0.155165821314,-0.0466821193695,0.080925039947,,-0.0059373928234,0.00353884883225,-0.0192136578262,-0.999791502953
1555426869204879929,,10,,1555426869,204701548,"""world""",,,0.155141711235,-0.0466015823185,0.080973342061,,-0.00490178680047,0.00332480738871,-0.0191729404032,-0.999798715115
1555426869214075874,,11,,1555426869,213939428,"""world""",,,0.155154004693,-0.0465766601264,0.0809690058231,,-0.00504623120651,0.00336338905618,-0.0191316287965,-0.999798595905
1555426869224511540,,12,,1555426869,224273393,"""world""",,,0.15517115593,-0.0466724969447,0.0808932334185,,-0.00585181033239,0.00344648002647,-0.019121536985,-0.999794185162
1555426869224530672,,13,,1555426869,224310667,"""world""",,,0.155155450106,-0.0466514602304,0.0809170454741,,-0.00591425877064,0.00349203776568,-0.0192326363176,-0.999791443348
1555426869234764485,,14,,1555426869,234566118,"""world""",,,0.155130460858,-0.0465760417283,0.0809788182378,,-0.00502972491086,0.00321531994268,-0.019161824137,-0.999798595905
1555426869244267526,,15,,1555426869,243983184,"""world""",,,0.155157014728,-0.0466816313565,0.0808901786804,,-0.00600403454155,0.00342602911405,-0.0191374476999,-0.999792993069
1555426869254457244,,16,,1555426869,254276821,"""world""",,,0.15516769886,-0.0466742105782,0.0808955654502,,-0.00601505488157,0.00358681892976,-0.0191763397306,-0.999791622162
1555426869264772051,,17,,1555426869,264613485,"""world""",,,0.155135169625,-0.0465822592378,0.0809697583318,,-0.00509621948004,0.00331759569235,-0.0190747957677,-0.99979954958
1555426869274205961,,18,,1555426869,273951531,"""world""",,,0.155150532722,-0.0466721989214,0.0808930248022,,-0.0059757148847,0.00357796042226,-0.0190445706248,-0.99979442358
1555426869274234678,,19,,1555426869,273991015,"""world""",,,0.155157268047,-0.0466491989791,0.0809081345797,,-0.00602826569229,0.00340250437148,-0.0191938132048,-0.99979186058
1555426869284421715,,20,,1555426869,284276921,"""world""",,,0.1551425457,-0.046579644084,0.0809785425663,,-0.00498241512105,0.00324439769611,-0.0192918982357,-0.999796271324
1555426869295019542,,21,,1555426869,294709153,"""world""",,,0.155127078295,-0.0465890094638,0.0809604749084,,-0.00514401309192,0.00329542835243,-0.0190375018865,-0.999800145626
1555426869304350645,,22,,1555426869,304115328,"""world""",,,0.155155524611,-0.0466968305409,0.0809010267258,,-0.00599056156352,0.00359576707706,-0.0191711708903,-0.99979186058
1555426869314796183,,23,,1555426869,314519638,"""world""",,,0.155161902308,-0.0466644205153,0.0809109956026,,-0.00593035900965,0.00358505290933,-0.0192341636866,-0.999791026115
1555426869324180934,,24,,1555426869,323919128,"""world""",,,0.155150488019,-0.0465709976852,0.0809821933508,,-0.00478877173737,0.003206145484,-0.0191139318049,-0.999800682068
1555426869334568959,,25,,1555426869,334288008,"""world""",,,0.155184209347,-0.0466767214239,0.0808990821242,,-0.00583503395319,0.00345409102738,-0.0191641990095,-0.999793410301
1555426869334594324,,26,,1555426869,334348503,"""world""",,,0.155158728361,-0.0466706007719,0.080904789269,,-0.00574571825564,0.00331246480346,-0.0191484279931,-0.999794721603
1555426869343922305,,27,,1555426869,343719272,"""world""",,,0.155148178339,-0.0465683862567,0.0809889137745,,-0.00478976918384,0.00297260493971,-0.0191675852984,-0.999800384045
1555426869354219542,,28,,1555426869,354011347,"""world""",,,0.155170157552,-0.0466620437801,0.0809049457312,,-0.00593084376305,0.00349644012749,-0.0191070027649,-0.999793767929
1555426869364533641,,29,,1555426869,364320391,"""world""",,,0.155171811581,-0.0466589555144,0.0809178799391,,-0.00584611203521,0.00349102262408,-0.0192289333791,-0.999791920185
1555426869375037007,,30,,1555426869,374782156,"""world""",,,0.15514947474,-0.046578861773,0.0809743106365,,-0.00485769333318,0.00316991726868,-0.0191738903522,-0.99979943037
1555426869375141991,,31,,1555426869,374875030,"""world""",,,0.155132621527,-0.0465831570327,0.0809672549367,,-0.00484255701303,0.00316423573531,-0.0191271435469,-0.999800384045
1555426869384508701,,32,,1555426869,384264173,"""world""",,,0.155156418681,-0.0466925166547,0.080893792212,,-0.00596409942955,0.00355525780469,-0.0192216280848,-0.999791145325
1555426869394269954,,33,,1555426869,394007061,"""world""",,,0.155148774385,-0.0466032661498,0.0809741169214,,-0.00484428880736,0.00294969556853,-0.0191606916487,-0.99980032444
1555426869404579574,,34,,1555426869,404318143,"""world""",,,0.155161082745,-0.0465928092599,0.0809774696827,,-0.00488639669493,0.00315368035808,-0.0191844552755,-0.999799072742
1555426869414877199,,35,,1555426869,414660588,"""world""",,,0.15518078208,-0.0466782152653,0.0809252262115,,-0.00591253768653,0.00360055477358,-0.0192510597408,-0.999790728092
1555426869424198937,,36,,1555426869,423957881,"""world""",,,0.155168771744,-0.0466791018844,0.0809209793806,,-0.00582210812718,0.00351018342189,-0.0191982891411,-0.999792575836
1555426869424219985,,37,,1555426869,424004214,"""world""",,,0.155164659023,-0.046675696969,0.0809122100472,,-0.00598005205393,0.00359250814654,-0.019384752959,-0.999787807465
1555426869434878003,,38,,1555426869,434361524,"""world""",,,0.155142918229,-0.0465917438269,0.0809727534652,,-0.00492097949609,0.00304406508803,-0.0191526245326,-0.999799907207
1555426869444903588,,39,,1555426869,444641548,"""world""",,,0.155156075954,-0.0465938486159,0.0809672176838,,-0.00498959328979,0.00299357553013,-0.0191142689437,-0.999800443649
1555426869454328490,,40,,1555426869,454096578,"""world""",,,0.155161142349,-0.0465867631137,0.0809747800231,,-0.00491115171462,0.00303932628594,-0.019231332466,-0.999798417091
1555426869464635593,,41,,1555426869,464453856,"""world""",,,0.155149713159,-0.0466005019844,0.0809806734324,,-0.00490277586505,0.00304402410984,-0.0192217249423,-0.99979865551
1555426869473944873,,42,,1555426869,473702865,"""world""",,,0.155135259032,-0.0466076768935,0.0809560716152,,-0.00493591278791,0.0031719522085,-0.0190486665815,-0.999801337719
1555426869484361830,,43,,1555426869,484041888,"""world""",,,0.155151829123,-0.0466020852327,0.0809592306614,,-0.00516555132344,0.00315516698174,-0.019125290215,-0.999798834324
1555426869484387820,,44,,1555426869,484107598,"""world""",,,0.155153080821,-0.0466063469648,0.0809629112482,,-0.0048421160318,0.00304171047173,-0.0192740503699,-0.999797940254
1555426869494752652,,45,,1555426869,494477688,"""world""",,,0.155147656798,-0.0466081649065,0.0809655487537,,-0.00499068200588,0.00324173970148,-0.0192945171148,-0.999796152115
1555426869504207340,,46,,1555426869,503924757,"""world""",,,0.155168443918,-0.0466784350574,0.0809006690979,,-0.00608017155901,0.00367923034355,-0.0192384943366,-0.999789714813
1555426869514563285,,47,,1555426869,514310955,"""world""",,,0.155162140727,-0.0466833785176,0.0808980688453,,-0.00604920228943,0.00359419127926,-0.019184300676,-0.999791264534
1555426869524989845,,48,,1555426869,524696164,"""world""",,,0.155167162418,-0.0466740950942,0.0809027254581,,-0.0058556785807,0.00355384405702,-0.0192169584334,-0.99979186058
1555426869525012416,,49,,1555426869,524764589,"""world""",,,0.155159205198,-0.0466131940484,0.0809644907713,,-0.00497129699215,0.00329500762746,-0.0192127302289,-0.999797701836
1555426869534383063,,50,,1555426869,534155550,"""world""",,,0.155149877071,-0.0465877763927,0.0809754505754,,-0.0049164337106,0.00311101973057,-0.0192629285157,-0.999797582626
1555426869544704888,,51,,1555426869,544437264,"""world""",,,0.155146032572,-0.0465782918036,0.0809729099274,,-0.00497175380588,0.00315058184788,-0.0191609337926,-0.999799132347
1555426869554020294,,52,,1555426869,553722297,"""world""",,,0.155155107379,-0.0466884337366,0.0808823257685,,-0.00580096757039,0.00353775592521,-0.0193058159202,-0.999790608883
1555426869564296448,,53,,1555426869,564057486,"""world""",,,0.15514986217,-0.0466429367661,0.080896422267,,-0.00590116484091,0.00376511435024,-0.0190359428525,-0.999794304371
1555426869574692747,,54,,1555426869,574407129,"""world""",,,0.155152201653,-0.0465813614428,0.0809586793184,,-0.00483147613704,0.00300897331908,-0.0191838517785,-0.999799847603
1555426869574720342,,55,,1555426869,574454150,"""world""",,,0.155165687203,-0.0466662943363,0.0808921381831,,-0.00607088953257,0.00348490197212,-0.0191240739077,-0.999792635441
1555426869583965077,,56,,1555426869,583687835,"""world""",,,0.155153304338,-0.04659159109,0.0809694975615,,-0.00505352951586,0.00307134026662,-0.019249483943,-0.999797224998
1555426869594471898,,57,,1555426869,594215008,"""world""",,,0.155150547624,-0.0465732589364,0.0809718295932,,-0.00487355934456,0.00298663089052,-0.0190861560404,-0.999801516533
1555426869604819131,,58,,1555426869,604623978,"""world""",,,0.155169263482,-0.0466782189906,0.0808937251568,,-0.00605171266943,0.00352323753759,-0.0192509684712,-0.999790251255
1555426869614094636,,59,,1555426869,613893325,"""world""",,,0.155159845948,-0.0466925241053,0.080896794796,,-0.00604448420927,0.00369777181186,-0.0191589388996,-0.999791383743
1555426869624479828,,60,,1555426869,624209558,"""world""",,,0.15515422821,-0.046579670161,0.0809893682599,,-0.00506033096462,0.00344505114481,-0.0192432012409,-0.99979609251
1555426869624502790,,61,,1555426869,624256469,"""world""",,,0.155149638653,-0.0465855337679,0.0809639543295,,-0.00486666848883,0.00307806720957,-0.01909837313,-0.9998010993
1555426869634749699,,62,,1555426869,634542554,"""world""",,,0.155161291361,-0.0466515868902,0.0808769762516,,-0.00578583078459,0.00364193017595,-0.0190594214946,-0.999794960022
1555426869644142089,,63,,1555426869,643941892,"""world""",,,0.15514716506,-0.0465807728469,0.0809682384133,,-0.00498666800559,0.00313362712041,-0.0192006658763,-0.999798297882
1555426869654589053,,64,,1555426869,654347462,"""world""",,,0.155147090554,-0.0465818829834,0.0809775963426,,-0.00488566420972,0.0033126831986,-0.0191112738103,-0.999799966812
1555426869664919876,,65,,1555426869,664695341,"""world""",,,0.155160933733,-0.0466819256544,0.0808863639832,,-0.00586521020159,0.00341337127611,-0.018966358155,-0.999797105789
1555426869674514000,,66,,1555426869,674114097,"""world""",,,0.155170544982,-0.0466695055366,0.0809175744653,,-0.00601531891152,0.00351764215156,-0.0191727224737,-0.99979197979
1555426869674527256,,67,,1555426869,674171671,"""world""",,,0.155156984925,-0.0465765483677,0.0809900611639,,-0.00480132270604,0.00327427615412,-0.0192015673965,-0.999798834324
1555426869684695828,,68,,1555426869,684477950,"""world""",,,0.155168533325,-0.0466654375196,0.0809103623033,,-0.00602257996798,0.00364515534602,-0.0190871581435,-0.999793112278
1555426869694026874,,69,,1555426869,693767091,"""world""",,,0.155161768198,-0.0466891750693,0.0809089168906,,-0.00598126417026,0.00353494961746,-0.0190757103264,-0.999793887138
1555426869704401759,,70,,1555426869,704176249,"""world""",,,0.155158907175,-0.0465874522924,0.0809804946184,,-0.0049519254826,0.0031497287564,-0.0191984567791,-0.999798476696
1555426869714784381,,71,,1555426869,714501650,"""world""",,,0.15514819324,-0.04659095034,0.080976434052,,-0.00502715958282,0.0033695618622,-0.0191173404455,-0.999798893929
1555426869724063653,,72,,1555426869,723834761,"""world""",,,0.155160874128,-0.0466722771525,0.0809002667665,,-0.00594240333885,0.00353876128793,-0.0191558841616,-0.999792635441
1555426869734565648,,73,,1555426869,734355928,"""world""",,,0.155168011785,-0.0466675311327,0.0808998271823,,-0.00598035240546,0.00361447152682,-0.0193005017936,-0.999789357185
1555426869734757689,,74,,1555426869,734469788,"""world""",,,0.155149459839,-0.0465934537351,0.0809801891446,,-0.00496017094702,0.00327910785563,-0.0191675331444,-0.999798595905
1555426869744512135,,75,,1555426869,744217046,"""world""",,,0.155145660043,-0.0465881302953,0.0809564813972,,-0.00503614638001,0.00330573273823,-0.0191820971668,-0.999797821045
1555426869754831936,,76,,1555426869,754628291,"""world""",,,0.155149415135,-0.046678699553,0.0808843821287,,-0.00594588415697,0.00353112537414,-0.0191901624203,-0.999791920185
1555426869764229583,,77,,1555426869,763990194,"""world""",,,0.155157327652,-0.0466738529503,0.0809122696519,,-0.00587020488456,0.00362675148062,-0.0192088205367,-0.999791741371
1555426869774615614,,78,,1555426869,774359399,"""world""",,,0.155148163438,-0.0465974733233,0.0809747874737,,-0.00504365796223,0.00334082823247,-0.0191753767431,-0.99979788065
1555426869774645854,,79,,1555426869,774408752,"""world""",,,0.155159950256,-0.0466017015278,0.0809820592403,,-0.00489394273609,0.00312157347798,-0.0190364234149,-0.999801933765
1555426869784893547,,80,,1555426869,784675219,"""world""",,,0.155176967382,-0.0466752722859,0.0809068456292,,-0.00586971594021,0.00364259537309,-0.0189144331962,-0.999797284603
1555426869794313335,,81,,1555426869,794042398,"""world""",,,0.155173555017,-0.046673964709,0.0809374377131,,-0.00605067750439,0.0036934951786,-0.0192242879421,-0.999790132046
1555426869804743182,,82,,1555426869,804472791,"""world""",,,0.15514588356,-0.0465922765434,0.081001535058,,-0.00485579483211,0.00322560174391,-0.0191470123827,-0.999799728394
1555426869814053575,,83,,1555426869,813788421,"""world""",,,0.155162602663,-0.0466925613582,0.0809022113681,,-0.00598030351102,0.00352172693238,-0.0191656239331,-0.999792277813
1555426869824573524,,84,,1555426869,824150165,"""world""",,,0.155178233981,-0.0466764345765,0.0809303149581,,-0.00609260890633,0.00358728854917,-0.0191676728427,-0.999791324139
1555426869824605930,,85,,1555426869,824222741,"""world""",,,0.155148595572,-0.0465801171958,0.0809961184859,,-0.00484507484362,0.00329328142107,-0.0191358346492,-0.999799787998
1555426869834960440,,86,,1555426869,834622821,"""world""",,,0.155178904533,-0.0466800145805,0.0808961838484,,-0.00585481990129,0.00348263606429,-0.0190076380968,-0.999796152115
1555426869844536985,,87,,1555426869,844048880,"""world""",,,0.155182704329,-0.0466883778572,0.0808920636773,,-0.00603434722871,0.00367277278565,-0.0192087255418,-0.999790608883
1555426869855040659,,88,,1555426869,854649662,"""world""",,,0.15514613688,-0.0465872846544,0.0809988081455,,-0.00486165098846,0.00302924052812,-0.0190634969622,-0.999801874161
1555426869864619464,,89,,1555426869,864296195,"""world""",,,0.155151203275,-0.0466608889401,0.0809250250459,,-0.00593788409606,0.00385888945311,-0.0192960686982,-0.999788820744
1555426869875080650,,90,,1555426869,874731267,"""world""",,,0.155172899365,-0.0466990694404,0.0808932036161,,-0.00605551153421,0.00370585732162,-0.0192294213921,-0.999789893627
1555426869875284859,,91,,1555426869,874959695,"""world""",,,0.155179858208,-0.046692404896,0.0809146463871,,-0.00607160246,0.0035878252238,-0.0192344784737,-0.99979019165
1555426869884762690,,92,,1555426869,884395764,"""world""",,,0.155144378543,-0.0465907566249,0.0809879079461,,-0.00502649880946,0.00337041332386,-0.0192040428519,-0.999797284603
1555426869894035597,,93,,1555426869,893699886,"""world""",,,0.155164137483,-0.0466918647289,0.0809115171432,,-0.00591690791771,0.00349833490327,-0.019234970212,-0.999791383743
1555426869904504035,,94,,1555426869,904164864,"""world""",,,0.15518464148,-0.0466828197241,0.0809148624539,,-0.00601139618084,0.00346219819039,-0.0192061495036,-0.999791502953
1555426869914765760,,95,,1555426869,914526102,"""world""",,,0.155147328973,-0.0465967580676,0.0809961259365,,-0.00491904700175,0.00323132402264,-0.0192473605275,-0.999797463417
1555426869924183902,,96,,1555426869,923951180,"""world""",,,0.155130594969,-0.0466182902455,0.080965846777,,-0.00506055820733,0.00335320574231,-0.0192474015057,-0.999796330929
1555426869924202502,,97,,1555426869,923989774,"""world""",,,0.155170977116,-0.0467178784311,0.0808884426951,,-0.00604782486334,0.00347897037864,-0.0192812997848,-0.999789834023
1555426869934591880,,98,,1555426869,934397893,"""world""",,,0.155157715082,-0.0466073490679,0.0809781104326,,-0.00495901191607,0.00315141445026,-0.0191905405372,-0.999798595905
1555426869943892044,,99,,1555426869,943752305,"""world""",,,0.155148848891,-0.0465828180313,0.0809699594975,,-0.00481700291857,0.00313469511457,-0.0191243235022,-0.999800562859
1555426869954256261,,100,,1555426869,954080995,"""world""",,,0.155154585838,-0.0466749742627,0.0809065774083,,-0.00590089801699,0.00353006529622,-0.0192724782974,-0.999790608883
1555426869964557689,,101,,1555426869,964380718,"""world""",,,0.155161857605,-0.0466923825443,0.0808955654502,,-0.00595671497285,0.00348469684832,-0.0191757790744,-0.999792397022
1555426869974957763,,102,,1555426869,974764270,"""world""",,,0.155143633485,-0.0465962588787,0.0809836983681,,-0.00502402149141,0.00337578961626,-0.019233148545,-0.999796748161
1555426869975050748,,103,,1555426869,974872787,"""world""",,,0.155132398009,-0.0466093234718,0.0809798315167,,-0.00510686542839,0.00324910390191,-0.0191983021796,-0.999797344208
1555426869984304828,,104,,1555426869,984160952,"""world""",,,0.155180186033,-0.0466910302639,0.0809200555086,,-0.00598589284346,0.00363919581287,-0.0192236937582,-0.999790728092
1555426869994980491,,105,,1555426869,994573922,"""world""",,,0.155169337988,-0.0465944595635,0.0809836313128,,-0.0047955326736,0.00327317090705,-0.0192835852504,-0.999797284603
1555426870004441113,,106,,1555426870,4043797,"""world""",,,0.155141845345,-0.0466040633619,0.0809859707952,,-0.00511552812532,0.00330717116594,-0.0192677434534,-0.999795794487
1555426870014858498,,107,,1555426870,14503459,"""world""",,,0.155147746205,-0.0466193407774,0.080960907042,,-0.00495334435254,0.00324570434168,-0.0192179866135,-0.999797821045
1555426870024374105,,108,,1555426870,23945813,"""world""",,,0.155176177621,-0.0466837622225,0.0809149742126,,-0.00595652172342,0.00365231442265,-0.0192385688424,-0.999790489674
1555426870024403152,,109,,1555426870,24015488,"""world""",,,0.155141487718,-0.0466004274786,0.0809773504734,,-0.00479190517217,0.00321091897786,-0.0192477628589,-0.999798119068
1555426870034773401,,110,,1555426870,34384659,"""world""",,,0.15514062345,-0.0465991832316,0.0809742584825,,-0.00490900408477,0.00325355003588,-0.0192650444806,-0.999797105789
1555426870044101756,,111,,1555426870,43780336,"""world""",,,0.155177384615,-0.0466665737331,0.0809140130877,,-0.00587234040722,0.00351293501444,-0.0193602982908,-0.999789178371
1555426870054502524,,112,,1555426870,54170508,"""world""",,,0.155172675848,-0.0465956926346,0.0809651687741,,-0.00490548228845,0.00321940612048,-0.0193564910442,-0.999795496464
1555426870064784020,,113,,1555426870,64510820,"""world""",,,0.15514986217,-0.0466226488352,0.0809673219919,,-0.0050316657871,0.00323779252358,-0.0192428883165,-0.999796926975
1555426870074221313,,114,,1555426870,73919060,"""world""",,,0.155151203275,-0.0466046482325,0.0809669420123,,-0.0048019438982,0.00330074364319,-0.0192477293313,-0.999797821045
1555426870074393431,,115,,1555426870,73981702,"""world""",,,0.15515512228,-0.0465817861259,0.0809538513422,,-0.00508673628792,0.00348690920509,-0.0190786775202,-0.999799013138
1555426870084907611,,116,,1555426870,84624432,"""world""",,,0.15516191721,-0.0466749221087,0.0809101909399,,-0.00596991041675,0.00375548168086,-0.0192337408662,-0.99979019165
1555426870094334294,,117,,1555426870,94111897,"""world""",,,0.155156448483,-0.0466011576355,0.0809654220939,,-0.00496521312743,0.00336142932065,-0.0191911067814,-0.999797940254
1555426870104850376,,118,,1555426870,104556645,"""world""",,,0.1551630795,-0.0465979129076,0.0809828341007,,-0.0050179627724,0.00325492816046,-0.0193436555564,-0.999795019627
1555426870114165224,,119,,1555426870,113909484,"""world""",,,0.15516717732,-0.0466848649085,0.0808977633715,,-0.00604150258005,0.00362240476534,-0.0191470757127,-0.999791920185
1555426870124584869,,120,,1555426870,124306818,"""world""",,,0.155156105757,-0.0466176643968,0.0809561014175,,-0.00471977656707,0.00306692509912,-0.0192693565041,-0.999798476696
1555426870124611471,,121,,1555426870,124351873,"""world""",,,0.155158832669,-0.0465817712247,0.0809847339988,,-0.00492550898343,0.00325746624731,-0.019200315699,-0.999798238277
1555426870135185687,,122,,1555426870,134665335,"""world""",,,0.155177935958,-0.0466820038855,0.0809115767479,,-0.00601084018126,0.00353537942283,-0.0192616842687,-0.999790132046
1555426870144469760,,123,,1555426870,144209242,"""world""",,,0.155172020197,-0.0466831326485,0.080880574882,,-0.00600722292438,0.00360216223635,-0.019104225561,-0.999793052673
1555426870154882121,,124,,1555426870,154588060,"""world""",,,0.155133679509,-0.0465861074626,0.0809710100293,,-0.00509443599731,0.00327906943858,-0.0191479492933,-0.999798357487
1555426870164175354,,125,,1555426870,163924532,"""world""",,,0.155152902007,-0.0465833432972,0.0809783637524,,-0.00488442601636,0.00324310734868,-0.0191938988864,-0.99979865551
1555426870174572763,,126,,1555426870,174341044,"""world""",,,0.155169352889,-0.046696357429,0.0808998197317,,-0.00579688558355,0.00361983361654,-0.019256465137,-0.999791204929
1555426870174594224,,127,,1555426870,174388853,"""world""",,,0.155165329576,-0.0466138273478,0.0809640586376,,-0.00504844635725,0.00326103717089,-0.0191353727132,-0.999798893929
1555426870184974306,,128,,1555426870,184717415,"""world""",,,0.155167013407,-0.0465927757323,0.0809731334448,,-0.00496822735295,0.0035428465344,-0.019208021462,-0.999796926975
1555426870194268082,,129,,1555426870,194042993,"""world""",,,0.15517988801,-0.0466874055564,0.0809054523706,,-0.00584609713405,0.00350211327896,-0.0192165765911,-0.999792158604
1555426870204809806,,130,,1555426870,204529426,"""world""",,,0.155169010162,-0.0467013083398,0.0808978304267,,-0.00575437629595,0.00353976199403,-0.019188804552,-0.999793052673
1555426870214175807,,131,,1555426870,213879789,"""world""",,,0.155163899064,-0.0466106049716,0.080971814692,,-0.00484537612647,0.00328604923561,-0.0191699210554,-0.999799132347
1555426870224476474,,132,,1555426870,224203927,"""world""",,,0.155167073011,-0.0466734915972,0.0809068605304,,-0.0058576464653,0.00368168833666,-0.0192580986768,-0.999790608883
1555426870224499935,,133,,1555426870,224267239,"""world""",,,0.155163988471,-0.0466844253242,0.0808941498399,,-0.00600041169673,0.00366655644029,-0.019282490015,-0.99978941679
1555426870234883190,,134,,1555426870,234595249,"""world""",,,0.155161812901,-0.0466750860214,0.0809198990464,,-0.0059374361299,0.00379332643934,-0.0192816276103,-0.999789297581
1555426870244277061,,135,,1555426870,244001638,"""world""",,,0.155160427094,-0.0465928353369,0.080977357924,,-0.00473564909771,0.00310322525911,-0.0192304067314,-0.999799072742
1555426870254655902,,136,,1555426870,254383148,"""world""",,,0.155171751976,-0.0466855950654,0.0808918327093,,-0.00607310049236,0.0036142077297,-0.0191410295665,-0.999791800976
1555426870264957665,,137,,1555426870,264715318,"""world""",,,0.155172109604,-0.0466833077371,0.0809012874961,,-0.00601296126842,0.00374531699345,-0.0193618219346,-0.999787449837
1555426870274398411,,138,,1555426870,274101804,"""world""",,,0.155166909099,-0.0466061867774,0.0809632763267,,-0.00482858438045,0.00301530142315,-0.0192318912596,-0.999798834324
1555426870274431160,,139,,1555426870,274148014,"""world""",,,0.155161008239,-0.0466004163027,0.0809708461165,,-0.00483645917848,0.00325320730917,-0.0192991532385,-0.999796807766
1555426870284783651,,140,,1555426870,284537567,"""world""",,,0.155175611377,-0.0466934256256,0.0808850005269,,-0.00584440072998,0.00351964612491,-0.0192393437028,-0.999791681767
1555426870294176172,,141,,1555426870,293906293,"""world""",,,0.15515974164,-0.0466013476253,0.0809746235609,,-0.00493689533323,0.00296858442016,-0.019084084779,-0.999801337719
1555426870304461229,,142,,1555426870,304212746,"""world""",,,0.155155658722,-0.046577077359,0.0809812545776,,-0.00481320079416,0.00306925131008,-0.0191543139517,-0.999800264835
1555426870314751900,,143,,1555426870,314546968,"""world""",,,0.155162125826,-0.0466832220554,0.0808981135488,,-0.00600648997352,0.00363208469935,-0.0193069688976,-0.999788939953
1555426870324194245,,144,,1555426870,323945528,"""world""",,,0.155151620507,-0.0466626249254,0.0809048116207,,-0.00570923788473,0.00344659527764,-0.0189877580851,-0.999797523022
1555426870324475182,,145,,1555426870,324036946,"""world""",,,0.155081301928,-0.0464938767254,0.0812015011907,,-0.00580641441047,-0.00108970387373,-0.0177483670413,-0.999825119972
1555426870334643258,,146,,1555426870,334399267,"""world""",,,0.15507376194,-0.0465177223086,0.0811251327395,,-0.00678334245458,-0.000304266344756,-0.017837267369,-0.99981790781
1555426870345064880,,147,,1555426870,344776795,"""world""",,,0.155171215534,-0.046640124172,0.0809046179056,,-0.00697057368234,0.00244415109046,-0.0190770681947,-0.999790728092
1555426870354433127,,148,,1555426870,354188300,"""world""",,,0.155103445053,-0.0465455390513,0.0811642035842,,-0.00679818028584,-0.000639336300083,-0.0180754866451,-0.999813318253
1555426870364786523,,149,,1555426870,364552906,"""world""",,,0.155108422041,-0.0465618148446,0.0810529589653,,-0.00475219497457,0.0018820152618,-0.0193049479276,-0.999800562859
1555426870374070682,,150,,1555426870,373885818,"""world""",,,0.155191078782,-0.0466360412538,0.0809077844024,,-0.00716403778642,0.00361735676415,-0.0199127532542,-0.999769508839
1555426870374231665,,151,,1555426870,373982457,"""world""",,,0.155137494206,-0.0466907247901,0.0809594467282,,-0.00585073698312,0.00299589335918,-0.0190975982696,-0.99979609251
1555426870384616313,,152,,1555426870,384409037,"""world""",,,0.155174672604,-0.0466033220291,0.0810580477118,,-0.00472168484703,0.00221732305363,-0.0189229417592,-0.999807417393
1555426870393963006,,153,,1555426870,393671343,"""world""",,,0.155090019107,-0.0465122014284,0.0811888352036,,-0.0065716789104,-0.000977316871285,-0.0180566087365,-0.999814867973
1555426870404429971,,154,,1555426870,404128075,"""world""",,,0.155121490359,-0.0465055778623,0.081138946116,,-0.00772125413641,-0.000416048249463,-0.0180976353586,-0.999806344509
1555426870414747247,,155,,1555426870,414482728,"""world""",,,0.155160784721,-0.0466001406312,0.0810465663671,,-0.00466066412628,0.00181560893543,-0.0188045017421,-0.999810636044
1555426870423962222,,156,,1555426870,423700125,"""world""",,,0.155188471079,-0.0465827323496,0.080974675715,,-0.00589316338301,0.0034060862381,-0.0189744755626,-0.999796807766
1555426870434239151,,157,,1555426870,433996010,"""world""",,,0.155176311731,-0.0466823205352,0.0809605270624,,-0.00605556974187,0.00312214065343,-0.019635187462,-0.999783992767
1555426870434262685,,158,,1555426870,434043230,"""world""",,,0.155131623149,-0.0465404093266,0.0810579359531,,-0.00492910575122,0.00135717308149,-0.0197019446641,-0.999792814255
1555426870444488885,,159,,1555426870,444304349,"""world""",,,0.155211761594,-0.0467117987573,0.0809855610132,,-0.00706387963146,0.00264488928951,-0.0201325193048,-0.999768912792
1555426870454865918,,160,,1555426870,454649985,"""world""",,,0.155150100589,-0.0466097965837,0.0810608938336,,-0.00514434697106,0.00205213297158,-0.0189900770783,-0.999804377556
1555426870464301072,,161,,1555426870,464099160,"""world""",,,0.155181229115,-0.0466968864202,0.0809845179319,,-0.00564589956775,0.00279658730142,-0.0190187375993,-0.999799311161
1555426870474815202,,162,,1555426870,474541737,"""world""",,,0.1551309973,-0.0466615557671,0.0810157954693,,-0.00567859550938,0.00217331270687,-0.0191998090595,-0.999797165394
1555426870474865890,,163,,1555426870,474584304,"""world""",,,0.155081227422,-0.0465174093843,0.0812492221594,,-0.00619740225375,-0.00170316675212,-0.0183993969113,-0.999810039997
1555426870484112338,,164,,1555426870,483905948,"""world""",,,0.155118197203,-0.046613547951,0.0810501053929,,-0.00501351570711,0.00158737646416,-0.0189185794443,-0.999807238579
1555426870494539242,,165,,1555426870,494326734,"""world""",,,0.155083358288,-0.0466145128012,0.0811398476362,,-0.00512817176059,-4.88091973239e-05,-0.0193265937269,-0.999800145626
1555426870505060803,,166,,1555426870,504781989,"""world""",,,0.155066758394,-0.0466071180999,0.0811949744821,,-0.00530590256676,-0.0006856705877,-0.018567442894,-0.999813377857
1555426870514360295,,167,,1555426870,514126522,"""world""",,,0.155083030462,-0.0466281808913,0.0812437906861,,-0.00479645375162,-0.0024992430117,-0.0175849571824,-0.999830842018
1555426870524846994,,168,,1555426870,524548798,"""world""",,,0.155030295253,-0.0466815531254,0.08135022223,,-0.00588887371123,-0.00446468451992,-0.0175046492368,-0.999819457531
1555426870524869169,,169,,1555426870,524609116,"""world""",,,0.155032604933,-0.0468251854181,0.081453435123,,-0.00575566338375,-0.00607364764437,-0.0169207993895,-0.999821901321
1555426870534337871,,170,,1555426870,533928811,"""world""",,,0.154980286956,-0.0467328503728,0.0818051993847,,-0.00611531175673,-0.0113266697153,-0.0158073436469,-0.999792218208
1555426870544531047,,171,,1555426870,544250317,"""world""",,,0.154972672462,-0.0469719283283,0.0817417874932,,-0.00659612659365,-0.0100753856823,-0.0161997061223,-0.999796271324
1555426870554806591,,172,,1555426870,554627031,"""world""",,,0.154991105199,-0.0471134856343,0.081875897944,,-0.00487050507218,-0.0109053533524,-0.0154551910236,-0.999809205532
1555426870564239408,,173,,1555426870,563990464,"""world""",,,0.154985025525,-0.0471353270113,0.0821413770318,,-0.0041018226184,-0.0117715606466,-0.0152290156111,-0.999806404114
1555426870574563637,,174,,1555426870,574348378,"""world""",,,0.154964119196,-0.0470894314349,0.0824825242162,,-0.00494418479502,-0.0157667212188,-0.0144367180765,-0.99975925684
1555426870574672807,,175,,1555426870,574442031,"""world""",,,0.154989272356,-0.0473689995706,0.0826471596956,,-0.00252866838127,-0.0134561313316,-0.0153997205198,-0.99978774786
1555426870583888258,,176,,1555426870,583655880,"""world""",,,0.155009657145,-0.0474520772696,0.0829725712538,,-0.0019485472003,-0.0135734286159,-0.0158779062331,-0.999779880047
1555426870594269356,,177,,1555426870,593991571,"""world""",,,0.154980123043,-0.0475246682763,0.0833201855421,,-0.00121193903033,-0.0138425612822,-0.0156848672777,-0.999780416489
1555426870604633395,,178,,1555426870,604353690,"""world""",,,0.154986739159,-0.0475402288139,0.0837219431996,,-0.00335766654462,-0.0136691052467,-0.0159420650452,-0.999773919582
1555426870614939913,,179,,1555426870,614711936,"""world""",,,0.155094623566,-0.0476756170392,0.0839839503169,,-0.00292960181832,-0.0114659704268,-0.0155484899879,-0.999809086323
1555426870624407484,,180,,1555426870,624136914,"""world""",,,0.155125558376,-0.0477508567274,0.084328956902,,-0.00457892287523,-0.0109453294426,-0.0154807846993,-0.999809801579
1555426870624475114,,181,,1555426870,624185041,"""world""",,,0.155236288905,-0.047845184803,0.0847189724445,,-0.00456261634827,-0.0126932682469,-0.0154966106638,-0.999788939953
1555426870634820993,,182,,1555426870,634627262,"""world""",,,0.155346333981,-0.047935012728,0.0849393382668,,-0.00554094742984,-0.0109870862216,-0.015344417654,-0.999806582928
1555426870644268111,,183,,1555426870,643995909,"""world""",,,0.155525222421,-0.0482500307262,0.0852979794145,,-0.00450490601361,-0.0115208309144,-0.015248676762,-0.999807238579
1555426870654595198,,184,,1555426870,654380573,"""world""",,,0.155663758516,-0.0483668111265,0.0856434628367,,-0.00361395161599,-0.0127863250673,-0.0157043151557,-0.999788463116
1555426870663904864,,185,,1555426870,663706996,"""world""",,,0.155838370323,-0.048256598413,0.0861695334315,,-0.00466167973354,-0.0175946224481,-0.0139379091561,-0.999737262726
1555426870674328096,,186,,1555426870,674032559,"""world""",,,0.156015515327,-0.0485624708235,0.086366251111,,-0.00225474056788,-0.0148860430345,-0.0147569347173,-0.999777793884
1555426870674357857,,187,,1555426870,674101842,"""world""",,,0.156235545874,-0.0486129187047,0.0867285132408,,-0.00152423919644,-0.0141619192436,-0.0142312981188,-0.999797284603
1555426870684600225,,188,,1555426870,684363791,"""world""",,,0.156357318163,-0.0487209483981,0.087105229497,,-0.00224459916353,-0.0135854054242,-0.0146184461191,-0.999798357487
1555426870694888187,,189,,1555426870,694650728,"""world""",,,0.156525149941,-0.0488711073995,0.0875149071217,,-0.00172800687142,-0.0137589648366,-0.0143615761772,-0.999800682068
1555426870704272410,,190,,1555426870,703969582,"""world""",,,0.156790196896,-0.048991009593,0.0878575071692,,-0.00217445427552,-0.0115916216746,-0.0139228403568,-0.999833583832
1555426870714454393,,191,,1555426870,714240523,"""world""",,,0.156968459487,-0.0490964874625,0.088292337954,,-0.00218044337817,-0.0116716371849,-0.0148001359776,-0.999819993973
1555426870724977733,,192,,1555426870,724697257,"""world""",,,0.157162204385,-0.0490674078465,0.0887170135975,,-0.00398731091991,-0.0105563383549,-0.0150428274646,-0.999823153019
1555426870725010998,,193,,1555426870,724739616,"""world""",,,0.157405078411,-0.0492229685187,0.0891712456942,,-0.00304718641564,-0.00996481906623,-0.0147467562929,-0.999836981297
1555426870734270900,,194,,1555426870,734055768,"""world""",,,0.157598748803,-0.0492550097406,0.0897229760885,,-0.00387864792719,-0.0131419021636,-0.0142631949857,-0.99980443716
1555426870744654160,,195,,1555426870,744402497,"""world""",,,0.157838761806,-0.0494283735752,0.0900002419949,,-0.00410082191229,-0.0107315834612,-0.0151237510145,-0.99981969595
1555426870753982197,,196,,1555426870,753701630,"""world""",,,0.158125728369,-0.0496901422739,0.0904503017664,,-0.00205248291604,-0.011623208411,-0.0163771752268,-0.99979621172
1555426870764291681,,197,,1555426870,764048240,"""world""",,,0.158367708325,-0.0497908815742,0.0907925590873,,-0.00191253575031,-0.0112572852522,-0.0162257403135,-0.999803185463
1555426870774624703,,198,,1555426870,774338305,"""world""",,,0.158692926168,-0.0500198677182,0.0912178307772,,0.00124251190573,-0.0106586609036,-0.0168720204383,-0.999800145626
1555426870774651006,,199,,1555426870,774387119,"""world""",,,0.158921182156,-0.0500156506896,0.0918182358146,,0.00320823350921,-0.0134914871305,-0.0156172560528,-0.999781906605
1555426870785343717,,200,,1555426870,784861101,"""world""",,,0.159398838878,-0.0503564029932,0.0918787643313,,0.00527011556551,-0.00597455119714,-0.0165546089411,-0.999831318855
1555426870794462345,,201,,1555426870,794221697,"""world""",,,0.159680724144,-0.0504759401083,0.0923217087984,,0.00669792667031,-0.00685350829735,-0.0178534630686,-0.999794721603
1555426870804957435,,202,,1555426870,804651091,"""world""",,,0.160055920482,-0.0506028495729,0.0926319509745,,0.00891159754246,-0.00494444696233,-0.016877707094,-0.999805688858
1555426870814380945,,203,,1555426870,814072484,"""world""",,,0.160313084722,-0.0506623759866,0.0929801017046,,0.00848517566919,-0.00675385026261,-0.0170103050768,-0.999796509743
1555426870824687826,,204,,1555426870,824409639,"""world""",,,0.160604566336,-0.050610166043,0.0934421867132,,0.00796056911349,-0.0105905728415,-0.0165660008788,-0.999775052071
1555426870824731083,,205,,1555426870,824501850,"""world""",,,0.1609505862,-0.0507394112647,0.0934968665242,,0.00831734761596,-0.00797852687538,-0.0175731498748,-0.999779164791
1555426870834068455,,206,,1555426870,833871535,"""world""",,,0.16125690937,-0.0507788807154,0.093629963696,,0.00714126368985,-0.00851394142956,-0.0175873823464,-0.999783575535
1555426870844459720,,207,,1555426870,844173216,"""world""",,,0.161562219262,-0.0508111566305,0.093867868185,,0.00879004504532,-0.00969045516104,-0.0175798404962,-0.999759912491
1555426870854940527,,208,,1555426870,854644371,"""world""",,,0.161958262324,-0.0508019924164,0.0939837619662,,0.00917843729258,-0.010266346857,-0.0184833370149,-0.999734342098
1555426870864156777,,209,,1555426870,863963022,"""world""",,,0.162360936403,-0.0509088113904,0.0941555425525,,0.0093006324023,-0.0117820678279,-0.0183012410998,-0.99971985817
1555426870874517509,,210,,1555426870,874242729,"""world""",,,0.162729755044,-0.0508716404438,0.0941890478134,,0.00946465693414,-0.00944170355797,-0.0188242141157,-0.999733507633
1555426870874539326,,211,,1555426870,874290736,"""world""",,,0.16308991611,-0.0508366934955,0.0943236574531,,0.00950262136757,-0.00803116336465,-0.0181326959282,-0.999758243561
1555426870885035361,,212,,1555426870,884801428,"""world""",,,0.163419574499,-0.0506952479482,0.0946154668927,,0.00859884731472,-0.00985252298415,-0.0176671352237,-0.999758422375
1555426870894397312,,213,,1555426870,894155452,"""world""",,,0.163860633969,-0.0507536605,0.0945860743523,,0.00909588206559,-0.00401397421956,-0.018325785175,-0.999782621861
1555426870904764949,,214,,1555426870,904474632,"""world""",,,0.164278566837,-0.0506705231965,0.0946792066097,,0.00804449617863,-0.00241647940129,-0.0180276315659,-0.999802291393
1555426870913919193,,215,,1555426870,913685497,"""world""",,,0.164755150676,-0.0507013760507,0.0947848334908,,0.00802632328123,0.00164691265672,-0.01810259372,-0.999802649021
1555426870924303086,,216,,1555426870,924023379,"""world""",,,0.165198206902,-0.0505700595677,0.0947863012552,,0.00843721441925,0.00342215853743,-0.0181500073522,-0.999793827534
1555426870924330807,,217,,1555426870,924067788,"""world""",,,0.165503248572,-0.0504181534052,0.0949748530984,,0.0090748667717,0.003002575133,-0.0177056472749,-0.999797642231
1555426870934781886,,218,,1555426870,934441247,"""world""",,,0.165891245008,-0.0502901040018,0.0949600115418,,0.0073052989319,0.00528172496706,-0.0180394891649,-0.999796688557
1555426870944049495,,219,,1555426870,943804516,"""world""",,,0.16621132195,-0.0501907169819,0.0951306000352,,0.00849363859743,0.00460134539753,-0.017879480496,-0.99979352951
1555426870954396567,,220,,1555426870,954121957,"""world""",,,0.166546106339,-0.0500667281449,0.0951645150781,,0.00687436340377,0.00562765542418,-0.0169454049319,-0.999816954136
1555426870964704447,,221,,1555426870,964480316,"""world""",,,0.166886344552,-0.049757398665,0.0954343229532,,0.00572169758379,0.00213400623761,-0.0159974694252,-0.999853491783
1555426870973969568,,222,,1555426870,973697929,"""world""",,,0.167224764824,-0.0497163124382,0.0953440442681,,0.00531024672091,0.00614205235615,-0.0167345125228,-0.999827027321
1555426870984290495,,223,,1555426870,984034913,"""world""",,,0.167506039143,-0.0495461784303,0.0954933390021,,0.00482539692894,0.00646803434938,-0.0165994688869,-0.99982970953
1555426870984357874,,224,,1555426870,984103635,"""world""",,,0.167833968997,-0.0492822229862,0.095692999661,,0.00373887084424,0.0071285800077,-0.0165528412908,-0.999830663204
1555426870994829803,,225,,1555426870,994572983,"""world""",,,0.168112620711,-0.0490907840431,0.0958570241928,,0.0016610895982,0.00910448562354,-0.0158136151731,-0.99983215332
1555426871004386361,,226,,1555426871,4035211,"""world""",,,0.168385013938,-0.0487966388464,0.0960566550493,,0.000704461708665,0.00944540835917,-0.0161018949002,-0.999825537205
1555426871014611819,,227,,1555426871,14370304,"""world""",,,0.16868840158,-0.0485862866044,0.0962187200785,,-0.000553607242182,0.0118235703558,-0.0161686092615,-0.999799191952
1555426871023975473,,228,,1555426871,23693372,"""world""",,,0.1688195467,-0.0483762957156,0.0964566320181,,-0.00220501190051,0.0121678896248,-0.0163154732436,-0.999790489674
1555426871034398293,,229,,1555426871,34120235,"""world""",,,0.169075265527,-0.0481383651495,0.096628010273,,-0.00261897058226,0.013894751668,-0.015981528908,-0.999772310257
1555426871034421148,,230,,1555426871,34173892,"""world""",,,0.169282630086,-0.0478112027049,0.0969972237945,,-0.0047072074376,0.01133250352,-0.015165601857,-0.999809741974
1555426871044739809,,231,,1555426871,44520951,"""world""",,,0.169507935643,-0.0477383993566,0.0971213951707,,-0.00261540105566,0.0133024770766,-0.0161806959659,-0.999777257442
1555426871054113008,,232,,1555426871,53946472,"""world""",,,0.16962711513,-0.0474995225668,0.0973625257611,,-0.00250622164458,0.0127516575158,-0.0161236859858,-0.999785602093
1555426871064515388,,233,,1555426871,64280073,"""world""",,,0.169733926654,-0.0471607260406,0.097583539784,,-0.00408270815387,0.012371506542,-0.0163478907198,-0.999781548977
1555426871075012249,,234,,1555426871,74662183,"""world""",,,0.169858783484,-0.0469597913325,0.0978860110044,,-0.00426576472819,0.0132117131725,-0.0161279384047,-0.999773561954
1555426871075034058,,235,,1555426871,74710607,"""world""",,,0.169943764806,-0.046587780118,0.0983319506049,,-0.0059613827616,0.0103416955099,-0.0146162584424,-0.999821901321
1555426871084603381,,236,,1555426871,84358213,"""world""",,,0.170042723417,-0.046446364373,0.0984744355083,,-0.00608241604641,0.0139193776995,-0.015269337222,-0.999768078327
1555426871094917155,,237,,1555426871,94693871,"""world""",,,0.170159861445,-0.046174891293,0.0987975373864,,-0.00676921056584,0.0139799332246,-0.0159636735916,-0.999751985073
1555426871104387523,,238,,1555426871,104108909,"""world""",,,0.170143991709,-0.0459631569684,0.0990992411971,,-0.00835086870939,0.013663707301,-0.0152307422832,-0.999755740166
1555426871114722429,,239,,1555426871,114488095,"""world""",,,0.170253783464,-0.0457040406764,0.0993822440505,,-0.00805251393467,0.0132712787017,-0.0142901465297,-0.999777376652
1555426871124021184,,240,,1555426871,123776183,"""world""",,,0.170281469822,-0.0453679487109,0.0997977033257,,-0.00933103077114,0.0108764925972,-0.0143220182508,-0.999794781208
1555426871134276373,,241,,1555426871,134089698,"""world""",,,0.170321449637,-0.0453223958611,0.0999867320061,,-0.0086817946285,0.0126450378448,-0.0144699923694,-0.999777674675
1555426871134726069,,242,,1555426871,134184434,"""world""",,,0.170288562775,-0.0450644753873,0.100200235844,,-0.00865911319852,0.0122828213498,-0.0147299626842,-0.999778628349
1555426871144910215,,243,,1555426871,144638327,"""world""",,,0.170247092843,-0.0447792299092,0.100672528148,,-0.00943434610963,0.00937751773745,-0.0136380326003,-0.999818563461
1555426871154247685,,244,,1555426871,153973412,"""world""",,,0.170146986842,-0.044668931514,0.100859478116,,-0.00918680150062,0.0123533504084,-0.0150563791394,-0.999768197536
1555426871164494611,,245,,1555426871,164324464,"""world""",,,0.169953465462,-0.0444622226059,0.101268470287,,-0.00823954213411,0.00914978887886,-0.0138218356296,-0.999828755856
1555426871174906675,,246,,1555426871,174658277,"""world""",,,0.169949233532,-0.0441556274891,0.10160060972,,-0.00961390975863,0.00949867907912,-0.0116184009239,-0.999841213226
1555426871175279764,,247,,1555426871,174708618,"""world""",,,0.169776976109,-0.0440307445824,0.101997151971,,-0.00978510919958,0.00838935561478,-0.0138925164938,-0.999820411205
1555426871184509625,,248,,1555426871,184154803,"""world""",,,0.169711321592,-0.0437935367227,0.10233694315,,-0.0118637932464,0.00680518522859,-0.0140915270895,-0.999807238579
1555426871194842126,,249,,1555426871,194461037,"""world""",,,0.169609889388,-0.0437558107078,0.102736376226,,-0.011832145974,0.00449270708486,-0.0123798912391,-0.999843358994
1555426871204267629,,250,,1555426871,203977554,"""world""",,,0.169465526938,-0.0434585548937,0.103339649737,,-0.0145514495671,0.000901989231352,-0.0124089363962,-0.999816715717
1555426871214558285,,251,,1555426871,214326804,"""world""",,,0.169458091259,-0.0433163493872,0.103514567018,,-0.0145382899791,0.00425896327943,-0.012897644192,-0.999802112579
1555426871225061637,,252,,1555426871,224744624,"""world""",,,0.169412910938,-0.0432580672204,0.1038216874,,-0.014306650497,0.00353419198655,-0.0125042255968,-0.999813199043
1555426871225084971,,253,,1555426871,224793838,"""world""",,,0.169314444065,-0.0431469865143,0.104158066213,,-0.0137133440003,0.00204648636281,-0.0126757593825,-0.999823510647
1555426871234322542,,254,,1555426871,234057707,"""world""",,,0.169216185808,-0.0429295040667,0.104718632996,,-0.0153837129474,-0.000511908438057,-0.0121164536104,-0.999808132648
1555426871244632209,,255,,1555426871,244412650,"""world""",,,0.169199839234,-0.0428442917764,0.104965955019,,-0.014168404974,0.0016996297054,-0.0105782486498,-0.999842226505
1555426871254955939,,256,,1555426871,254722443,"""world""",,,0.169071659446,-0.0428771451116,0.105300873518,,-0.013534611091,0.000602941494435,-0.0119250481948,-0.999837100506
1555426871264368030,,257,,1555426871,264038154,"""world""",,,0.16888768971,-0.0427603572607,0.105952449143,,-0.0148853529245,-0.00276134209707,-0.0120955202729,-0.999812304974
1555426871274741260,,258,,1555426871,274452933,"""world""",,,0.168792426586,-0.0427997708321,0.10623383522,,-0.01416702196,-0.00098094844725,-0.0128656290472,-0.999816417694
1555426871274762126,,259,,1555426871,274498552,"""world""",,,0.16869983077,-0.0428062900901,0.106634579599,,-0.0137420305982,-0.00130786781665,-0.0124321877956,-0.999827444553
1555426871284016998,,260,,1555426871,283700239,"""world""",,,0.168601587415,-0.0428341291845,0.107097201049,,-0.0139935687184,-0.00173054134939,-0.0127898640931,-0.99981880188
1555426871294454688,,261,,1555426871,294181523,"""world""",,,0.168506234884,-0.0428105406463,0.10757073015,,-0.0145052159205,-0.00388522958383,-0.012801268138,-0.999805271626
1555426871304962822,,262,,1555426871,304685909,"""world""",,,0.16845908761,-0.0428447946906,0.107927814126,,-0.0129813076928,-0.00306449318305,-0.0126184634864,-0.999831497669
1555426871314343785,,263,,1555426871,314050522,"""world""",,,0.168374374509,-0.0428802147508,0.10837046057,,-0.0130482744426,-0.00256614154205,-0.0124055612832,-0.999834656715
1555426871324872402,,264,,1555426871,324567035,"""world""",,,0.168325096369,-0.0429795235395,0.108759775758,,-0.0117608848959,-0.00330881704576,-0.012646487914,-0.999845445156
1555426871324897466,,265,,1555426871,324616669,"""world""",,,0.168231591582,-0.0427982024848,0.109257891774,,-0.0119722010568,-0.00362280197442,-0.0113792829216,-0.999857068062
1555426871334095089,,266,,1555426871,333907179,"""world""",,,0.168125107884,-0.0429028682411,0.109569877386,,-0.0123177533969,-0.00216365396045,-0.0133179640397,-0.999833106995
1555426871344619306,,267,,1555426871,344306126,"""world""",,,0.168075829744,-0.0430782213807,0.110092371702,,-0.0104885678738,-0.00175359181594,-0.013213025406,-0.999856173992
1555426871354931496,,268,,1555426871,354675815,"""world""",,,0.16806319356,-0.0430067032576,0.110552467406,,-0.00942789204419,-0.00164268538356,-0.0117272622883,-0.999885439873
1555426871364363471,,269,,1555426871,364092359,"""world""",,,0.167937621474,-0.0431366637349,0.11102732271,,-0.00926382653415,-0.000708714593202,-0.013532884419,-0.999865353107
1555426871374903269,,270,,1555426871,374565925,"""world""",,,0.167785346508,-0.0432469621301,0.111778333783,,-0.00770599488169,-0.0061158221215,-0.0128273740411,-0.999869346619
1555426871374951722,,271,,1555426871,374617750,"""world""",,,0.167800650001,-0.0434017181396,0.112110435963,,-0.00652215164155,-0.00301228859462,-0.0135036399588,-0.999883115292
1555426871384186094,,272,,1555426871,383962819,"""world""",,,0.167741015553,-0.0434631817043,0.112602524459,,-0.00733306119218,-0.00295957922935,-0.0137201240286,-0.999874711037
1555426871394625747,,273,,1555426871,394340446,"""world""",,,0.167685300112,-0.0435927547514,0.113333471119,,-0.00635686144233,-0.00642194086686,-0.012796822004,-0.999877274036
1555426871405095998,,274,,1555426871,404811117,"""world""",,,0.167722851038,-0.0437405481935,0.113655634224,,-0.00430475687608,-0.00498620979488,-0.013520469889,-0.999886989594
1555426871414472500,,275,,1555426871,414215511,"""world""",,,0.167711347342,-0.0437951013446,0.114051215351,,-0.00384238339029,-0.00529915699735,-0.0130692189559,-0.999893188477
1555426871424969026,,276,,1555426871,424705967,"""world""",,,0.167678758502,-0.0439567491412,0.114638000727,,-0.00227910932153,-0.00703503750265,-0.0136052351445,-0.999880135059
1555426871424993043,,277,,1555426871,424755134,"""world""",,,0.16774867475,-0.0441032536328,0.11502892524,,-0.000731542007998,-0.00760973617435,-0.0133802164346,-0.999881267548
1555426871434293937,,278,,1555426871,434070878,"""world""",,,0.167705833912,-0.0441266447306,0.115474633873,,-0.000499774585478,-0.00956004671752,-0.0128331631422,-0.999871909618
1555426871444780946,,279,,1555426871,444494308,"""world""",,,0.167712762952,-0.0442189499736,0.115786164999,,0.000761235831305,-0.00780757004395,-0.0132385250181,-0.99988168478
1555426871454086596,,280,,1555426871,453770276,"""world""",,,0.167734533548,-0.0443093813956,0.11621401459,,0.00257362890989,-0.00648200372234,-0.0132158091292,-0.999888420105
1555426871464418042,,281,,1555426871,464133976,"""world""",,,0.167745769024,-0.0444022789598,0.116536013782,,0.00264769629575,-0.00682880682871,-0.0129996147007,-0.999888777733
1555426871474781634,,282,,1555426871,474495283,"""world""",,,0.167798429728,-0.0445158928633,0.116871356964,,0.00338457734324,-0.0069063580595,-0.0131162833422,-0.999884426594
1555426871474815593,,283,,1555426871,474546253,"""world""",,,0.167846038938,-0.0444944091141,0.11721996963,,0.00345096318051,-0.00701330043375,-0.0128187350929,-0.999887347221
1555426871484184787,,284,,1555426871,483872275,"""world""",,,0.167936384678,-0.0445147566497,0.11745198071,,0.00298386439681,-0.00567809771746,-0.0124790230766,-0.999901652336
1555426871494557518,,285,,1555426871,494270241,"""world""",,,0.168010994792,-0.0446334183216,0.117738470435,,0.00294509134255,-0.00504610920325,-0.0125861223787,-0.999903738499
1555426871505007105,,286,,1555426871,504680398,"""world""",,,0.168040454388,-0.0445838496089,0.118153147399,,0.00205023726448,-0.00770493689924,-0.0118922339752,-0.99989759922
1555426871514479730,,287,,1555426871,514207983,"""world""",,,0.168198421597,-0.0446474067867,0.118277534842,,0.00317247468047,-0.00511557934806,-0.0123523604125,-0.999905586243
1555426871524760253,,288,,1555426871,524544318,"""world""",,,0.168326631188,-0.0446829013526,0.118484340608,,0.00218214304186,-0.00396080315113,-0.0125294746831,-0.999911367893
1555426871524788254,,289,,1555426871,524585069,"""world""",,,0.168454527855,-0.0448991134763,0.118708543479,,0.00328878639266,-0.00472330069169,-0.0138994287699,-0.999886929989
1555426871534088182,,290,,1555426871,533873465,"""world""",,,0.168586581945,-0.0447451137006,0.118967972696,,0.00307698710822,-0.00473559089005,-0.0132475625724,-0.999896347523
1555426871544395214,,291,,1555426871,544162506,"""world""",,,0.168724268675,-0.0447643920779,0.119219474494,,0.00199761404656,-0.0040068407543,-0.0133131025359,-0.999901354313
1555426871554864961,,292,,1555426871,554590248,"""world""",,,0.168828517199,-0.0447559393942,0.119480326772,,0.00180373783223,-0.00473840953782,-0.0134137477726,-0.999897181988
1555426871564061431,,293,,1555426871,563893844,"""world""",,,0.169012367725,-0.044641610235,0.119663931429,,0.000661659112666,-0.00446366379037,-0.0129958586767,-0.999905407429
1555426871574542223,,294,,1555426871,574248560,"""world""",,,0.169144466519,-0.0445138216019,0.120279319584,,0.00108721142169,-0.00641947193071,-0.0118368370458,-0.999908745289
1555426871574564167,,295,,1555426871,574299070,"""world""",,,0.169324293733,-0.0445481389761,0.120430141687,,0.00127686723135,-0.00307665462606,-0.0125514315441,-0.999915659428
1555426871584902609,,296,,1555426871,584660677,"""world""",,,0.169463559985,-0.0444246456027,0.12095798552,,0.000326432636939,-0.00606686249375,-0.0121555719525,-0.999907672405
1555426871594205177,,297,,1555426871,593981338,"""world""",,,0.169676169753,-0.0444491542876,0.121170185506,,0.00215708184987,-0.00363689870574,-0.0123435687274,-0.999914944172
1555426871604616116,,298,,1555426871,604338481,"""world""",,,0.169814586639,-0.0443806871772,0.121692888439,,0.001265593688,-0.00316263362765,-0.0131256300956,-0.999908089638
1555426871614874223,,299,,1555426871,614640135,"""world""",,,0.17001453042,-0.0443149022758,0.122141800821,,0.00202746223658,-0.00331645086408,-0.0120598506182,-0.999919712543
1555426871624211522,,300,,1555426871,623959661,"""world""",,,0.170156762004,-0.0442419946194,0.122636385262,,0.00212516752072,-0.00250732456334,-0.0124584455043,-0.999917030334
1555426871624235332,,301,,1555426871,624005622,"""world""",,,0.170300960541,-0.0441570878029,0.123220451176,,0.00218675797805,-0.00216823630035,-0.011456665583,-0.999929606915
1555426871634680275,,302,,1555426871,634361889,"""world""",,,0.170518293977,-0.0440772771835,0.123961314559,,0.00149075244553,-0.00427441578358,-0.0100541003048,-0.999939262867
1555426871643999537,,303,,1555426871,643699289,"""world""",,,0.170793786645,-0.0440659895539,0.124423317611,,0.000748925434891,-0.00296785729006,-0.0103204045445,-0.999942064285
1555426871654198517,,304,,1555426871,654022044,"""world""",,,0.17109619081,-0.0436991639435,0.12526679039,,-0.0009579922189,-0.00700754253194,-0.0118772992864,-0.999904453754
1555426871664588415,,305,,1555426871,664342874,"""world""",,,0.171292603016,-0.0437444597483,0.125842005014,,-0.000132599612698,-0.00387566280551,-0.0122476071119,-0.999917566776
1555426871674987286,,306,,1555426871,674709333,"""world""",,,0.171507522464,-0.0435911826789,0.126562178135,,-0.00209763785824,-0.00392273720354,-0.0134944254532,-0.999899029732
1555426871675014930,,307,,1555426871,674759382,"""world""",,,0.171742960811,-0.0434900484979,0.127474620938,,-0.000644242973067,-0.00461924867705,-0.0121611710638,-0.999915242195
1555426871684473135,,308,,1555426871,684174529,"""world""",,,0.172008782625,-0.0434049516916,0.128147661686,,-0.00110899587162,-0.00249032187276,-0.0126124657691,-0.999916732311
1555426871694989374,,309,,1555426871,694619210,"""world""",,,0.172232538462,-0.043392688036,0.12893883884,,-0.000684947473928,-0.00123838242143,-0.0121078686789,-0.999925732613
1555426871704533685,,310,,1555426871,704060308,"""world""",,,0.172471821308,-0.0433391816914,0.129706218839,,-0.000251974066487,0.000254323007539,-0.011239297688,-0.999936819077
1555426871714807745,,311,,1555426871,714490527,"""world""",,,0.172746285796,-0.0431464090943,0.130470365286,,-0.00188750645611,0.00237549748272,-0.0113832158968,-0.999930679798
1555426871724309904,,312,,1555426871,723939139,"""world""",,,0.172944456339,-0.0431493930519,0.13128310442,,-0.000557428167667,0.00494681671262,-0.0110461553559,-0.999926626682
1555426871724344289,,313,,1555426871,724016984,"""world""",,,0.173200279474,-0.0429352149367,0.131967946887,,0.00103825610131,0.00674196798354,-0.0114512220025,-0.999911248684
1555426871735535018,,314,,1555426871,734354527,"""world""",,,0.173438161612,-0.0427614636719,0.132662847638,,0.00193818204571,0.00646970514208,-0.0109198223799,-0.999917566776
1555426871745087179,,315,,1555426871,744717612,"""world""",,,0.173691704869,-0.0427036844194,0.133214846253,,0.00263776746579,0.00738784344867,-0.00989085342735,-0.99992030859
1555426871754473035,,316,,1555426871,754127197,"""world""",,,0.173866823316,-0.0426385626197,0.133803263307,,0.0026269487571,0.00741567695513,-0.0102231344208,-0.999916851521
1555426871764787004,,317,,1555426871,764486146,"""world""",,,0.174123317003,-0.042381297797,0.134414434433,,0.00141738180537,0.00709754740819,-0.00987404491752,-0.999925076962
1555426871774368375,,318,,1555426871,774009172,"""world""",,,0.1743516922,-0.0421577058733,0.135028064251,,0.00109078502283,0.00664211111143,-0.00970019772649,-0.999930381775
1555426871774398433,,319,,1555426871,774082808,"""world""",,,0.174461945891,-0.0421248152852,0.135544776917,,-0.00186607672367,0.00759592838585,-0.00975781399757,-0.999921858311
1555426871784778564,,320,,1555426871,784481765,"""world""",,,0.174617901444,-0.0420191586018,0.13637714088,,-0.00278546055779,0.0019243004499,-0.00860255490988,-0.99995726347
1555426871794344036,,321,,1555426871,793942562,"""world""",,,0.17480507493,-0.0419575087726,0.136765420437,,-0.00306276348419,0.00395971769467,-0.0096827223897,-0.999940693378
1555426871804756944,,322,,1555426871,804395132,"""world""",,,0.175005495548,-0.0418375506997,0.137149721384,,-0.00391968199983,0.00522594153881,-0.00921896193177,-0.99993622303
1555426871814043646,,323,,1555426871,813699216,"""world""",,,0.175240144134,-0.0416037924588,0.137526616454,,-0.00400352384895,0.00503765232861,-0.00893928669393,-0.999939382076
1555426871824574360,,324,,1555426871,824217957,"""world""",,,0.175382360816,-0.0414968393743,0.138008162379,,-0.00397833390161,0.00612662546337,-0.0093724085018,-0.999929428101
1555426871824606831,,325,,1555426871,824289115,"""world""",,,0.17549739778,-0.0412327721715,0.138596713543,,-0.00488763162866,0.00415185419843,-0.00852633360773,-0.999943137169
1555426871834833347,,326,,1555426871,834601223,"""world""",,,0.175713181496,-0.0410021394491,0.138896510005,,-0.00201260298491,0.00603290786967,-0.00903060100973,-0.999939024448
1555426871844066445,,327,,1555426871,843896215,"""world""",,,0.175819218159,-0.0408520437777,0.139282152057,,-0.00299690756947,0.00757787236944,-0.00971844699234,-0.999919593334
1555426871854397503,,328,,1555426871,854209167,"""world""",,,0.176043361425,-0.0407121255994,0.139657378197,,-0.00330741680227,0.00800844468176,-0.00985428597778,-0.999913990498
1555426871864672016,,329,,1555426871,864479266,"""world""",,,0.176209449768,-0.0406696461141,0.140000969172,,-0.00368774612434,0.00863140076399,-0.00945108197629,-0.999911367893
1555426871874049580,,330,,1555426871,873778335,"""world""",,,0.176361098886,-0.040422655642,0.140535458922,,-0.00364611740224,0.00611228821799,-0.00834335293621,-0.999939858913
1555426871884283623,,331,,1555426871,884086733,"""world""",,,0.176449388266,-0.0403735637665,0.140870586038,,-0.00421308586374,0.00840294826776,-0.0094239031896,-0.999911487103
1555426871884416941,,332,,1555426871,884169193,"""world""",,,0.176527366042,-0.0402409508824,0.141394376755,,-0.00604654988274,0.00847103446722,-0.00957063026726,-0.999900043011
1555426871894619675,,333,,1555426871,894443122,"""world""",,,0.17666439712,-0.0399771854281,0.141905710101,,-0.0075937313959,0.00785142742097,-0.00708507327363,-0.9999153018
1555426871903885446,,334,,1555426871,903671097,"""world""",,,0.176767289639,-0.0399049706757,0.14232262969,,-0.00962339248508,0.00937697011977,-0.0088284695521,-0.99987077713
1555426871914251924,,335,,1555426871,914033405,"""world""",,,0.176909714937,-0.0397457890213,0.142948389053,,-0.0104148983955,0.00800848286599,-0.00798995047808,-0.999881803989
1555426871924605398,,336,,1555426871,924349612,"""world""",,,0.176927477121,-0.0395535826683,0.143419593573,,-0.0102580124512,0.00893330667168,-0.00750841060653,-0.999879360199
