rosbagTimestamp,x,y,z,roll,pitch,yaw,front,back,up,left,right,zrange,deltaX,deltaY,outlierCount,accX,accY,accZ,gyroX,gyroY,gyroZ,ref_x,ref_y,ref_z,ref_roll,ref_pitch,ref_yaw
1555426869139051461,-0.000699548865668,-0.000157999515068,0.0640356466174,0.00394533453534,-0.0176031431849,-0.000315953992244,0.911,0.862,3.641,1.1,0.868,0.059,1.0,3.0,0.0,-0.198777722362,0.0061203028931,9.80138939023,-0.000595561492225,3.54879787882e-05,0.00160129608555,-0.0809713453054,0.155146300793,-0.0465802960098,0.00969821873388,0.00644334757495,0.038161674324
1555426869157567040,-0.000668859516736,0.000106672981929,0.0652462244034,0.00142143336358,-0.0181933704227,-0.000356827338212,0.912,0.864,3.618,1.098,0.868,0.06,0.0,2.0,0.0,-0.211529037897,0.000596357110408,9.8068465966,-0.000996095523631,-0.000678832999929,0.00108862639252,-0.0809716433287,0.155157610774,-0.046597506851,0.00994455859115,0.00625526950847,0.0383720731975
1555426869177562818,-0.000225538984523,0.000136396920425,0.0636985898018,0.00102483659738,-0.0210650383008,-0.00037509284571,0.912,0.864,3.618,1.098,0.868,0.06,0.0,0.0,0.0,-0.204021852538,-0.0019208972792,9.82127810955,0.000317580952204,-8.80354516648e-05,0.000217767254499,-0.0809773355722,0.155150532722,-0.0465783700347,0.00983961133616,0.00639121127353,0.0381012844463
1555426869197735654,-0.000615013763309,-6.96825736668e-05,0.0622232072055,0.00173310838546,-0.018185480808,-0.000344735865156,0.912,0.864,3.618,1.098,0.868,0.06,0.0,2.0,0.0,-0.201339168269,0.00247700160602,9.77721583128,-0.00138708729801,-0.00182162286152,0.000798670827719,-0.080925039947,0.155165821314,-0.0466821193695,0.0120174404097,0.007309830176,0.0383867076715
1555426869217610018,-0.000247875694185,0.00011943973368,0.0626869723201,0.000547253856653,-0.0210277165948,-0.000368430424193,0.912,0.864,3.618,1.098,0.868,0.06,1.0,0.0,0.0,-0.205671571344,0.00223791315497,9.82098691821,-0.00158158440226,-6.20216838965e-05,0.000447002551387,-0.0809690058231,0.155154004693,-0.0465766601264,0.0102267746467,0.00692362281265,0.0382309176424
1555426869237699461,-0.000254246930126,0.00012260308722,0.0616749450564,0.000497002880705,-0.020688583836,-0.000357055455904,0.911,0.864,3.773,1.098,0.868,0.06,0.0,0.0,0.0,-0.211246215384,-0.00049480863323,9.79061121762,-0.00018453035716,0.000517660519337,-0.000553222562416,-0.0809788182378,0.155130460858,-0.0465760417283,0.0101882911609,0.00662700847538,0.0382929414746
1555426869257546999,-0.000987368286587,-6.27246772638e-05,0.0614844113588,0.00174583863357,-0.0155322077437,-0.000354511376346,0.911,0.864,3.773,1.101,0.866,0.059,1.0,4.0,0.0,-0.21265484618,-0.00180665130771,9.80628350973,0.000717579067953,0.000125045905553,0.000578085212776,-0.0808955654502,0.15516769886,-0.0466742105782,0.0121744000333,0.00740833977212,0.0383109062246
1555426869277823112,-0.000281496060779,0.000151767308125,0.0628234148026,0.00118701198959,-0.0217873312809,-0.000329357020121,0.911,0.864,3.773,1.101,0.866,0.058,3.0,-1.0,0.0,-0.213639060482,-0.00528136163601,9.80409782052,0.000205479295291,0.00117831523419,-0.00143761401776,-0.0809081345797,0.155157268047,-0.0466491989791,0.0121939018451,0.00704023663351,0.0383480090241
1555426869297875816,-0.000278814666672,0.000535089056939,0.0614242553711,-0.00099251625073,-0.0211510771294,-0.000391397912945,0.911,0.864,3.773,1.101,0.866,0.058,0.0,0.0,0.0,-0.201339953989,-0.00287128695199,9.81104197383,0.00121314854901,-0.000913007953494,-0.000473780486605,-0.0809604749084,0.155127078295,-0.0465890094638,0.0104191697185,0.00679036248816,0.0380426633892
1555426869317870295,-0.000267078517936,0.000192528939806,0.0612843371928,0.00215394063278,-0.0207803006072,-0.00031457013676,0.911,0.864,3.773,1.101,0.866,0.058,2.0,0.0,0.0,-0.210564941671,0.00289943467156,9.79799858987,0.00196621157273,-0.00128284521724,0.00120543227382,-0.0809109956026,0.155161902308,-0.0466644205153,0.0120053004772,0.00740227008541,0.0384272210486
1555426869337937958,-0.000259108986938,0.000532986363396,0.0612652488053,-0.00110452252538,-0.020568381644,-0.000380693806377,0.918,0.863,3.273,1.101,0.866,0.061,-2.0,0.0,0.0,-0.206592562627,0.000607294444344,9.81446259499,0.0015029270032,0.000662769834325,-0.00118080492571,-0.080904789269,0.155158728361,-0.0466706007719,0.0116247019845,0.00684867728116,0.038260258236
1555426869357661163,-0.00100653839763,0.000175403009052,0.0611980706453,0.0017513264619,-0.0155429165642,-0.000356053519566,0.918,0.863,3.273,1.102,0.868,0.062,1.0,4.0,0.0,-0.200441529304,0.0141892303736,9.8237035346,0.00204217733257,-2.47334604701e-05,-0.000537406760006,-0.0809049457312,0.155170157552,-0.0466620437801,0.0120018853015,0.00722340426912,0.0381739195643
1555426869377822057,-0.000785434502177,0.00108534260653,0.0644167587161,-0.00494121660297,-0.0173569391436,-0.000440238798411,0.918,0.863,3.273,1.102,0.868,0.061,-5.0,4.0,0.0,-0.20618747849,-0.0010717271777,9.81298909664,-0.000920474037184,-0.000622013521804,0.000581218783302,-0.0809672549367,0.155132621527,-0.0465831570327,0.00981154976906,0.00651726295382,0.0382253087154
1555426869397820358,-0.000241768400883,0.000199434012757,0.0651865303516,0.00238344075035,-0.0217283589075,-0.000290786372229,0.918,0.863,3.273,1.102,0.868,0.061,-1.0,0.0,0.0,-0.22163808804,-0.00206491180244,9.80921296477,0.00236376092616,0.000116465444015,-6.73898861704e-05,-0.0809741169214,0.155148774385,-0.0466032661498,0.00980702662976,0.00608835432408,0.0382945124696
1555426869417740800,-0.000201884904527,0.000349026406184,0.0657079741359,0.000302550509237,-0.0211125465979,-0.000337160615268,0.918,0.863,3.273,1.102,0.868,0.057,-1.0,0.0,0.0,-0.206367225554,-0.00389144307235,9.80130752921,0.00160224366636,0.000269801348785,0.000866007061369,-0.0809252262115,0.15518078208,-0.0466782152653,0.0119703675289,0.00743281279137,0.0384609657651
1555426869437600724,-0.00024202374334,0.000351190217771,0.0629834905267,0.000395277214089,-0.0207566692137,-0.000340963259504,0.918,0.863,3.273,1.102,0.868,0.057,0.0,0.0,0.0,-0.197071139384,-0.0125711048045,9.81735813618,0.00104433957103,-0.00269525530211,0.000307781644214,-0.0809727534652,0.155142918229,-0.0465917438269,0.00996405492822,0.00628005154863,0.0382769648584
1555426869457878209,-0.000237496089539,0.000164680473972,0.0629585310817,0.0016160731186,-0.0204995202045,-0.000312131192247,0.912,0.864,3.579,1.105,0.865,0.058,-1.0,0.0,0.0,-0.21191316342,0.00797362014942,9.80341252685,-0.000405139134973,0.00110848345736,0.000580888033779,-0.0809747800231,0.155161142349,-0.0465867631137,0.0099447313866,0.00627099502265,0.0384345173723
1555426869477686768,-6.49903304293e-05,0.000327836256474,0.0611880384386,-0.00016897184953,-0.0212781223969,-0.000342464245963,0.912,0.864,3.579,1.105,0.865,0.06,-1.0,0.0,0.0,-0.21027797129,0.00637025480275,9.8228954494,-0.000824104861371,-0.00251033101362,0.000821071484479,-0.0809560716152,0.155135259032,-0.0466076768935,0.00999811736559,0.00653547063744,0.0380676456333
1555426869497758163,-0.000273724668659,0.00035131315235,0.0613123178482,0.000420710077406,-0.0205100168043,-0.000318385492129,0.912,0.864,3.579,1.105,0.865,0.06,1.0,-2.0,0.0,-0.193743817862,0.00236496861151,9.82855087638,0.000926264787091,0.000229907052615,0.000432882108484,-0.0809655487537,0.155147656798,-0.0466081649065,0.0101121128861,0.00667975766949,0.0385583631261
1555426869517703679,-6.60424702801e-05,0.000134881440317,0.0613741725683,0.0010009714621,-0.0212494975764,-0.000307623323968,0.912,0.864,3.579,1.105,0.865,0.058,0.0,-1.0,0.0,-0.202198928241,-0.00258856465342,9.81068997145,0.00021360383841,-0.000642691576271,-0.000958990264524,-0.0808980688453,0.155162140727,-0.0466833785176,0.0122430784033,0.00742450111097,0.0383264862424
1555426869537663628,-8.27166513773e-05,0.000123125922983,0.0601982958615,0.000706622071614,-0.0210535867081,-0.000301889660376,0.913,0.862,3.795,1.105,0.865,0.058,0.0,-1.0,0.0,-0.217231863867,0.00782511857338,9.80216297686,0.000193208240915,-0.000699933935248,-0.000742156221722,-0.0809754505754,0.155149877071,-0.0465877763927,0.00995827334055,0.00641498602562,0.0384969721596
1555426869557886093,-0.000297358521493,0.00109750404954,0.0597919262946,-0.00421197547718,-0.0194169826721,-0.000389861198776,0.913,0.862,3.795,1.105,0.865,0.058,-4.0,1.0,0.0,-0.204588191919,-0.0017574373378,9.80860953212,-0.00027752827077,-0.000630478550978,-0.00127277409907,-0.0808823257685,0.155155107379,-0.0466884337366,0.0117451086066,0.00730351138493,0.0385720604739
1555426869577825663,-0.000234358740272,0.000198376845219,0.0608461759984,0.00214743136253,-0.0194330552654,-0.000295760423736,0.913,0.862,3.795,1.099,0.868,0.06,2.0,1.0,0.0,-0.223322616052,0.00650289694837,9.81990635276,0.00150130296907,0.00091653885257,-0.00130745735101,-0.0808921381831,0.155165687203,-0.0466662943363,0.0122818236868,0.00720587982531,0.0382071969704
1555426869597724416,-0.000256265833741,0.000519885565154,0.0607143640518,-0.00099572478768,-0.019775206967,-0.000349104821236,0.913,0.862,3.795,1.099,0.868,0.06,-2.0,0.0,0.0,-0.216351328008,0.00629018392239,9.79918908298,0.00147297866443,0.000210985653923,0.000800414365995,-0.0809718295932,0.155150547624,-0.0465732589364,0.00986652755124,0.00616263290685,0.0381448731533
1555426869617715910,-0.000246740382863,0.000160659881658,0.0609437562525,0.00155376555206,-0.019689719496,-0.000304328182268,0.913,0.862,3.795,1.099,0.868,0.062,-3.0,0.0,0.0,-0.209139226042,0.000814335985197,9.79567666054,0.000951055266825,-0.000142866872883,-0.00135519815459,-0.080896794796,0.155159845948,-0.0466925241053,0.0122374038281,0.00763127495961,0.0382745228479
1555426869637637447,-0.000252954778261,0.00067072204547,0.06133640185,-0.0025576281304,-0.0199799562012,-0.000341588055561,0.91,0.863,3.672,1.099,0.868,0.062,2.0,0.0,0.0,-0.217206117846,-0.000757346474711,9.80155954421,0.000936843765398,0.00185060281354,-0.001590404823,-0.0808769762516,0.155161291361,-0.0466515868902,0.0117168767701,0.00750842955074,0.0380780864834
1555426869657945257,-0.000262719549937,-1.97459053197e-06,0.061267927289,0.0031522097926,-0.020162330721,-0.000274227830055,0.91,0.863,3.672,1.103,0.869,0.06,2.0,0.0,0.0,-0.212413666807,-0.00465500835213,9.79770038188,-0.000931355416914,0.00178752594715,-0.00128207318661,-0.0809775963426,0.155147090554,-0.0465818829834,0.00990337593671,0.00681580618815,0.0381918141584
1555426869677897571,-0.000234112390899,5.2655991567e-06,0.0629697293043,0.00325490248058,-0.0202878072202,-0.00027152364224,0.91,0.863,3.672,1.103,0.869,0.06,1.0,-7.0,0.0,-0.202086880971,-0.000670416036664,9.78904942632,-0.00110810699977,0.00162565984834,-0.00155976325611,-0.0809900611639,0.155156984925,-0.0465765483677,0.00973377366163,0.00673662978172,0.0383733775472
1555426869697820642,-0.000298754428513,-4.48248392786e-05,0.0662798807025,0.00239063674685,-0.0224384221526,-0.000324376661812,0.91,0.863,3.672,1.103,0.869,0.06,1.0,-7.0,0.0,-0.20082201859,0.00697885630536,9.8268785727,-0.00172996785795,-7.46370797276e-06,0.00075554731869,-0.0809089168906,0.155161768198,-0.0466891750693,0.0121040106775,0.00730200292685,0.0381104960029
1555426869717803860,-0.000234760271269,0.000303569424432,0.0672201961279,-0.000229917455588,-0.0215058996521,-0.000325254120076,0.91,0.863,3.672,1.103,0.869,0.06,0.0,0.0,0.0,-0.210564959943,-0.00221144865121,9.80449016869,-0.000627473977318,0.000106095979958,0.00124578514605,-0.080976434052,0.15514819324,-0.04659095034,0.0101887421402,0.00693509634992,0.0382024073645
1555426869737645269,-0.000974931230303,0.000136870250572,0.0654648244381,0.00136592088898,-0.0161422058317,-0.000326405046493,0.913,0.863,3.822,1.103,0.869,0.06,4.0,-3.0,0.0,-0.20041784808,-0.00576884925831,9.81376677632,-0.000768113134805,0.000315011255324,0.00170955033293,-0.0809801891446,0.155149459839,-0.0465934537351,0.0100515910212,0.00675204745777,0.0383041822753
1555426869757565169,-0.000512635859195,0.000174717220943,0.0654784440994,0.0022112489206,-0.0216474799536,-0.000274602759704,0.913,0.863,3.822,1.1,0.87,0.059,-4.0,1.0,0.0,-0.210740869772,-0.00377902721084,9.80973862946,6.37800057726e-05,0.00153369353579,0.000736337188733,-0.0808843821287,0.155149415135,-0.046678699553,0.0120339537179,0.00729441157333,0.038339740692
1555426869777916506,-0.000254278216744,0.000876381760463,0.0664239525795,-0.00332932769015,-0.0216855798019,-0.000371794908211,0.913,0.863,3.822,1.1,0.87,0.059,-2.0,-2.0,0.0,-0.208158337343,0.00457545167272,9.82878008723,-0.000213142271501,-0.000265027196907,4.06814842614e-05,-0.0809820592403,0.155159950256,-0.0466017015278,0.00991212858052,0.00643293591415,0.0380439291952
1555426869797794509,-0.000442990480224,0.000126613012981,0.0672364830971,0.0012432197729,-0.0208249480867,-0.000291693869078,0.913,0.863,3.822,1.1,0.87,0.059,-2.0,-2.0,0.0,-0.228105748091,-0.00472434525203,9.82923500061,-0.00166043152554,-0.00132796785259,-0.00104659376524,-0.0809374377131,0.155173555017,-0.046673964709,0.0122501626306,0.00762377447504,0.038405245675
1555426869817750963,-0.000240546040004,7.7320379205e-05,0.0683040544391,0.000205620483141,-0.0221232474405,-0.000327059588551,0.913,0.863,3.822,1.1,0.87,0.059,-2.0,-2.0,0.0,-0.219763415884,-0.000902193897855,9.81336799622,0.000639102615602,0.000834579224781,0.000211322905304,-0.0809022113681,0.155162602663,-0.0466925613582,0.0121022797662,0.00727662052478,0.03829051632
1555426869838343360,-0.000256103841821,0.00046487923828,0.0653329566121,-0.00207471276069,-0.021361633303,-0.000374034245678,0.913,0.863,3.822,1.1,0.87,0.059,-2.0,0.0,0.0,-0.200139995702,0.0014717898611,9.80974096835,0.000450082319037,-1.56360402562e-05,0.00121576788758,-0.0808961838484,0.155178904533,-0.0466800145805,0.0118484654012,0.00719167167332,0.0379758720505
1555426869858212371,-0.000647839508019,-6.20067003183e-05,0.0636349245906,0.00222909470065,-0.0185853149144,-0.00029464746817,0.912,0.863,3.692,1.103,0.869,0.059,2.0,2.0,0.0,-0.209664872456,0.00111746679373,9.79345588803,-0.000641073003708,0.000481494291091,-0.000491341712831,-0.0809988081455,0.15514613688,-0.0465872846544,0.00984417388002,0.00624721487717,0.0380992016102
1555426869879284480,-6.70554363751e-05,-0.000103167600173,0.0642214268446,0.00135894582561,-0.0219836374622,-0.000313725057749,0.912,0.863,3.692,1.103,0.869,0.059,0.0,0.0,0.0,-0.213082716186,0.00402052835212,9.82230137229,-0.000306081343294,-0.00215733395254,0.000542139950178,-0.0809146463871,0.155179858208,-0.046692404896,0.0122880557488,0.00741325263488,0.0384267694097
1555426869898009695,-0.000274595542578,-0.00012132775737,0.0625007152557,0.000881871010039,-0.020381922917,-0.000311147851224,0.912,0.863,3.692,1.103,0.869,0.059,2.0,4.0,0.0,-0.221636790689,-0.00414980492264,9.82068871021,-0.00235816048564,-0.000258321716835,-0.000614726369249,-0.0809115171432,0.155164137483,-0.0466918647289,0.01197505499,0.00722823276366,0.0384299732585
1555426869917829619,-0.0010310378857,-0.000102348887594,0.0626376643777,0.00119101700416,-0.0158611227025,-0.000330444683459,0.912,0.863,3.692,1.103,0.869,0.06,4.0,0.0,0.0,-0.205514007155,0.00424609183363,9.80821718395,-0.00062511822408,-0.000383834463929,-0.000499536589799,-0.0809961259365,0.155147328973,-0.0465967580676,0.0099680276995,0.00665566813228,0.038464616014
1555426869937539706,-0.000492104212753,-6.6669905209e-05,0.0645117461681,0.00199371430258,-0.0203738980636,-0.000308725551468,0.912,0.861,3.714,1.103,0.869,0.06,-1.0,0.0,0.0,-0.205880189035,-0.0109809419455,9.82162426472,0.000380302459537,-0.000753407102049,8.5009283708e-05,-0.0809781104326,0.155157715082,-0.0466073490679,0.0100445354804,0.00649671439942,0.0383514946962
1555426869957642328,-0.000229556681006,9.0907291451e-05,0.0648876279593,6.72362635174e-05,-0.0210985650022,-0.000315741576539,0.912,0.861,3.714,1.103,0.866,0.058,2.0,-5.0,0.0,-0.208261230066,-0.00135847222075,9.81393868446,-0.000610943003022,0.00103905173985,0.000518270166064,-0.0809065774083,0.155154585838,-0.0466749742627,0.0119445286772,0.00729157151834,0.0385047395027
1555426869977677423,-0.000232677091844,9.14842021302e-05,0.0654451623559,0.000771655802244,-0.022257714189,-0.000284574952102,0.912,0.861,3.714,1.103,0.866,0.061,0.0,0.0,0.0,-0.213636703324,-0.00844312244444,9.81289904952,0.00199430857242,0.000274529646309,-3.87885048398e-05,-0.0809798315167,0.155132398009,-0.0466093234718,0.0103442122622,0.00669795631439,0.0383650506008
1555426869997941573,-0.000319599406794,0.000106530882476,0.0640934258699,0.000557014836189,-0.0213226179931,-0.000309468453778,0.912,0.861,3.714,1.103,0.866,0.061,0.0,0.0,0.0,-0.220621732324,-0.00271742723649,9.80380312085,0.000382194922873,-9.02633458624e-05,0.00114517656368,-0.0809836313128,0.155169337988,-0.0465944595635,0.00972272827765,0.00673501517431,0.0385374905055
1555426870018306060,-0.000295834906865,-0.000101090845419,0.0641226023436,0.00128068595015,-0.020777381533,-0.000280952051733,0.912,0.861,3.714,1.103,0.866,0.062,-3.0,7.0,0.0,-0.197794275507,0.00449789840699,9.81962334752,-0.00147845895061,-2.46417334747e-05,-0.000628304004527,-0.080960907042,0.155147746205,-0.0466193407774,0.0100370064293,0.00668546193003,0.0384054853995
1555426870038436754,-0.00157233700156,0.000619507976808,0.0632514879107,-0.00374346718478,-0.012074294886,-0.000353671953952,0.91,0.863,3.665,1.103,0.866,0.062,0.0,-1.0,0.0,-0.205754802804,0.0129492335056,9.81120452642,0.0010757785258,0.000446878430915,-0.00264179676449,-0.0809742584825,0.15514062345,-0.0465991832316,0.00994891135949,0.00669993858148,0.0384998353005
1555426870058697729,-0.000140094445669,-8.58044368215e-05,0.0668192431331,-0.000260052543978,-0.0217923330303,-0.000353511585621,0.91,0.863,3.665,1.099,0.867,0.06,-1.0,0.0,0.0,-0.202177512813,-0.0021543233814,9.8351781106,-0.000417242311373,-0.000508808629604,-0.00232481817693,-0.0809651687741,0.155172675848,-0.0465956926346,0.00994119026325,0.00663241070854,0.0386831211202
1555426870077954079,-5.91085445194e-05,6.06526045885e-05,0.0674341693521,-0.000260052543978,-0.0217923330303,-0.000353511585621,0.91,0.863,3.665,1.099,0.867,0.06,-1.0,0.0,0.0,-0.210755104087,-0.00929275713977,9.81217165589,0.00119606660726,-0.00259560236284,0.000761377339819,-0.0809538513422,0.15515512228,-0.0465817861259,0.0103121536356,0.00717178500705,0.0381234423555
1555426870097718228,-0.00027485541068,0.000233777871472,0.0647535175085,-0.00163017421847,-0.0200627409798,-0.000394369489675,0.91,0.863,3.665,1.099,0.867,0.058,1.0,-1.0,0.0,-0.192385308668,-3.46740865166e-05,9.81772066355,-0.000295238031944,0.00028896458409,0.000973515480605,-0.0809654220939,0.155156448483,-0.0466011576355,0.0100650075826,0.00691721617668,0.038350471047
1555426870117988092,-8.80540465005e-05,-0.000105421771877,0.0649877265096,0.00129960518698,-0.0212881321375,-0.000332862659479,0.91,0.863,3.665,1.099,0.867,0.06,0.0,0.0,0.0,-0.213877498973,0.0006749120116,9.81000935555,0.000306966213677,9.41961247895e-05,0.000861874415323,-0.0808977633715,0.15516717732,-0.0466848649085,0.0122284561911,0.00748019691482,0.0382517368352
1555426870137672646,-0.000294756551739,-0.000130380867631,0.0632820427418,0.000773645890981,-0.0198358667026,-0.000334893157263,0.912,0.866,3.327,1.099,0.867,0.06,3.0,-3.0,0.0,-0.204071279783,0.00115442859133,9.79903471649,-0.000169686501267,0.000222041380978,0.000548317365587,-0.0809115767479,0.155177935958,-0.0466820038855,0.012164658652,0.00730630729114,0.0384822817253
1555426870157735104,-0.000340629048878,9.9615448562e-05,0.0635212063789,0.000489626002507,-0.0209308690773,-0.000318176229825,0.912,0.866,3.327,1.099,0.867,0.059,1.0,-1.0,0.0,-0.219157808796,0.00558725438314,9.81998119712,-0.00176205465786,-0.000673812460136,-0.00123302056813,-0.0809710100293,0.155133679509,-0.0465861074626,0.0103201285082,0.00675690908063,0.0382640991209
1555426870177751263,-0.00014032467152,0.00030658999458,0.0636589825153,-0.000278359175729,-0.0218428165777,-0.000311613611831,0.912,0.866,3.327,1.099,0.867,0.06,0.0,0.0,0.0,-0.215770699494,0.00709116395912,9.79569946468,-0.000939553544811,0.00182596532253,-0.000815149917187,-0.0809640586376,0.155165329576,-0.0466138273478,0.0102273180689,0.00671893207876,0.0382394369413
1555426870197673393,-0.000129673629999,-8.50317956065e-05,0.0623978227377,0.00010454572567,-0.0207615378051,-0.00035405058966,0.912,0.866,3.327,1.099,0.867,0.06,0.0,0.0,0.0,-0.214963820279,0.00431302103971,9.81593024611,0.000791946736078,0.000399739276777,-0.00175663366862,-0.0809054523706,0.15517988801,-0.0466874055564,0.0118333569711,0.00723284739743,0.0383936465712
1555426870217803369,-0.000127426654217,7.95683008619e-05,0.0615834742785,0.00010454572567,-0.0207615378051,-0.00035405058966,0.912,0.866,3.327,1.099,0.867,0.06,1.0,0.0,0.0,-0.207479877602,0.00134324305051,9.82066064358,0.000422687845122,-0.00154356556707,4.83116464057e-05,-0.080971814692,0.155163899064,-0.0466106049716,0.00982215622937,0.00676156146757,0.038309664083
1555426870237611647,-0.000320160877891,0.000296040641842,0.0615370683372,-0.000417720750603,-0.0196602853242,-0.000368380132321,0.911,0.866,3.624,1.099,0.867,0.06,1.0,0.0,0.0,-0.217169974744,0.00449954464944,9.80563388407,0.00116325016883,0.000363588945574,0.000412692863711,-0.0809198990464,0.155161812901,-0.0466750860214,0.0120278643748,0.00781990107459,0.0385196070852
1555426870258000513,-0.000387078180211,-8.786906983e-05,0.0630377009511,0.000923878735194,-0.0209825739338,-0.00036325549778,0.911,0.866,3.624,1.101,0.869,0.06,0.0,0.0,0.0,-0.210849006716,0.00427349009318,9.80523802757,-0.0014382279232,-0.00247086863588,0.000774909722164,-0.0808918327093,0.155171751976,-0.0466855950654,0.0122913265714,0.00746492797908,0.0382395097939
1555426870277879317,-0.000364883744624,-0.000117539173516,0.0630879402161,0.000923878735194,-0.0209825739338,-0.00036325549778,0.911,0.866,3.624,1.101,0.869,0.064,-4.0,0.0,0.0,-0.213864105195,-0.000620622769857,9.8090077275,-0.000601359849305,0.00195281917539,-0.000789688510712,-0.0809708461165,0.155161008239,-0.0466004163027,0.00980396821682,0.00669680136286,0.0385685534573
1555426870297923232,-0.000145153171616,0.000607496709563,0.0633591040969,0.00207692586316,-0.0185319185345,-0.000354842158378,0.911,0.866,3.624,1.101,0.869,0.064,0.0,0.0,0.0,-0.194631388653,-0.00250171037478,9.80656768441,0.000538111919029,-0.00128683007605,0.00182008010063,-0.0809746235609,0.15515974164,-0.0466013476253,0.00999256690719,0.00612891664571,0.0381405183787
1555426870317848940,-0.000710349297151,-0.00030051995418,0.0641589388251,0.00189980887587,-0.0205590980309,-0.000332376873148,0.911,0.866,3.624,1.101,0.869,0.06,5.0,-1.0,0.0,-0.210836161114,0.000770579226228,9.77912085414,0.00138736739806,0.000857025524585,0.000559481576145,-0.0808981135488,0.155162125826,-0.0466832220554,0.0121600381923,0.00750021970596,0.0385717212158
1555426870337736069,-0.00050171156181,-6.97595096426e-05,0.0679377168417,0.00189980887587,-0.0205590980309,-0.000332376873148,0.911,0.866,3.624,1.101,0.869,0.06,5.0,-1.0,0.0,-0.190101185236,0.0141268867208,9.84001141906,-0.00254985945023,-0.000445354005258,0.000554765843462,-0.0811251327395,0.15507376194,-0.0465177223086,0.0135624056477,-0.000366662621427,0.0356797320001
1555426870357728446,-0.000725477701053,0.000279769359622,0.065872579813,-0.000942031598,-0.0191609238945,-0.000358786413085,0.91,0.864,3.66,1.103,0.868,0.06,3.0,2.0,0.0,-0.23508933356,0.0317118738801,9.74892524779,0.0057779318832,-0.000951083614926,-0.0161402563146,-0.0811642035842,0.155103445053,-0.0465455390513,0.0135800042784,-0.00103334875746,0.0361607966856
1555426870377753709,-0.00071455759462,-0.000421411881689,0.0668645724654,-0.000389565689324,-0.0204516894152,-0.000328659143179,0.91,0.864,3.66,1.103,0.868,0.06,-1.0,0.0,0.0,-0.185654176734,0.0883205296285,10.1239335001,0.00250739191367,-0.00809470674147,0.0141958647177,-0.0809594467282,0.155137494206,-0.0466907247901,0.0118223975775,0.00621860165844,0.0381616079464
1555426870397851024,-0.000329175993102,6.01972024015e-05,0.0651477426291,0.00131385582959,-0.0206354079991,-0.000259849052073,0.91,0.864,3.66,1.103,0.868,0.06,5.0,-4.0,0.0,-0.224756097514,-0.0270811143424,9.73090120554,-0.000713688356048,0.002781715191,0.00159299425302,-0.0811888352036,0.155090019107,-0.0465122014284,0.0131145642867,-0.00171806940281,0.036127236895
1555426870417753884,-0.000324639608152,0.000158280789037,0.0669032260776,-4.07044967755e-05,-0.0189806882259,-0.000476573424783,0.91,0.864,3.66,1.103,0.868,0.06,1.0,0.0,0.0,-0.267491277102,-0.0833886681776,9.52052832663,0.0118825285621,0.00846840337817,-0.0122362618936,-0.0810465663671,0.155160784721,-0.0466001406312,0.00939462297724,0.00380851358799,0.037593814799
1555426870437620205,-0.000269226642558,0.000380517391022,0.0678881779313,0.000901059358771,-0.0178408802465,0.000371161464682,0.915,0.862,3.736,1.103,0.868,0.06,0.0,0.0,0.0,-0.296051289327,0.11546464772,9.8690978086,-0.0125444021153,0.00794724980057,0.0886251491312,-0.0810579359531,0.155131623149,-0.0465404093266,0.0099175034614,0.00291027164795,0.0393925342941
1555426870457635291,-0.000298946484691,0.000163503442309,0.0642989203334,0.000901059358771,-0.0178408802465,0.000371161464682,0.915,0.862,3.736,1.103,0.866,0.057,0.0,0.0,0.0,0.0645489713224,0.0433778205654,9.67500942528,-0.0525649867368,0.000655255766922,-0.0815365050668,-0.0810608938336,0.155150100589,-0.0466097965837,0.0103722788786,0.00430195823627,0.037960723476
1555426870477770862,-0.000265632756054,0.000104804254079,0.0641751438379,0.000466686894367,-0.0164596431904,-0.000126607213,0.915,0.862,3.736,1.103,0.866,0.061,0.0,0.0,0.0,-0.250008723568,-0.0347376069822,9.79994805157,0.0998115242635,-0.0435429376553,0.0299145478332,-0.0812492221594,0.155081227422,-0.0465174093843,0.0123384521313,-0.00317979032519,0.0368212351529
1555426870497804539,-0.000362239748938,-3.66622552974e-05,0.0632763132453,-0.00561321120859,-0.0103956368316,-0.000370920278255,0.915,0.862,3.736,1.103,0.866,0.061,-5.0,0.0,0.0,-0.216311749667,-0.805256320238,9.4184347719,-0.00232774713398,-0.0508841492596,-0.030733374161,-0.0811398476362,0.155083358288,-0.0466145128012,0.0102602502294,0.000100696508074,0.0386555834512
1555426870517727656,-0.000649828230962,0.000801749120001,0.0631747916341,-0.00100146287254,-0.00653405949273,-0.00266265420522,0.915,0.862,3.736,1.103,0.866,0.062,-1.0,-1.0,0.0,-0.980068699345,0.20757341478,10.4505917108,-0.0230533273229,-0.317608425155,-0.147197124572,-0.0812437906861,0.155083030462,-0.0466281808913,0.00950941705617,-0.00483195983884,0.0351951988296
1555426870537699680,-0.000279869040241,0.00028207336436,0.0658230483532,-0.00194344063515,0.00244331168053,-0.00553124462381,0.908,0.865,3.786,1.103,0.866,0.062,-2.0,-8.0,0.0,0.332778125927,-0.342698402368,10.678072958,0.0470538994337,-0.559455110462,-0.152059973499,-0.0818051993847,0.154980286956,-0.0467328503728,0.0118762578805,-0.0224685126374,0.031751984293
1555426870557647339,-0.000372223905288,0.00042221476906,0.0677783489227,0.00153612471059,0.0130974075157,-0.00825758400927,0.908,0.865,3.786,1.1,0.864,0.062,0.0,0.0,0.0,0.205598627329,-0.268955712263,9.54926271379,0.180355760475,-0.462022230138,-0.111040909447,-0.081875897944,0.154991105199,-0.0471134856343,0.00940672616668,-0.0216681129924,0.0310156874172
1555426870577636827,-0.000209436751902,0.000508167024236,0.0693156793714,0.00153612471059,0.0130974075157,-0.00825758400927,0.908,0.865,3.786,1.1,0.864,0.059,0.0,0.0,0.0,-0.0958587874565,-0.394117976278,10.4544052649,0.221726003928,-0.179617199326,-0.028315296712,-0.0826471596956,0.154989272356,-0.0473689995706,0.00464404999925,-0.026844673792,0.0308658519873
1555426870597766599,-0.000209436751902,0.000508167024236,0.0693156793714,0.00554832526519,0.0174799449368,-0.0091337842937,0.908,0.865,3.786,1.1,0.864,0.059,-1.0,-2.0,0.0,-0.157542682495,-0.000612634097124,10.2463917375,0.18716909194,-0.0422749192754,0.00072034183751,-0.0833201855421,0.154980123043,-0.0475246682763,0.00199009078547,-0.0276581852698,0.0314015599107
1555426870617825060,-0.000291882141028,0.000852951663546,0.0661600232124,0.00835945772319,0.0173782954069,-0.00899402451252,0.908,0.865,3.786,1.1,0.864,0.062,0.0,0.0,0.0,-0.284553434104,0.690017493814,9.76341113985,-0.0875796919558,0.114773129978,0.00907334198022,-0.0839839503169,0.155094623566,-0.0476756170392,0.00550422817242,-0.0228495422453,0.0311632678899
1555426870637660465,-0.000253885576967,0.000887711939868,0.066709689796,0.00160556000411,0.0153623615243,-0.00841594898752,0.915,0.864,3.717,1.1,0.864,0.062,-2.0,0.0,0.0,-0.0907547255047,-0.702948465049,10.7682954955,-0.120624286308,-0.0688585391811,-0.0397486613101,-0.0849393382668,0.155346333981,-0.047935012728,0.0107478772848,-0.0218119555741,0.030809529037
1555426870657852450,-0.000412729714299,0.00152239541057,0.0672387108207,0.00484709466438,0.0195455592573,-0.0105902598118,0.915,0.864,3.717,1.103,0.871,0.063,0.0,0.0,0.0,-0.114780962029,0.581549231485,9.44166108191,0.0503887139119,-0.177054539278,-0.0693251957443,-0.0856434628367,0.155663758516,-0.0483668111265,0.00682821261845,-0.0254691141409,0.0314996087704
1555426870678157518,-0.000773626496084,0.00127706606872,0.0644743517041,0.00985633630784,0.0213657050267,-0.0124187217178,0.915,0.864,3.717,1.103,0.871,0.06,1.0,1.0,0.0,-0.0386943835532,0.712285810634,9.86075850964,0.135886021955,-0.0698648104378,-0.036262050811,-0.0867285132408,0.156235545874,-0.0486129187047,0.00264585321918,-0.028289975776,0.0285038576665
1555426870697845982,-0.000990578904748,0.000814972096123,0.0647277310491,0.00985633630784,0.0213657050267,-0.0124187217178,0.915,0.864,3.717,1.103,0.871,0.065,1.0,1.0,0.0,0.0659022774082,-0.839752407521,10.3891550159,0.0599026280408,0.124838888536,-0.00513513634222,-0.0875149071217,0.156525149941,-0.0488711073995,0.00306139577365,-0.0274776386372,0.0287689480978
1555426870717849081,-0.000853407836985,0.00069051142782,0.066680572927,0.0104873015879,0.0155157741673,-0.0127265404876,0.915,0.864,3.717,1.103,0.871,0.065,0.0,-4.0,0.0,-0.596251580156,1.06130479731,9.52994117439,-0.103596799957,0.193351004554,0.0501299503613,-0.088292337954,0.156968459487,-0.0490964874625,0.00401639408918,-0.0232868687178,0.0296501852782
1555426870738001864,-0.0022810974624,0.000850985466968,0.0695276558399,0.00720089214314,0.0202461308298,-0.0109395625171,0.915,0.863,3.667,1.103,0.871,0.069,0.0,9.0,0.0,0.627471947595,-0.184592231009,9.87705353022,-0.15272652943,0.0245646421132,0.0629093951681,-0.0897229760885,0.157598748803,-0.0492550097406,0.00738397941473,-0.0261817345362,0.0286266635906
1555426870757750544,-0.00319302640855,0.00324449059553,0.0718553364277,-0.00309526053739,0.017310503393,-0.00656108017482,0.915,0.863,3.667,1.101,0.866,0.069,-3.0,1.0,0.0,-0.332386910655,0.0868440345861,10.242925508,0.113845775675,-0.0806426649812,0.0543556379972,-0.0904503017664,0.158125728369,-0.0496901422739,0.00372543126163,-0.0231890027355,0.0328012703771
1555426870777845329,-0.00376568012871,0.00380300171673,0.0742036551237,0.00959789004792,0.0103903063482,-0.00622405401798,0.915,0.863,3.667,1.101,0.866,0.072,-3.0,0.0,0.0,-0.211988994498,0.600192493871,9.09819914281,0.510614200808,0.143471095891,0.07581024267,-0.0918182358146,0.158921182156,-0.0500156506896,-0.00683983779712,-0.0270937486989,0.0311461656131
1555426870798198923,-0.00359394471161,0.00370621029288,0.0760954245925,0.0163989969787,0.00303417401981,-0.00468813775696,0.915,0.863,3.667,1.101,0.866,0.073,-5.0,-1.0,0.0,-0.0514206337184,0.309947818592,9.55242430329,0.474778172548,0.325412918598,0.0295100053412,-0.0923217087984,0.159680724144,-0.0504759401083,-0.0136468979145,-0.0139526649333,0.0356153142959
1555426870817930588,-0.00384943024255,0.00461730128154,0.0769430696964,0.0212766056435,0.00245854501398,-0.00353864747049,0.915,0.863,3.667,1.101,0.866,0.073,-1.0,2.0,0.0,0.832945225239,-0.669970095679,9.00093889654,0.180218441232,0.101199705304,0.0365946671475,-0.0929801017046,0.160313084722,-0.0506623759866,-0.017207406162,-0.0138019928461,0.0339055671256
1555426870837729545,-0.00459355209023,0.00541805196553,0.078629411757,0.0220140391105,0.00798858653396,-0.00288849728766,0.92,0.859,3.639,1.101,0.866,0.073,-1.0,-1.0,0.0,-0.0160773065861,0.313409479894,8.92931401312,-0.0601970404993,-0.305154352055,0.0352625123584,-0.093629963696,0.16125690937,-0.0507788807154,-0.0145883907404,-0.0172868693949,0.0350527291922
1555426870857768311,-0.00554616563022,0.00578908482566,0.0774954929948,0.0220140391105,0.00798858653396,-0.00288849728766,0.92,0.859,3.639,1.101,0.871,0.073,-1.0,-1.0,0.0,-0.298771797772,0.0905955716036,9.49429011583,-0.0471568888665,-0.203881659492,0.0359927802576,-0.0939837619662,0.161958262324,-0.0508019924164,-0.0187452824104,-0.0208821715505,0.0367766840591
1555426870877754303,-0.00589204905555,0.00597596820444,0.0768416598439,0.0231969570101,0.0191283729919,-0.000552961447794,0.92,0.859,3.639,1.101,0.871,0.074,-1.0,6.0,0.0,-0.464507269934,0.630606859177,10.296761992,0.0795426130035,0.141736862034,0.0308786974522,-0.0943236574531,0.16308991611,-0.0508366934955,-0.0193056836796,-0.0164144957913,0.0361118333958
1555426870898029916,-0.00840464048088,0.00609440216795,0.0759154632688,0.0244362382174,0.0119090603045,-0.000459807278279,0.92,0.859,3.639,1.101,0.871,0.072,0.0,8.0,0.0,0.488313660286,1.13498424612,9.50621024966,0.0220323837131,0.411302260598,-0.0040431651338,-0.0945860743523,0.163860633969,-0.0507536605,-0.0183482310453,-0.00836527519142,0.0365787393742
1555426870917888641,-0.00981570128351,0.00608854973689,0.0757384598255,0.0250581050573,-0.00536581914778,-0.00219989121474,0.92,0.859,3.639,1.101,0.871,0.072,2.0,0.0,0.0,0.351874839887,-0.482171123698,9.92033111215,-0.0840258283168,0.481851628272,-0.022685084965,-0.0947848334908,0.164755150676,-0.0507013760507,-0.016001033142,0.00300455668232,0.0362324003248
1555426870937544647,-0.010258433409,0.00569512788206,0.0773106142879,0.022342914538,-0.00565469514405,-0.000883500115612,0.92,0.857,3.64,1.101,0.871,0.075,0.0,8.0,0.0,-0.218115049247,-0.165734412353,10.1603768563,-0.100030411138,0.36999669867,-0.012612777736,-0.0949600115418,0.165891245008,-0.0502901040018,-0.0144269959558,0.0103046506338,0.0361566858619
1555426870957805007,-0.012522995472,0.00541484635323,0.0773510038853,0.021494163018,-0.0113013425482,-0.00201332156604,0.92,0.857,3.64,1.102,0.867,0.075,2.0,0.0,0.0,0.0471759525826,0.222026690338,9.69310363412,-0.101323367525,0.0461931532858,-0.0335120269769,-0.0951645150781,0.166546106339,-0.0500667281449,-0.0135637243628,0.0110268571354,0.0339685109541
1555426870977824275,-0.0137091577053,0.00483023561537,0.0770590230823,0.021494163018,-0.0113013425482,-0.00201332156604,0.92,0.857,3.64,1.102,0.867,0.074,2.0,0.0,0.0,0.079638391966,-0.502549912781,9.36352649331,-0.169009695546,0.0378498940319,-0.0674096047781,-0.0953440442681,0.167224764824,-0.0497163124382,-0.0104191337712,0.0121113558646,0.0335347507642
1555426870997913237,-0.0138942310587,0.00466712610796,0.0774756669998,0.0169296651154,-0.0173667886785,-0.00402692401234,0.92,0.857,3.64,1.102,0.867,0.075,5.0,2.0,0.0,-0.341028437577,0.312646491341,9.77941847742,-0.192443299386,0.197569368497,-0.0537905609869,-0.0958570241928,0.168112620711,-0.0490907840431,-0.00303519720516,0.0181634773651,0.0316574543329
1555426871017856667,-0.0159647166729,0.00355278048664,0.0788019225001,0.0105404472561,-0.0235435903125,-0.00562858992359,0.92,0.857,3.64,1.102,0.867,0.075,2.0,1.0,0.0,0.502854918167,-0.461533558778,9.15865584433,-0.145493217462,0.207538129734,-0.0207452342658,-0.0962187200785,0.16868840158,-0.0485862866044,0.00149011251063,0.0236748724493,0.0323232635178
1555426871037602914,-0.0165110807866,0.00329194101505,0.0801632478833,0.0113382502158,-0.020971979546,-0.00490671670343,0.924,0.855,3.611,1.102,0.867,0.077,7.0,8.0,0.0,0.360484280214,0.118192985952,10.1560405612,-0.174375632248,0.15565695538,-0.0107587411611,-0.0969972237945,0.169282630086,-0.0478112027049,0.00976096387921,0.0228158662004,0.0302233421197
1555426871057819653,-0.0181806776673,0.00210918858647,0.0816027373075,0.00755714819559,-0.0222512414592,-0.00523294977578,0.924,0.855,3.611,1.103,0.872,0.077,2.0,0.0,0.0,-0.191143579334,0.636263894141,9.37349014878,-0.0862665704461,-0.0629568826593,-0.022560582184,-0.0973625257611,0.16962711513,-0.0474995225668,0.00542541135636,0.0255947092814,0.0321820925335
1555426871077750591,-0.0192596595734,0.00137379672378,0.0805784165859,0.00473028488196,-0.0239992530138,-0.00591854054697,0.924,0.855,3.611,1.103,0.872,0.075,3.0,1.0,0.0,-0.250428791195,0.0304936339078,10.2142367291,-0.140846018005,-0.0382804397952,-0.0297744385121,-0.0983319506049,0.169943764806,-0.046587780118,0.0122284411338,0.0208643259001,0.0291081205139
1555426871097730083,-0.0196667741984,0.000516873144079,0.0812917798758,0.000857811989344,-0.0279127287044,-0.00662988595844,0.924,0.855,3.611,1.103,0.872,0.074,5.0,1.0,0.0,0.350524059981,0.504517500848,9.76907533765,-0.262496037451,0.072523202805,-0.0444636049277,-0.0987975373864,0.170159861445,-0.046174891293,0.013988903568,0.0281869745844,0.0317354850856
1555426871117768813,-0.0196668822318,-0.000249500852078,0.079566821456,0.000857811989344,-0.0279127287044,-0.00662988595844,0.924,0.855,3.611,1.103,0.872,0.074,0.0,0.0,0.0,0.695554076135,-0.409071609043,9.09023698926,-0.226386336099,-0.00141626828748,-0.0409950914405,-0.0993822440505,0.170253783464,-0.0457040406764,0.0164881186599,0.0267807640219,0.0283639997097
1555426871137649204,-0.0202093031257,-0.00080247875303,0.0808510929346,-0.00863487591343,-0.0253791366431,-0.00869166522293,0.924,0.85,3.55,1.103,0.872,0.074,2.0,-1.0,0.0,-0.00436839457165,0.0679149758304,9.92313543677,-0.00771652746371,-0.182013511675,-0.0270313763475,-0.100200235844,0.170288562775,-0.0450644753873,0.0176847248137,0.0248284646944,0.0292448519141
1555426871157864422,-0.0203529838473,-0.00143085489981,0.0786434933543,-0.00699617879925,-0.0189183452893,-0.00921237563388,0.924,0.85,3.55,1.103,0.872,0.074,-1.0,3.0,0.0,0.00921097549202,0.115961524006,9.50052558661,0.0319290856368,-0.153161723242,-0.0253135354953,-0.100859478116,0.170146986842,-0.044668931514,0.0187508046284,0.0249913681777,0.0298832456166
1555426871177945821,-0.0208954997361,-0.00271753990091,0.0799933075905,-0.00715906334912,-0.022169563557,-0.00903453681031,0.924,0.85,3.55,1.103,0.872,0.077,2.0,0.0,0.0,-0.748054617494,0.454405510537,10.2408953547,-0.0761810379175,-0.136263400204,-0.0385876395881,-0.101997151971,0.169776976109,-0.0440307445824,0.0198086523445,0.0170549088247,0.0276193733091
1555426871197915825,-0.0197317898273,-0.00388070242479,0.0826334059238,-0.0148737910985,-0.0141096792072,-0.0111455205767,0.924,0.85,3.55,1.103,0.872,0.077,1.0,1.0,0.0,0.341039364561,-0.862974770665,10.4479967165,-0.239447376902,-0.157595969681,-0.0501911905828,-0.102736376226,0.169609889388,-0.0437558107078,0.0237812858364,0.00927991912757,0.0246520795785
1555426871217786342,-0.0202348344028,-0.0040177879855,0.0818043574691,-0.0161632812147,-0.00827409092669,-0.0116964765914,0.924,0.85,3.55,1.103,0.872,0.077,3.0,0.0,0.0,-0.488508884199,1.10298185013,9.35327573955,-0.136429914351,-0.298269215109,-0.0495063836756,-0.103514567018,0.169458091259,-0.0433163493872,0.0291944471972,0.00889430666103,0.0256691636384
1555426871237658039,-0.0203638039529,-0.00516199646518,0.083067163825,-0.0161632812147,-0.00827409092669,-0.0116964765914,0.924,0.85,3.55,1.103,0.872,0.077,3.0,0.0,0.0,0.128058207203,0.0381101050973,9.71917987704,0.00653243610879,-0.286586826224,-0.0252141746195,-0.104718632996,0.169216185808,-0.0429295040667,0.0307630092902,-0.00065101972983,0.0242463826841
1555426871257698643,-0.0192994493991,-0.0054699932225,0.0826497524977,-0.0178099522077,-0.00239703795622,-0.0125446684314,0.928,0.85,3.709,1.105,0.863,0.08,1.0,-1.0,0.0,-0.812285111994,-0.441954486072,10.0461433125,0.0377393270736,-0.119003236797,-0.0262437464552,-0.105300873518,0.169071659446,-0.0428771451116,0.0270901985645,0.00152892312249,0.0238321463869
1555426871277935772,-0.0192681793123,-0.00599279627204,0.0823431387544,-0.0183452288615,0.00207902414281,-0.0134115013588,0.928,0.85,3.709,1.105,0.863,0.08,0.0,0.0,0.0,-0.0472725504125,0.175666639041,9.80687700212,0.0298145502954,-0.150030145406,-0.0102164882737,-0.106634579599,0.16869983077,-0.0428062900901,0.0274587588069,-0.00227430408079,0.0248986023563
1555426871298106166,-0.0194779355079,-0.00615199934691,0.0828848704696,-0.0186537727185,0.00659887157501,-0.0136688646692,0.928,0.85,3.709,1.105,0.863,0.078,0.0,0.0,0.0,-0.707740112096,0.140686639845,10.4139507186,0.0115799965832,-0.122965621025,0.00520227452927,-0.10757073015,0.168506234884,-0.0428105406463,0.0289189012609,-0.00740008980906,0.0257130975437
1555426871317767662,-0.0198328085244,-0.0061751161702,0.0815501958132,-0.0192107333292,0.00340896140823,-0.0120251044281,0.928,0.85,3.709,1.105,0.863,0.078,0.0,-4.0,0.0,0.264252723623,-0.354549173601,9.59338697255,0.109851533382,-0.0670035060014,0.035990258577,-0.10837046057,0.168374374509,-0.0428802147508,0.0260395615258,-0.00480919829292,0.0248765513304
1555426871337643270,-0.0190511494875,-0.00593488616869,0.0827081501484,-0.0182410951017,0.00462133246505,-0.0113017940372,0.933,0.85,3.497,1.105,0.863,0.085,-1.0,0.0,0.0,-0.486380936243,0.32895949211,10.4657102716,0.172636937596,0.115575240809,0.0344607885182,-0.109569877386,0.168125107884,-0.0429028682411,0.0245849943494,-0.0039999259011,0.0266879529042
1555426871357706283,-0.0188773162663,-0.005393658299,0.0842943564057,-0.0106547124714,0.00393605456327,-0.011468376844,0.933,0.85,3.497,1.113,0.864,0.084,0.0,1.0,0.0,0.665617720708,-0.596829796694,9.55518009603,0.210717444733,0.0478802866423,0.00399803937756,-0.110552467406,0.16806319356,-0.0430067032576,0.0188213965452,-0.00306471757373,0.0234849703964
1555426871377645501,-0.0188696533442,-0.00572311226279,0.0850423127413,-0.0106547124714,0.00393605456327,-0.011468376844,0.933,0.85,3.497,1.113,0.864,0.084,-12.0,-8.0,0.0,0.741055792719,-0.474038450718,9.19007527292,0.24029381272,-0.0151384125632,0.00263551883035,-0.112110435963,0.167800650001,-0.0434017181396,0.0129665278131,-0.00584989912973,0.0270467082789
1555426871397777748,-0.0177719220519,-0.00394274294376,0.0914116948843,-0.0174163494822,-0.00255924241173,-0.00918999779865,0.933,0.85,3.497,1.113,0.864,0.089,-4.0,-2.0,0.0,-0.671671562344,0.481488863267,10.4816299009,0.111386154993,-0.0713218175478,-0.00276704881958,-0.113333471119,0.167685300112,-0.0435927547514,0.0125522685903,-0.0126841310425,0.0256749712265
1555426871417689787,-0.0174228958786,-0.00306802475825,0.0942712053657,-0.00391996402484,0.00765878784262,-0.0105843883738,0.933,0.85,3.497,1.113,0.864,0.089,-1.0,0.0,0.0,-0.66167355448,0.626978808045,10.2115633821,0.256796456599,-0.130783854715,-0.00706031416814,-0.114051215351,0.167711347342,-0.0437951013446,0.00754809206432,-0.0105005386887,0.0261793580942
1555426871437746421,-0.0176618192345,-0.0028738018591,0.0973445549607,0.00493627831168,0.0103857664908,-0.0110283175619,0.928,0.851,3.64,1.113,0.864,0.091,-2.0,0.0,0.0,0.250348428525,0.0522738840943,9.44128744483,0.335167711487,-0.118257618271,-0.00767331195339,-0.115474633873,0.167705833912,-0.0441266447306,0.00075429841648,-0.0191122761731,0.0256754109408
1555426871457720435,-0.0175555776805,-0.00297917728312,0.0968394204974,0.00988915456679,0.0122164993658,-0.0110531244913,0.928,0.851,3.64,1.11,0.868,0.089,-1.0,0.0,0.0,-0.0592846180033,-1.05928772718,9.05693358779,0.161924638427,0.0102776255058,0.00480416263507,-0.11621401459,0.167734533548,-0.0443093813956,-0.0053198911615,-0.0130354949675,0.02639836646
1555426871477788348,-0.0175603684038,-0.0025394372642,0.095521427691,0.00990991682032,0.0104011712132,-0.0107879495884,0.928,0.851,3.64,1.11,0.868,0.089,-2.0,0.0,0.0,-0.585985002369,0.15211722468,9.73229167342,-0.0321639369136,0.135390116393,-0.00219759033719,-0.11721996963,0.167846038938,-0.0444944091141,-0.00708332940382,-0.0141185840001,0.0255889661299
1555426871497860630,-0.0175596754998,-0.0019397274591,0.0963988155127,0.00990991682032,0.0104011712132,-0.0107879495884,0.928,0.851,3.64,1.11,0.868,0.089,-2.0,0.0,0.0,-0.982064280957,0.838431740776,10.4944212699,-0.0510675037395,0.130133777092,0.00132700921863,-0.117738470435,0.168010994792,-0.0446334183216,-0.00601857594985,-0.01016877029,0.0251427472382
1555426871517641278,-0.0175070073456,-0.00181474245619,0.0957955345511,0.0113046080414,0.00808728526053,-0.0110342389341,0.928,0.851,3.64,1.11,0.868,0.093,0.0,0.0,0.0,1.29843241543,-0.215365450904,8.83601350129,-0.0124248605122,0.034689789163,0.00592258158184,-0.118277534842,0.168198421597,-0.0446474067867,-0.00647274445348,-0.0103118889865,0.0246724334286
1555426871537690058,-0.0179256573319,-0.00180853961501,0.0963164642453,0.0129707596417,0.00735871096531,-0.0112679760526,0.928,0.856,3.623,1.11,0.868,0.09,0.0,0.0,0.0,0.0108288937819,0.0980766820349,9.47507148743,0.0522402933045,0.0262219792744,-0.00464994272141,-0.118967972696,0.168586581945,-0.0447451137006,-0.00628104679088,-0.00955521600534,0.0264663232645
1555426871557752834,-0.0181086212397,-0.00199401308782,0.094162851572,0.012212364184,0.00716824345265,-0.0111923849298,0.928,0.856,3.623,1.111,0.866,0.099,0.0,0.0,0.0,0.493402309343,-0.535411959104,9.88072207332,-0.0326242497439,-0.0049763718898,-0.00330426822854,-0.119480326772,0.168828517199,-0.0447559393942,-0.00373557558886,-0.00952780266264,0.0268108551755
1555426871577983963,-0.0183645244688,-0.00175679533277,0.095983967185,0.0084824770402,0.00554620253855,-0.0110873429904,0.928,0.856,3.623,1.111,0.866,0.099,-1.0,0.0,0.0,-0.413464439437,0.393993430585,9.87167993903,-0.123382672051,0.0570148917306,0.00840692856962,-0.120430141687,0.169324293733,-0.0445481389761,-0.00263158368212,-0.00618683108721,0.0250955239774
1555426871597927904,-0.0183149911463,-0.00132375478279,0.0963257849216,0.00692296527596,0.00827763261885,-0.0105488653419,0.928,0.856,3.623,1.111,0.866,0.095,0.0,4.0,0.0,0.093167323228,0.0770452888682,10.4491848707,-0.0347867719192,0.035167537376,0.00226011350534,-0.121170185506,0.169676169753,-0.0444491542876,-0.00440493557483,-0.00732872585729,0.0246718469398
1555426871617756191,-0.0191140696406,-0.00114827253856,0.0963997617364,0.010926167649,0.00291033702912,-0.0113597021865,0.928,0.856,3.623,1.111,0.866,0.095,0.0,0.0,0.0,-0.503083361574,0.350877816528,9.97654390454,0.0308494588562,0.0137479980043,0.0031575015249,-0.122141800821,0.17001453042,-0.0443149022758,-0.00413580424636,-0.00668326266813,0.0241066520124
1555426871637798934,-0.0184680242091,-0.00190958322491,0.0984622687101,0.00982942277637,0.00471219047085,-0.0112905421816,0.929,0.849,3.663,1.111,0.866,0.096,0.0,3.0,0.0,-0.190916652549,0.156987763457,10.4600899279,-0.0556397144063,0.00937662609411,-0.00549809607047,-0.123961314559,0.170518293977,-0.0440772771835,-0.00306789853321,-0.00858012542729,0.0200955854616
1555426871657847061,-0.0204623434693,-0.00132716214284,0.106070950627,0.00158883566456,0.01393728634,-0.0102451380613,0.929,0.849,3.663,1.111,0.867,0.096,-8.0,8.0,0.0,-0.0413759623328,-0.0953845143132,10.5555480623,-0.134154609384,-0.0550715539548,-0.0175815694995,-0.12526679039,0.17109619081,-0.0436991639435,0.00174983512055,-0.0139953987964,0.0237679927709
1555426871677867013,-0.0204623434693,-0.00132716214284,0.106070950627,0.00189646783105,0.012242890668,-0.0110985376297,0.929,0.849,3.663,1.111,0.867,0.106,3.0,0.0,0.0,-0.0259449386713,-0.231652541198,10.1793499017,-0.168720326449,0.00619614752273,-0.0177430694137,-0.127474620938,0.171742960811,-0.0434900484979,0.0011763740192,-0.00922490423964,0.0243286289712
1555426871698465368,-0.0210178606212,-0.00159951706883,0.109990648925,-0.00075643547251,0.00756584924221,-0.0116125152365,0.929,0.849,3.663,1.111,0.867,0.105,0.0,1.0,0.0,-1.01420094363,1.13094893642,9.73080706537,0.000805065015078,0.317842616884,-0.0315868049383,-0.12893883884,0.172232538462,-0.043392688036,0.0013401981695,-0.00246071827712,0.0242180008677
1555426871717910617,-0.0215715896338,-0.001395246014,0.110477268696,0.00349652271189,-0.0031238429658,-0.0126077166896,0.929,0.849,3.663,1.111,0.867,0.105,1.0,2.0,0.0,-0.584906812347,0.731908481643,10.3678372371,0.0922146075827,0.44467007116,-0.0346451167163,-0.130470365286,0.172746285796,-0.0431464090943,0.00382983335365,0.00479489670501,0.0227578471308
1555426871738061391,-0.0217664316297,-0.00189740746282,0.112811230123,0.00776348752416,-0.013233927811,-0.0134780543786,0.928,0.85,3.546,1.111,0.867,0.106,0.0,4.0,0.0,-0.211719437856,0.0861830342654,9.99950241208,0.140483927965,0.302764031818,-0.0464637762256,-0.132662847638,0.173438161612,-0.0427614636719,-0.00373565009134,0.0128994553895,0.0218646655319
1555426871758792016,-0.0216464288533,-0.00233678077348,0.112742684782,0.00776348752416,-0.013233927811,-0.0134780543786,0.928,0.85,3.546,1.111,0.869,0.11,1.0,0.0,0.0,-0.883496012539,-0.0458925298601,9.76763809204,0.0485025883265,0.184176897297,-0.0516646926468,-0.133803263307,0.173866823316,-0.0426385626197,-0.00510292993132,0.0147800466889,0.0204849602714
1555426871778033787,-0.0222624130547,-0.00251437118277,0.113807432353,0.00633052116463,-0.0136838418295,-0.0148806081667,0.928,0.85,3.546,1.111,0.869,0.11,1.0,0.0,0.0,1.05689585052,0.682387973741,8.61168448806,-0.184942839071,-0.188022069147,-0.0304370517167,-0.135544776917,0.174461945891,-0.0421248152852,0.0038808472431,0.0152305659927,0.019486984857
1555426871798057119,-0.0232062712312,-0.00300408550538,0.115665465593,0.00212316343714,-0.0103403751986,-0.015579730605,0.928,0.85,3.546,1.111,0.869,0.112,1.0,0.0,0.0,-0.086656284146,0.281984240636,9.18571675837,-0.187701424552,-0.0814750443023,-0.0221921941844,-0.136765420437,0.17480507493,-0.0419575087726,0.00620304407032,0.00797985304778,0.0193412428041
1555426871818033991,-0.0232062712312,-0.00300408550538,0.115665465593,-0.00180276305168,-0.010436994891,-0.0160480454021,0.928,0.85,3.546,1.111,0.869,0.112,1.0,1.0,0.0,-0.459490468539,-0.380530435815,10.3565228748,-0.097398350776,0.0672758558348,-0.0196664542872,-0.137526616454,0.175240144134,-0.0416037924588,0.00809800452022,0.0101480590005,0.0178380973824
1555426871837574819,-0.0231225099415,-0.00450035464019,0.116802640259,0.00163037512589,-0.0145495335507,-0.015979286952,0.933,0.848,3.545,1.111,0.869,0.113,1.0,0.0,0.0,-0.380457162894,-0.200623048805,9.33865536153,0.0395703918034,0.103917236492,-0.0187064367291,-0.138896510005,0.175713181496,-0.0410021394491,0.00413460619529,0.0121036936823,0.0180367940695
1555426871857588030,-0.0253964494914,-0.00537056196481,0.11636094749,0.00264494808509,-0.00713784596552,-0.016347721765,0.933,0.848,3.545,1.116,0.863,0.112,-1.0,4.0,0.0,-0.0125151199987,0.677639523,9.86908260584,0.000813505337191,-0.0495910721983,-0.0327894843254,-0.139657378197,0.176043361425,-0.0407121255994,0.00677345864785,0.0160844937157,0.0196551644941
1555426871877687919,-0.0252803042531,-0.00651758071035,0.117867089808,0.00220603234978,-0.00951089726673,-0.017011851723,0.933,0.848,3.545,1.116,0.863,0.112,3.0,-2.0,0.0,-0.0937331875227,0.10378964927,9.42907904327,-0.205573715535,-0.0474115578069,-0.0374345615763,-0.140535458922,0.176361098886,-0.040422655642,0.00739488167241,0.0122866935539,0.0166418984469
1555426871897621788,-0.0252803042531,-0.00651758071035,0.117867089808,-0.00783871922421,-0.0115796751313,-0.0180503212215,0.933,0.848,3.545,1.116,0.863,0.112,1.0,0.0,0.0,-0.827470331043,0.454898138456,9.80968658924,-0.25623309816,0.0326373991018,-0.0271362924109,-0.141905710101,0.17666439712,-0.0399771854281,0.0152995374056,0.0158113465882,0.0140501636942
1555426871917611079,-0.0255599487573,-0.00613897433504,0.118167638779,-0.0122234287861,-0.0115297575056,-0.0187395202639,0.933,0.848,3.545,1.116,0.863,0.112,2.0,1.0,0.0,-0.646870085523,0.616820805743,10.0969918692,-0.0984046345163,0.0170520612943,-0.00910383309411,-0.142948389053,0.176909714937,-0.0397457890213,0.0209594625338,0.0161842300777,0.0158118549209
1555426871937558863,-0.0260263085365,-0.00672124605626,0.119291990995,-0.0115168037236,-0.0099370592172,-0.0189229642093,0.936,0.847,3.691,1.116,0.863,0.119,0.0,0.0,0.0,-0.207565630674,-0.141018853057,10.9283606851,0.0867638991349,-0.108419659855,-0.0167770618237,-0.144629687071,0.177125364542,-0.0393859855831,0.0162173711316,0.0157305277647,0.016828254302
1555426871957665736,-0.0260263085365,-0.00672124605626,0.119291990995,-0.008714437851,-0.00708427117468,-0.0191267376446,0.936,0.847,3.691,1.112,0.865,0.122,0.0,0.0,0.0,0.00901998281654,-0.0583845807659,10.2081497777,0.151122440927,-0.132229027402,-0.010959629852,-0.145984053612,0.177336022258,-0.0390953868628,0.0157202659118,0.0121720615969,0.0135212054887
1555426871977713641,-0.0263691060245,-0.00653277197853,0.123239465058,-0.00889698037882,-0.00576194719502,-0.0193462091661,0.936,0.847,3.691,1.112,0.865,0.122,0.0,0.0,0.0,0.0981599043589,-0.0791264865082,10.1953970003,0.069852718022,-0.0776143512162,0.00139281530498,-0.148293554783,0.177496701479,-0.0389869958162,0.0149972088109,0.0112646338285,0.0152060333977
1555426871997621117,-0.0263691060245,-0.00653277197853,0.123239465058,-0.00933909008691,-0.00803527299623,-0.0189220966013,0.936,0.847,3.691,1.112,0.865,0.123,0.0,-2.0,0.0,-0.613031481095,0.327802803218,10.5145777917,0.011874102154,0.0359313361378,0.00876929532841,-0.150081947446,0.177611783147,-0.0387615561485,0.0120509953156,0.0109267856728,0.0168334436194
1555426872017629245,-0.0257416311651,-0.00623090798035,0.125047370791,-0.00431646475859,-0.00539932296265,-0.0184458797059,0.936,0.847,3.691,1.112,0.865,0.123,0.0,0.0,0.0,-0.468362083398,0.585343489721,9.97924765706,0.0532897868335,0.0292201972386,0.0359284441113,-0.151831075549,0.177745819092,-0.0385195799172,0.0124631466223,0.0107330547844,0.0162554985602
1555426872037450862,-0.0266258697957,-0.00735624181107,0.127623975277,-0.00569502590996,-0.0163040240769,-0.016960655572,0.938,0.844,3.605,1.112,0.865,0.127,-1.0,-8.0,0.0,-0.503259655125,-0.364657657295,10.4315742266,0.0940258067953,-0.0216956582022,0.0259410095376,-0.154736965895,0.177823990583,-0.0383368991315,0.0124111286083,0.0101876320902,0.0169460585158
1555426872057791517,-0.0235454328358,-0.00374826556072,0.132282689214,-0.0141939713766,-0.0114234984184,-0.0174049842342,0.938,0.844,3.605,1.117,0.862,0.13,-2.0,0.0,0.0,0.0590942865657,0.494428788051,9.22643150568,0.0197915229899,-0.141988264441,0.0160940910413,-0.156876444817,0.177951037884,-0.0381137095392,0.00831548926304,0.005263220516,0.016652525412
1555426872078001819,-0.0235454328358,-0.00374826556072,0.132282689214,-0.00620353363357,-0.0122558423694,-0.0156174080927,0.938,0.844,3.605,1.117,0.862,0.13,2.0,-9.0,0.0,-0.198643949032,0.139565025112,10.0233111048,0.237101348363,-0.402658871412,0.0247040877246,-0.159717366099,0.178162753582,-0.0379423312843,0.00579815182172,-0.00213137580533,0.0172544845361
1555426872097967464,-0.0210057012737,-0.00550640840083,0.140231639147,0.00755442937859,0.00258818452294,-0.0150366194723,0.938,0.844,3.605,1.117,0.862,0.138,0.0,0.0,0.0,-0.986442676038,0.494548729062,9.8923428297,0.420046550301,-0.480197239313,0.0201236753539,-0.161792635918,0.178275182843,-0.0376416929066,-0.00321107666087,-0.0183118965208,0.0150769976731
1555426872117777631,-0.0222198683769,-0.00530822714791,0.142832249403,0.0138903075542,0.0195965587922,-0.0151723553835,0.938,0.844,3.605,1.117,0.862,0.138,0.0,-1.0,0.0,0.612812977955,-0.225553712547,9.21473005772,0.198479137615,-0.48011055342,0.0289714767181,-0.16348131001,0.178579032421,-0.0373839624226,-0.00518676263872,-0.0192113171059,0.0207146861024
1555426872137729353,-0.0215794276446,-0.0053075524047,0.14464841783,0.0134776361791,0.0243040060275,-0.0148512842664,0.937,0.845,3.428,1.117,0.862,0.14,0.0,-1.0,0.0,-0.747800555974,0.361371047013,9.41129999936,-0.171634357314,-0.11550739678,0.0112211824397,-0.166408672929,0.179009690881,-0.036855045706,0.000708657077571,-0.0233433143863,0.0205195848624
1555426872158077591,-0.0215794276446,-0.0053075524047,0.14464841783,0.0134776361791,0.0243040060275,-0.0148512842664,0.937,0.845,3.428,1.117,0.86,0.145,0.0,-1.0,0.0,-0.676879750416,0.20308699239,10.0848951495,-0.285900396453,0.064420568478,0.0258588073255,-0.168318480253,0.179459244013,-0.03663315624,0.00246637150899,-0.022667152088,0.0216382232241
1555426872177875647,-0.0201556384563,-0.00536636356264,0.147619917989,0.000853254056758,0.0172039675867,-0.0133805140231,0.937,0.845,3.428,1.117,0.86,0.145,0.0,1.0,0.0,0.836420298591,-0.377421069257,9.1877241075,-0.154590542456,0.170386183645,0.0304533302888,-0.171070367098,0.180280655622,-0.0360228233039,0.00931170626264,-0.0162813619263,0.0194223058339
1555426872197886100,-0.0206309743226,-0.00514021795243,0.150992318988,0.00125540282463,0.0158635049834,-0.0130505837341,0.937,0.845,3.428,1.117,0.86,0.146,0.0,0.0,0.0,0.0635042566108,0.0336297971592,10.0332864547,0.0575725576628,0.029559506848,0.0243596889808,-0.172781392932,0.180832177401,-0.0356135368347,0.00544651780909,-0.0183930989899,0.0190701608272
1555426872217992691,-0.021156841889,-0.00596305122599,0.15309292078,0.00536023899306,0.0174732891147,-0.0129530558622,0.937,0.845,3.428,1.117,0.86,0.146,0.0,1.0,0.0,-0.0131382835808,0.81000513643,9.13943078399,0.114354198094,-0.0505665714608,0.0226905111557,-0.174334794283,0.181492388248,-0.035164065659,0.0047351431774,-0.0168567636726,0.0189249894317
1555426872237856908,-0.021156841889,-0.00596305122599,0.15309292078,0.00406724229468,0.017457439145,-0.0121474028191,0.934,0.844,3.237,1.117,0.86,0.156,-1.0,-1.0,0.0,-0.226827199571,-0.300808236804,9.200535357,-0.0831447214701,0.0876255981951,0.0223370118911,-0.176795870066,0.18254904449,-0.0344170331955,0.00595438730945,-0.0191968082216,0.0223949333621
1555426872258046673,-0.0245038699359,-0.00531556084752,0.160809651017,-0.00010976971673,0.022160854188,-0.0112826328012,0.934,0.844,3.237,1.124,0.862,0.162,0.0,10.0,0.0,-0.817325923517,1.44227699026,9.64788009882,-0.224682878397,0.25390942353,0.0112376607489,-0.178334727883,0.183379456401,-0.0339220017195,0.0110047934246,-0.0125014640342,0.0224571378119
1555426872277852346,-0.0245038699359,-0.00531556084752,0.160809651017,-0.00288925930544,0.0162535894234,-0.0113023089844,0.934,0.844,3.237,1.124,0.862,0.162,0.0,2.0,0.0,0.282575503774,0.69857789062,9.93763770103,-0.182057104293,0.232609794027,0.0141368112011,-0.180592998862,0.184714332223,-0.0332501493394,0.0119116876298,-0.00488941582474,0.020441823852
1555426872298005324,-0.0255110114813,-0.00575102958828,0.161621123552,-0.00382789173201,0.00841957546391,-0.011420903917,0.934,0.844,3.237,1.124,0.862,0.158,1.0,4.0,0.0,-0.735649018586,0.153022026485,10.8203661203,-0.0585973878234,0.480850679176,0.00751347079326,-0.182143911719,0.185626909137,-0.0325910896063,0.011911663774,0.00470880174377,0.0246957587185
1555426872317920496,-0.0279822405428,-0.00786001235247,0.16576191783,-0.000240369631408,-0.0016600849765,-0.0119920739485,0.934,0.844,3.237,1.124,0.862,0.158,2.0,4.0,0.0,-0.285975623131,-0.0461062227516,9.28172686994,0.0308516642865,0.466037944167,0.00655809244097,-0.183593437076,0.186510816216,-0.0321168489754,0.0139268172306,0.0143799710268,0.0225780987583
1555426872337733599,-0.0317100659013,-0.00894159916788,0.165142208338,0.000755556616347,-0.00292312774451,-0.012042120571,0.943,0.837,3.463,1.124,0.862,0.158,3.0,11.0,0.0,-0.191313532311,-0.0566253225971,10.4551455224,-0.0956348720812,0.369171651365,0.00639812800562,-0.185851886868,0.187726214528,-0.0313941426575,0.0136378743153,0.022914188129,0.0232044416804
1555426872357957307,-0.0304499417543,-0.00938787776977,0.162845566869,-0.00365639117981,-0.0165603730974,-0.0118945003035,0.943,0.837,3.463,1.121,0.856,0.15,0.0,1.0,0.0,0.384570679106,-0.13953121176,9.10530877233,-0.241260340458,0.221003222009,0.0194767061401,-0.187400743365,0.188444644213,-0.0309532992542,0.0196865799127,0.0273483634007,0.0213460094868
1555426872377886633,-0.0299390368164,-0.010882711038,0.157937511802,-0.00447986711645,-0.0232570008897,-0.0115170294682,0.943,0.837,3.463,1.121,0.856,0.15,4.0,-3.0,0.0,-0.183762017749,0.442348222956,10.1395479047,-0.345623847848,0.191142827892,0.0246958340058,-0.190014958382,0.189561873674,-0.0301569867879,0.0276268583189,0.0308185289164,0.0224378424886
