rosbagTimestamp,header,seq,stamp,secs,nsecs,frame_id,orientation,x,y,z,w,orientation_covariance,angular_velocity,x,y,z,angular_velocity_covariance,linear_acceleration,x,y,z,linear_acceleration_covariance
1555426868086635020,,41,,1555426868,86395831,"""cf3/base_link""",,0.0,0.0,0.0,0.0,"[-1.0, 0.0, 0.0, 0.0, 0.0, 0.0, 0.0, 0.0, 0.0]",,-0.000298937654239,0.000315560239716,-0.000591092114946,"[0.0, 0.0, 0.0, 0.0, 0.0, 0.0, 0.0, 0.0, 0.0]",,-0.214473403338,-0.00622236707015,9.81438073397,"[0.0, 0.0, 0.0, 0.0, 0.0, 0.0, 0.0, 0.0, 0.0]"
1555426868092852090,,42,,1555426868,92747273,"""cf3/base_link""",,0.0,0.0,0.0,0.0,"[-1.0, 0.0, 0.0, 0.0, 0.0, 0.0, 0.0, 0.0, 0.0]",,0.00177275580608,5.76685862551e-06,0.00020606942019,"[0.0, 0.0, 0.0, 0.0, 0.0, 0.0, 0.0, 0.0, 0.0]",,-0.200622208267,1.93777236177e-05,9.80793534815,"[0.0, 0.0, 0.0, 0.0, 0.0, 0.0, 0.0, 0.0, 0.0]"
1555426868106747169,,43,,1555426868,106637868,"""cf3/base_link""",,0.0,0.0,0.0,0.0,"[-1.0, 0.0, 0.0, 0.0, 0.0, 0.0, 0.0, 0.0, 0.0]",,0.00104758204768,-0.000508859831737,-0.000730347026838,"[0.0, 0.0, 0.0, 0.0, 0.0, 0.0, 0.0, 0.0, 0.0]",,-0.199721554331,-0.00213050125953,9.80631449997,"[0.0, 0.0, 0.0, 0.0, 0.0, 0.0, 0.0, 0.0, 0.0]"
1555426868113143721,,44,,1555426868,112997885,"""cf3/base_link""",,0.0,0.0,0.0,0.0,"[-1.0, 0.0, 0.0, 0.0, 0.0, 0.0, 0.0, 0.0, 0.0]",,0.000380592279863,0.00167421403437,0.000608620474279,"[0.0, 0.0, 0.0, 0.0, 0.0, 0.0, 0.0, 0.0, 0.0]",,-0.201526260898,-0.00836301616102,9.82331878781,"[0.0, 0.0, 0.0, 0.0, 0.0, 0.0, 0.0, 0.0, 0.0]"
1555426868133929950,,45,,1555426868,133783954,"""cf3/base_link""",,0.0,0.0,0.0,0.0,"[-1.0, 0.0, 0.0, 0.0, 0.0, 0.0, 0.0, 0.0, 0.0]",,0.000986122388464,-0.000180836976649,-9.16685111868e-05,"[0.0, 0.0, 0.0, 0.0, 0.0, 0.0, 0.0, 0.0, 0.0]",,-0.203450287208,-0.000440434773882,9.81224182248,"[0.0, 0.0, 0.0, 0.0, 0.0, 0.0, 0.0, 0.0, 0.0]"
1555426868138490336,,46,,1555426868,138235380,"""cf3/base_link""",,0.0,0.0,0.0,0.0,"[-1.0, 0.0, 0.0, 0.0, 0.0, 0.0, 0.0, 0.0, 0.0]",,-0.000632539574987,-0.000845559237698,4.68720049786e-05,"[0.0, 0.0, 0.0, 0.0, 0.0, 0.0, 0.0, 0.0, 0.0]",,-0.20365726037,-0.00917658883904,9.81274585247,"[0.0, 0.0, 0.0, 0.0, 0.0, 0.0, 0.0, 0.0, 0.0]"
1555426868146510939,,47,,1555426868,146312603,"""cf3/base_link""",,0.0,0.0,0.0,0.0,"[-1.0, 0.0, 0.0, 0.0, 0.0, 0.0, 0.0, 0.0, 0.0]",,0.00072557375271,0.000754827823069,0.000957480142955,"[0.0, 0.0, 0.0, 0.0, 0.0, 0.0, 0.0, 0.0, 0.0]",,-0.212953529265,0.0052392913762,9.81192607284,"[0.0, 0.0, 0.0, 0.0, 0.0, 0.0, 0.0, 0.0, 0.0]"
1555426868151917427,,48,,1555426868,151700490,"""cf3/base_link""",,0.0,0.0,0.0,0.0,"[-1.0, 0.0, 0.0, 0.0, 0.0, 0.0, 0.0, 0.0, 0.0]",,-0.00186720569839,-0.000206722629367,-0.000209316496904,"[0.0, 0.0, 0.0, 0.0, 0.0, 0.0, 0.0, 0.0, 0.0]",,-0.205337092336,-0.00215685498595,9.80745996952,"[0.0, 0.0, 0.0, 0.0, 0.0, 0.0, 0.0, 0.0, 0.0]"
1555426868165018058,,49,,1555426868,164729512,"""cf3/base_link""",,0.0,0.0,0.0,0.0,"[-1.0, 0.0, 0.0, 0.0, 0.0, 0.0, 0.0, 0.0, 0.0]",,0.00206282424313,-0.000285733453183,-6.25662185786e-05,"[0.0, 0.0, 0.0, 0.0, 0.0, 0.0, 0.0, 0.0, 0.0]",,-0.21782201238,-0.00355642702285,9.78337061048,"[0.0, 0.0, 0.0, 0.0, 0.0, 0.0, 0.0, 0.0, 0.0]"
1555426868173744316,,50,,1555426868,173389171,"""cf3/base_link""",,0.0,0.0,0.0,0.0,"[-1.0, 0.0, 0.0, 0.0, 0.0, 0.0, 0.0, 0.0, 0.0]",,-0.00039490000879,0.00137805855773,0.000705687754601,"[0.0, 0.0, 0.0, 0.0, 0.0, 0.0, 0.0, 0.0, 0.0]",,-0.215749941878,0.00184358855156,9.80928839386,"[0.0, 0.0, 0.0, 0.0, 0.0, 0.0, 0.0, 0.0, 0.0]"
1555426868186251999,,51,,1555426868,185519155,"""cf3/base_link""",,0.0,0.0,0.0,0.0,"[-1.0, 0.0, 0.0, 0.0, 0.0, 0.0, 0.0, 0.0, 0.0]",,-0.000486481248786,-0.00250995650659,0.000204693448209,"[0.0, 0.0, 0.0, 0.0, 0.0, 0.0, 0.0, 0.0, 0.0]",,-0.210819094554,-0.000120819369286,9.79833714366,"[0.0, 0.0, 0.0, 0.0, 0.0, 0.0, 0.0, 0.0, 0.0]"
1555426868193843754,,52,,1555426868,192404130,"""cf3/base_link""",,0.0,0.0,0.0,0.0,"[-1.0, 0.0, 0.0, 0.0, 0.0, 0.0, 0.0, 0.0, 0.0]",,-0.0010458423455,0.000579373035816,-0.0010735628876,"[0.0, 0.0, 0.0, 0.0, 0.0, 0.0, 0.0, 0.0, 0.0]",,-0.216305336002,-0.00837715568778,9.78516453624,"[0.0, 0.0, 0.0, 0.0, 0.0, 0.0, 0.0, 0.0, 0.0]"
1555426868212347165,,53,,1555426868,212106489,"""cf3/base_link""",,0.0,0.0,0.0,0.0,"[-1.0, 0.0, 0.0, 0.0, 0.0, 0.0, 0.0, 0.0, 0.0]",,3.56368835304e-05,0.000806730010908,-0.00105790524289,"[0.0, 0.0, 0.0, 0.0, 0.0, 0.0, 0.0, 0.0, 0.0]",,-0.216416743733,-0.00324321126624,9.79429087043,"[0.0, 0.0, 0.0, 0.0, 0.0, 0.0, 0.0, 0.0, 0.0]"
1555426868215579154,,54,,1555426868,215335899,"""cf3/base_link""",,0.0,0.0,0.0,0.0,"[-1.0, 0.0, 0.0, 0.0, 0.0, 0.0, 0.0, 0.0, 0.0]",,-0.000832661891837,-0.0012286444275,0.000422783747529,"[0.0, 0.0, 0.0, 0.0, 0.0, 0.0, 0.0, 0.0, 0.0]",,-0.215242933463,0.00562610182213,9.79069073975,"[0.0, 0.0, 0.0, 0.0, 0.0, 0.0, 0.0, 0.0, 0.0]"
1555426868224970647,,55,,1555426868,224266723,"""cf3/base_link""",,0.0,0.0,0.0,0.0,"[-1.0, 0.0, 0.0, 0.0, 0.0, 0.0, 0.0, 0.0, 0.0]",,0.000256984268363,0.000222406850424,0.000506047192929,"[0.0, 0.0, 0.0, 0.0, 0.0, 0.0, 0.0, 0.0, 0.0]",,-0.211360071637,0.0114656041749,9.79459726453,"[0.0, 0.0, 0.0, 0.0, 0.0, 0.0, 0.0, 0.0, 0.0]"
1555426868233779805,,56,,1555426868,233509852,"""cf3/base_link""",,0.0,0.0,0.0,0.0,"[-1.0, 0.0, 0.0, 0.0, 0.0, 0.0, 0.0, 0.0, 0.0]",,0.00102715125888,0.00160296641291,0.000202458873352,"[0.0, 0.0, 0.0, 0.0, 0.0, 0.0, 0.0, 0.0, 0.0]",,-0.215041460339,-0.00490917722345,9.79287876785,"[0.0, 0.0, 0.0, 0.0, 0.0, 0.0, 0.0, 0.0, 0.0]"
1555426868245219641,,57,,1555426868,244868761,"""cf3/base_link""",,0.0,0.0,0.0,0.0,"[-1.0, 0.0, 0.0, 0.0, 0.0, 0.0, 0.0, 0.0, 0.0]",,0.00172592110145,-0.0017699674192,-0.000431197607079,"[0.0, 0.0, 0.0, 0.0, 0.0, 0.0, 0.0, 0.0, 0.0]",,-0.204391305204,0.000467596596645,9.80414167464,"[0.0, 0.0, 0.0, 0.0, 0.0, 0.0, 0.0, 0.0, 0.0]"
1555426868262545407,,58,,1555426868,262239305,"""cf3/base_link""",,0.0,0.0,0.0,0.0,"[-1.0, 0.0, 0.0, 0.0, 0.0, 0.0, 0.0, 0.0, 0.0]",,0.00195874704949,-0.00128059648459,-1.71262986489e-05,"[0.0, 0.0, 0.0, 0.0, 0.0, 0.0, 0.0, 0.0, 0.0]",,-0.224669357724,-0.00188001016693,9.82515247464,"[0.0, 0.0, 0.0, 0.0, 0.0, 0.0, 0.0, 0.0, 0.0]"
1555426868267957733,,59,,1555426868,267668429,"""cf3/base_link""",,0.0,0.0,0.0,0.0,"[-1.0, 0.0, 0.0, 0.0, 0.0, 0.0, 0.0, 0.0, 0.0]",,5.46485930317e-05,0.00116810328578,6.39303084143e-05,"[0.0, 0.0, 0.0, 0.0, 0.0, 0.0, 0.0, 0.0, 0.0]",,-0.225464633871,-0.000934732239693,9.82059164643,"[0.0, 0.0, 0.0, 0.0, 0.0, 0.0, 0.0, 0.0, 0.0]"
1555426868271435654,,60,,1555426868,271139000,"""cf3/base_link""",,0.0,0.0,0.0,0.0,"[-1.0, 0.0, 0.0, 0.0, 0.0, 0.0, 0.0, 0.0, 0.0]",,0.000160335593923,-0.00081262869166,0.00109373750319,"[0.0, 0.0, 0.0, 0.0, 0.0, 0.0, 0.0, 0.0, 0.0]",,-0.204566922672,-0.0036296102943,9.81314580202,"[0.0, 0.0, 0.0, 0.0, 0.0, 0.0, 0.0, 0.0, 0.0]"
1555426868288477788,,61,,1555426868,288247188,"""cf3/base_link""",,0.0,0.0,0.0,0.0,"[-1.0, 0.0, 0.0, 0.0, 0.0, 0.0, 0.0, 0.0, 0.0]",,0.00337384825343,-0.00178673441095,-0.000731080046323,"[0.0, 0.0, 0.0, 0.0, 0.0, 0.0, 0.0, 0.0, 0.0]",,-0.190739335734,-0.0104739666497,9.81027131081,"[0.0, 0.0, 0.0, 0.0, 0.0, 0.0, 0.0, 0.0, 0.0]"
1555426868294359749,,62,,1555426868,294024466,"""cf3/base_link""",,0.0,0.0,0.0,0.0,"[-1.0, 0.0, 0.0, 0.0, 0.0, 0.0, 0.0, 0.0, 0.0]",,-0.000597501581673,0.000741801805435,0.000217805452916,"[0.0, 0.0, 0.0, 0.0, 0.0, 0.0, 0.0, 0.0, 0.0]",,-0.200618151762,-0.0104779614857,9.81694532275,"[0.0, 0.0, 0.0, 0.0, 0.0, 0.0, 0.0, 0.0, 0.0]"
1555426868306239886,,63,,1555426868,305784768,"""cf3/base_link""",,0.0,0.0,0.0,0.0,"[-1.0, 0.0, 0.0, 0.0, 0.0, 0.0, 0.0, 0.0, 0.0]",,0.00160817323093,0.000911596465112,0.0010048593782,"[0.0, 0.0, 0.0, 0.0, 0.0, 0.0, 0.0, 0.0, 0.0]",,-0.216159228701,-0.00204554218682,9.80525790811,"[0.0, 0.0, 0.0, 0.0, 0.0, 0.0, 0.0, 0.0, 0.0]"
1555426868312777789,,64,,1555426868,312331282,"""cf3/base_link""",,0.0,0.0,0.0,0.0,"[-1.0, 0.0, 0.0, 0.0, 0.0, 0.0, 0.0, 0.0, 0.0]",,0.00121216793877,-0.000192845063374,0.00118078021865,"[0.0, 0.0, 0.0, 0.0, 0.0, 0.0, 0.0, 0.0, 0.0]",,-0.210800876822,-0.012859398803,9.81448832273,"[0.0, 0.0, 0.0, 0.0, 0.0, 0.0, 0.0, 0.0, 0.0]"
1555426868327373540,,65,,1555426868,327057788,"""cf3/base_link""",,0.0,0.0,0.0,0.0,"[-1.0, 0.0, 0.0, 0.0, 0.0, 0.0, 0.0, 0.0, 0.0]",,0.000241607503922,-0.000340576398945,0.00115868989558,"[0.0, 0.0, 0.0, 0.0, 0.0, 0.0, 0.0, 0.0, 0.0]",,-0.200040702671,-0.00820720156829,9.81882929564,"[0.0, 0.0, 0.0, 0.0, 0.0, 0.0, 0.0, 0.0, 0.0]"
1555426868333835159,,66,,1555426868,333561868,"""cf3/base_link""",,0.0,0.0,0.0,0.0,"[-1.0, 0.0, 0.0, 0.0, 0.0, 0.0, 0.0, 0.0, 0.0]",,-0.00106881354031,0.000790390386297,0.000321170205457,"[0.0, 0.0, 0.0, 0.0, 0.0, 0.0, 0.0, 0.0, 0.0]",,-0.209349524807,0.0186474650726,9.8071477282,"[0.0, 0.0, 0.0, 0.0, 0.0, 0.0, 0.0, 0.0, 0.0]"
1555426868346681347,,67,,1555426868,346403099,"""cf3/base_link""",,0.0,0.0,0.0,0.0,"[-1.0, 0.0, 0.0, 0.0, 0.0, 0.0, 0.0, 0.0, 0.0]",,0.000255179011198,0.00032225575569,-0.00032142533837,"[0.0, 0.0, 0.0, 0.0, 0.0, 0.0, 0.0, 0.0, 0.0]",,-0.203620605636,0.00505729393393,9.82677566171,"[0.0, 0.0, 0.0, 0.0, 0.0, 0.0, 0.0, 0.0, 0.0]"
1555426868353546335,,68,,1555426868,353211664,"""cf3/base_link""",,0.0,0.0,0.0,0.0,"[-1.0, 0.0, 0.0, 0.0, 0.0, 0.0, 0.0, 0.0, 0.0]",,0.000907648601874,-0.000972305679863,-0.000224514395227,"[0.0, 0.0, 0.0, 0.0, 0.0, 0.0, 0.0, 0.0, 0.0]",,-0.212172761522,0.00819221979124,9.83817305446,"[0.0, 0.0, 0.0, 0.0, 0.0, 0.0, 0.0, 0.0, 0.0]"
1555426868366384448,,69,,1555426868,366008908,"""cf3/base_link""",,0.0,0.0,0.0,0.0,"[-1.0, 0.0, 0.0, 0.0, 0.0, 0.0, 0.0, 0.0, 0.0]",,0.00237838646591,0.000620178437366,-0.00067300935062,"[0.0, 0.0, 0.0, 0.0, 0.0, 0.0, 0.0, 0.0, 0.0]",,-0.204004201256,0.0095734668884,9.81895910382,"[0.0, 0.0, 0.0, 0.0, 0.0, 0.0, 0.0, 0.0, 0.0]"
1555426868373048948,,70,,1555426868,372755798,"""cf3/base_link""",,0.0,0.0,0.0,0.0,"[-1.0, 0.0, 0.0, 0.0, 0.0, 0.0, 0.0, 0.0, 0.0]",,0.00245987633445,0.000772945120711,-0.00129100062793,"[0.0, 0.0, 0.0, 0.0, 0.0, 0.0, 0.0, 0.0, 0.0]",,-0.202485076357,0.0130677458318,9.80491526127,"[0.0, 0.0, 0.0, 0.0, 0.0, 0.0, 0.0, 0.0, 0.0]"
1555426868394173811,,71,,1555426868,393860991,"""cf3/base_link""",,0.0,0.0,0.0,0.0,"[-1.0, 0.0, 0.0, 0.0, 0.0, 0.0, 0.0, 0.0, 0.0]",,0.000218474412844,-1.80181016374e-05,0.000694723281124,"[0.0, 0.0, 0.0, 0.0, 0.0, 0.0, 0.0, 0.0, 0.0]",,-0.196803830266,-0.0101808224316,9.78826356053,"[0.0, 0.0, 0.0, 0.0, 0.0, 0.0, 0.0, 0.0, 0.0]"
1555426868398993259,,72,,1555426868,398686298,"""cf3/base_link""",,0.0,0.0,0.0,0.0,"[-1.0, 0.0, 0.0, 0.0, 0.0, 0.0, 0.0, 0.0, 0.0]",,-0.000596003488541,-0.000784448273134,-0.000329967804674,"[0.0, 0.0, 0.0, 0.0, 0.0, 0.0, 0.0, 0.0, 0.0]",,-0.215708645917,-0.00437705547432,9.79779803038,"[0.0, 0.0, 0.0, 0.0, 0.0, 0.0, 0.0, 0.0, 0.0]"
1555426868408278605,,73,,1555426868,407948780,"""cf3/base_link""",,0.0,0.0,0.0,0.0,"[-1.0, 0.0, 0.0, 0.0, 0.0, 0.0, 0.0, 0.0, 0.0]",,0.00115370492095,0.000227689675173,-0.000594823011179,"[0.0, 0.0, 0.0, 0.0, 0.0, 0.0, 0.0, 0.0, 0.0]",,-0.219116494562,0.00538274915772,9.79684668839,"[0.0, 0.0, 0.0, 0.0, 0.0, 0.0, 0.0, 0.0, 0.0]"
1555426868412939027,,74,,1555426868,412697130,"""cf3/base_link""",,0.0,0.0,0.0,0.0,"[-1.0, 0.0, 0.0, 0.0, 0.0, 0.0, 0.0, 0.0, 0.0]",,-0.00224140895987,0.000379265120581,0.00102910324673,"[0.0, 0.0, 0.0, 0.0, 0.0, 0.0, 0.0, 0.0, 0.0]",,-0.220978741385,0.0143851052457,9.80581339359,"[0.0, 0.0, 0.0, 0.0, 0.0, 0.0, 0.0, 0.0, 0.0]"
1555426868426116893,,75,,1555426868,425788927,"""cf3/base_link""",,0.0,0.0,0.0,0.0,"[-1.0, 0.0, 0.0, 0.0, 0.0, 0.0, 0.0, 0.0, 0.0]",,0.000492437275926,0.000925002321298,-0.000293039005997,"[0.0, 0.0, 0.0, 0.0, 0.0, 0.0, 0.0, 0.0, 0.0]",,-0.204863614049,0.000447870487878,9.81781772733,"[0.0, 0.0, 0.0, 0.0, 0.0, 0.0, 0.0, 0.0, 0.0]"
1555426868432773643,,76,,1555426868,432489752,"""cf3/base_link""",,0.0,0.0,0.0,0.0,"[-1.0, 0.0, 0.0, 0.0, 0.0, 0.0, 0.0, 0.0, 0.0]",,0.000666072778256,-0.00172122532947,0.00206923026387,"[0.0, 0.0, 0.0, 0.0, 0.0, 0.0, 0.0, 0.0, 0.0]",,-0.200760823824,-0.00169197864365,9.81272831082,"[0.0, 0.0, 0.0, 0.0, 0.0, 0.0, 0.0, 0.0, 0.0]"
1555426868445734387,,77,,1555426868,445372442,"""cf3/base_link""",,0.0,0.0,0.0,0.0,"[-1.0, 0.0, 0.0, 0.0, 0.0, 0.0, 0.0, 0.0, 0.0]",,-0.000954939736946,-0.00054548587139,-0.00107878017362,"[0.0, 0.0, 0.0, 0.0, 0.0, 0.0, 0.0, 0.0, 0.0]",,-0.207419084832,0.0130008922855,9.79041065812,"[0.0, 0.0, 0.0, 0.0, 0.0, 0.0, 0.0, 0.0, 0.0]"
1555426868452422565,,78,,1555426868,452114094,"""cf3/base_link""",,0.0,0.0,0.0,0.0,"[-1.0, 0.0, 0.0, 0.0, 0.0, 0.0, 0.0, 0.0, 0.0]",,-0.000202822944898,0.000660759719866,0.000805179447781,"[0.0, 0.0, 0.0, 0.0, 0.0, 0.0, 0.0, 0.0, 0.0]",,-0.225292323735,0.00424231055804,9.78785074711,"[0.0, 0.0, 0.0, 0.0, 0.0, 0.0, 0.0, 0.0, 0.0]"
1555426868465316165,,79,,1555426868,464969405,"""cf3/base_link""",,0.0,0.0,0.0,0.0,"[-1.0, 0.0, 0.0, 0.0, 0.0, 0.0, 0.0, 0.0, 0.0]",,0.000903616344518,-0.00160737454268,0.000898633385465,"[0.0, 0.0, 0.0, 0.0, 0.0, 0.0, 0.0, 0.0, 0.0]",,-0.210613199472,-0.000922741807371,9.79554919124,"[0.0, 0.0, 0.0, 0.0, 0.0, 0.0, 0.0, 0.0, 0.0]"
1555426868471954285,,80,,1555426868,471698465,"""cf3/base_link""",,0.0,0.0,0.0,0.0,"[-1.0, 0.0, 0.0, 0.0, 0.0, 0.0, 0.0, 0.0, 0.0]",,-0.00084173055352,-0.000923182386188,0.000263347116766,"[0.0, 0.0, 0.0, 0.0, 0.0, 0.0, 0.0, 0.0, 0.0]",,-0.220205428842,-0.00453289433528,9.80150925815,"[0.0, 0.0, 0.0, 0.0, 0.0, 0.0, 0.0, 0.0, 0.0]"
1555426868485063410,,81,,1555426868,484777230,"""cf3/base_link""",,0.0,0.0,0.0,0.0,"[-1.0, 0.0, 0.0, 0.0, 0.0, 0.0, 0.0, 0.0, 0.0]",,0.00164274725165,-0.00133441405481,-0.000920027164475,"[0.0, 0.0, 0.0, 0.0, 0.0, 0.0, 0.0, 0.0, 0.0]",,-0.203610117193,-0.00624041178322,9.80398204565,"[0.0, 0.0, 0.0, 0.0, 0.0, 0.0, 0.0, 0.0, 0.0]"
1555426868491646583,,82,,1555426868,491371928,"""cf3/base_link""",,0.0,0.0,0.0,0.0,"[-1.0, 0.0, 0.0, 0.0, 0.0, 0.0, 0.0, 0.0, 0.0]",,-0.000765241264069,0.000236179443917,-0.000119283503748,"[0.0, 0.0, 0.0, 0.0, 0.0, 0.0, 0.0, 0.0, 0.0]",,-0.202002023254,0.0130182603432,9.82730541945,"[0.0, 0.0, 0.0, 0.0, 0.0, 0.0, 0.0, 0.0, 0.0]"
1555426868508356364,,83,,1555426868,507973702,"""cf3/base_link""",,0.0,0.0,0.0,0.0,"[-1.0, 0.0, 0.0, 0.0, 0.0, 0.0, 0.0, 0.0, 0.0]",,0.00122800997618,0.000201911774499,2.88366205896e-05,"[0.0, 0.0, 0.0, 0.0, 0.0, 0.0, 0.0, 0.0, 0.0]",,-0.213759988211,0.00463485087559,9.81284057736,"[0.0, 0.0, 0.0, 0.0, 0.0, 0.0, 0.0, 0.0, 0.0]"
1555426868521388526,,84,,1555426868,520991074,"""cf3/base_link""",,0.0,0.0,0.0,0.0,"[-1.0, 0.0, 0.0, 0.0, 0.0, 0.0, 0.0, 0.0, 0.0]",,-0.00111890528575,0.000547119528264,0.000541615867903,"[0.0, 0.0, 0.0, 0.0, 0.0, 0.0, 0.0, 0.0, 0.0]",,-0.221622081287,-0.00876607946819,9.8063776499,"[0.0, 0.0, 0.0, 0.0, 0.0, 0.0, 0.0, 0.0, 0.0]"
1555426868530743533,,85,,1555426868,530390482,"""cf3/base_link""",,0.0,0.0,0.0,0.0,"[-1.0, 0.0, 0.0, 0.0, 0.0, 0.0, 0.0, 0.0, 0.0]",,-0.000811741253043,0.00177221758226,-8.58833183373e-06,"[0.0, 0.0, 0.0, 0.0, 0.0, 0.0, 0.0, 0.0, 0.0]",,-0.213191163763,-0.0111855476699,9.81342062116,"[0.0, 0.0, 0.0, 0.0, 0.0, 0.0, 0.0, 0.0, 0.0]"
1555426868535471613,,86,,1555426868,535171175,"""cf3/base_link""",,0.0,0.0,0.0,0.0,"[-1.0, 0.0, 0.0, 0.0, 0.0, 0.0, 0.0, 0.0, 0.0]",,0.000755213773368,-0.000138662917708,-5.31253468522e-06,"[0.0, 0.0, 0.0, 0.0, 0.0, 0.0, 0.0, 0.0, 0.0]",,-0.205331281666,-0.0014946890765,9.81260668874,"[0.0, 0.0, 0.0, 0.0, 0.0, 0.0, 0.0, 0.0, 0.0]"
1555426868546315650,,87,,1555426868,546105728,"""cf3/base_link""",,0.0,0.0,0.0,0.0,"[-1.0, 0.0, 0.0, 0.0, 0.0, 0.0, 0.0, 0.0, 0.0]",,0.000379464922682,0.000342048874756,-0.000658921059405,"[0.0, 0.0, 0.0, 0.0, 0.0, 0.0, 0.0, 0.0, 0.0]",,-0.201167187039,-0.0028869628004,9.80756872773,"[0.0, 0.0, 0.0, 0.0, 0.0, 0.0, 0.0, 0.0, 0.0]"
1555426868557326467,,88,,1555426868,556933540,"""cf3/base_link""",,0.0,0.0,0.0,0.0,"[-1.0, 0.0, 0.0, 0.0, 0.0, 0.0, 0.0, 0.0, 0.0]",,-0.000739053860115,0.000114963547296,0.000472102812152,"[0.0, 0.0, 0.0, 0.0, 0.0, 0.0, 0.0, 0.0, 0.0]",,-0.219262821134,-0.00887881652685,9.8090808177,"[0.0, 0.0, 0.0, 0.0, 0.0, 0.0, 0.0, 0.0, 0.0]"
1555426868566253708,,89,,1555426868,565950560,"""cf3/base_link""",,0.0,0.0,0.0,0.0,"[-1.0, 0.0, 0.0, 0.0, 0.0, 0.0, 0.0, 0.0, 0.0]",,0.00156886442709,-0.000163146184646,0.000267081719057,"[0.0, 0.0, 0.0, 0.0, 0.0, 0.0, 0.0, 0.0, 0.0]",,-0.216675848477,-0.00552766417502,9.8129282856,"[0.0, 0.0, 0.0, 0.0, 0.0, 0.0, 0.0, 0.0, 0.0]"
1555426868573071928,,90,,1555426868,572759827,"""cf3/base_link""",,0.0,0.0,0.0,0.0,"[-1.0, 0.0, 0.0, 0.0, 0.0, 0.0, 0.0, 0.0, 0.0]",,0.00117522230028,-0.00106717617738,-0.000227175800816,"[0.0, 0.0, 0.0, 0.0, 0.0, 0.0, 0.0, 0.0, 0.0]",,-0.210258072484,-5.11405862426e-05,9.82390701771,"[0.0, 0.0, 0.0, 0.0, 0.0, 0.0, 0.0, 0.0, 0.0]"
1555426868585984117,,91,,1555426868,585684714,"""cf3/base_link""",,0.0,0.0,0.0,0.0,"[-1.0, 0.0, 0.0, 0.0, 0.0, 0.0, 0.0, 0.0, 0.0]",,0.00095357473685,0.00117758559567,-9.64951330604e-06,"[0.0, 0.0, 0.0, 0.0, 0.0, 0.0, 0.0, 0.0, 0.0]",,-0.200096086767,0.00555705100182,9.82066064358,"[0.0, 0.0, 0.0, 0.0, 0.0, 0.0, 0.0, 0.0, 0.0]"
1555426868592524757,,92,,1555426868,592218929,"""cf3/base_link""",,0.0,0.0,0.0,0.0,"[-1.0, 0.0, 0.0, 0.0, 0.0, 0.0, 0.0, 0.0, 0.0]",,0.000653427509434,-1.25198632168e-05,-0.000419593773384,"[0.0, 0.0, 0.0, 0.0, 0.0, 0.0, 0.0, 0.0, 0.0]",,-0.198458117209,0.00496858813218,9.819592942,"[0.0, 0.0, 0.0, 0.0, 0.0, 0.0, 0.0, 0.0, 0.0]"
1555426868605515584,,93,,1555426868,605159137,"""cf3/base_link""",,0.0,0.0,0.0,0.0,"[-1.0, 0.0, 0.0, 0.0, 0.0, 0.0, 0.0, 0.0, 0.0]",,0.00192086449324,0.000760218383607,-5.91976871546e-05,"[0.0, 0.0, 0.0, 0.0, 0.0, 0.0, 0.0, 0.0, 0.0]",,-0.198087020013,0.0156506334327,9.79537377477,"[0.0, 0.0, 0.0, 0.0, 0.0, 0.0, 0.0, 0.0, 0.0]"
1555426868612069356,,94,,1555426868,611842121,"""cf3/base_link""",,0.0,0.0,0.0,0.0,"[-1.0, 0.0, 0.0, 0.0, 0.0, 0.0, 0.0, 0.0, 0.0]",,0.000226787704904,-0.00130511278096,0.000925834364083,"[0.0, 0.0, 0.0, 0.0, 0.0, 0.0, 0.0, 0.0, 0.0]",,-0.202668441385,0.0171172179014,9.79317463696,"[0.0, 0.0, 0.0, 0.0, 0.0, 0.0, 0.0, 0.0, 0.0]"
1555426868624808940,,95,,1555426868,624503788,"""cf3/base_link""",,0.0,0.0,0.0,0.0,"[-1.0, 0.0, 0.0, 0.0, 0.0, 0.0, 0.0, 0.0, 0.0]",,0.000408096992783,-0.000312043839783,0.000459319281317,"[0.0, 0.0, 0.0, 0.0, 0.0, 0.0, 0.0, 0.0, 0.0]",,-0.208188724592,0.00408516492433,9.80447847426,"[0.0, 0.0, 0.0, 0.0, 0.0, 0.0, 0.0, 0.0, 0.0]"
1555426868631619898,,96,,1555426868,631329802,"""cf3/base_link""",,0.0,0.0,0.0,0.0,"[-1.0, 0.0, 0.0, 0.0, 0.0, 0.0, 0.0, 0.0, 0.0]",,-0.00139862471522,-0.000313284686898,-0.000862251067964,"[0.0, 0.0, 0.0, 0.0, 0.0, 0.0, 0.0, 0.0, 0.0]",,-0.198784611113,0.00160647110897,9.81764231086,"[0.0, 0.0, 0.0, 0.0, 0.0, 0.0, 0.0, 0.0, 0.0]"
1555426868644164828,,97,,1555426868,643913412,"""cf3/base_link""",,0.0,0.0,0.0,0.0,"[-1.0, 0.0, 0.0, 0.0, 0.0, 0.0, 0.0, 0.0, 0.0]",,-0.00127964500267,0.000241768782513,5.25182348334e-05,"[0.0, 0.0, 0.0, 0.0, 0.0, 0.0, 0.0, 0.0, 0.0]",,-0.204835273325,0.00376075808803,9.80305467725,"[0.0, 0.0, 0.0, 0.0, 0.0, 0.0, 0.0, 0.0, 0.0]"
1555426868657667027,,98,,1555426868,657365644,"""cf3/base_link""",,0.0,0.0,0.0,0.0,"[-1.0, 0.0, 0.0, 0.0, 0.0, 0.0, 0.0, 0.0, 0.0]",,-0.00049824782399,6.42947771832e-06,-0.000697555425507,"[0.0, 0.0, 0.0, 0.0, 0.0, 0.0, 0.0, 0.0, 0.0]",,-0.20104898192,-0.00489220430958,9.79531530261,"[0.0, 0.0, 0.0, 0.0, 0.0, 0.0, 0.0, 0.0, 0.0]"
1555426868666940901,,99,,1555426868,666699486,"""cf3/base_link""",,0.0,0.0,0.0,0.0,"[-1.0, 0.0, 0.0, 0.0, 0.0, 0.0, 0.0, 0.0, 0.0]",,-0.000985865304993,0.000465941261276,-0.0004619754204,"[0.0, 0.0, 0.0, 0.0, 0.0, 0.0, 0.0, 0.0, 0.0]",,-0.202420373261,-0.00901180527988,9.81192841172,"[0.0, 0.0, 0.0, 0.0, 0.0, 0.0, 0.0, 0.0, 0.0]"
1555426868671958275,,100,,1555426868,671646325,"""cf3/base_link""",,0.0,0.0,0.0,0.0,"[-1.0, 0.0, 0.0, 0.0, 0.0, 0.0, 0.0, 0.0, 0.0]",,-1.07480926536e-05,-0.000349578416582,0.00010264182719,"[0.0, 0.0, 0.0, 0.0, 0.0, 0.0, 0.0, 0.0, 0.0]",,-0.203238910362,0.00363241598709,9.82874149561,"[0.0, 0.0, 0.0, 0.0, 0.0, 0.0, 0.0, 0.0, 0.0]"
1555426868685036143,,101,,1555426868,684726135,"""cf3/base_link""",,0.0,0.0,0.0,0.0,"[-1.0, 0.0, 0.0, 0.0, 0.0, 0.0, 0.0, 0.0, 0.0]",,0.00105869378824,-0.000135106734531,-0.00110525970606,"[0.0, 0.0, 0.0, 0.0, 0.0, 0.0, 0.0, 0.0, 0.0]",,-0.204967913758,0.000637650786884,9.80876039028,"[0.0, 0.0, 0.0, 0.0, 0.0, 0.0, 0.0, 0.0, 0.0]"
1555426868691653309,,102,,1555426868,691291484,"""cf3/base_link""",,0.0,0.0,0.0,0.0,"[-1.0, 0.0, 0.0, 0.0, 0.0, 0.0, 0.0, 0.0, 0.0]",,0.000158659203586,0.00140558742506,0.00013126616008,"[0.0, 0.0, 0.0, 0.0, 0.0, 0.0, 0.0, 0.0, 0.0]",,-0.212710321639,-0.00487086882466,9.79679347873,"[0.0, 0.0, 0.0, 0.0, 0.0, 0.0, 0.0, 0.0, 0.0]"
1555426868704876075,,103,,1555426868,704331288,"""cf3/base_link""",,0.0,0.0,0.0,0.0,"[-1.0, 0.0, 0.0, 0.0, 0.0, 0.0, 0.0, 0.0, 0.0]",,0.00026586091392,-0.000799920159758,-0.000391585198968,"[0.0, 0.0, 0.0, 0.0, 0.0, 0.0, 0.0, 0.0, 0.0]",,-0.202146595661,0.00782317083387,9.79292729974,"[0.0, 0.0, 0.0, 0.0, 0.0, 0.0, 0.0, 0.0, 0.0]"
1555426868711203948,,104,,1555426868,710871818,"""cf3/base_link""",,0.0,0.0,0.0,0.0,"[-1.0, 0.0, 0.0, 0.0, 0.0, 0.0, 0.0, 0.0, 0.0]",,0.000436800420777,0.000240643440908,0.00112842244561,"[0.0, 0.0, 0.0, 0.0, 0.0, 0.0, 0.0, 0.0, 0.0]",,-0.195962087028,-0.00263357508054,9.7919934994,"[0.0, 0.0, 0.0, 0.0, 0.0, 0.0, 0.0, 0.0, 0.0]"
1555426868723954469,,105,,1555426868,723679140,"""cf3/base_link""",,0.0,0.0,0.0,0.0,"[-1.0, 0.0, 0.0, 0.0, 0.0, 0.0, 0.0, 0.0, 0.0]",,0.000794077394987,0.000599602852183,-0.000170540195239,"[0.0, 0.0, 0.0, 0.0, 0.0, 0.0, 0.0, 0.0, 0.0]",,-0.210557851922,0.00723343973514,9.79045860529,"[0.0, 0.0, 0.0, 0.0, 0.0, 0.0, 0.0, 0.0, 0.0]"
1555426868730759352,,106,,1555426868,730382755,"""cf3/base_link""",,0.0,0.0,0.0,0.0,"[-1.0, 0.0, 0.0, 0.0, 0.0, 0.0, 0.0, 0.0, 0.0]",,0.000257530717029,-0.000923515671436,-0.000704497654488,"[0.0, 0.0, 0.0, 0.0, 0.0, 0.0, 0.0, 0.0, 0.0]",,-0.208295984454,0.00827450336306,9.79584038258,"[0.0, 0.0, 0.0, 0.0, 0.0, 0.0, 0.0, 0.0, 0.0]"
1555426868745229482,,107,,1555426868,744959544,"""cf3/base_link""",,0.0,0.0,0.0,0.0,"[-1.0, 0.0, 0.0, 0.0, 0.0, 0.0, 0.0, 0.0, 0.0]",,0.000548414048218,0.00135479204853,-0.00168155645272,"[0.0, 0.0, 0.0, 0.0, 0.0, 0.0, 0.0, 0.0, 0.0]",,-0.198841237742,-0.0037033177595,9.79204904795,"[0.0, 0.0, 0.0, 0.0, 0.0, 0.0, 0.0, 0.0, 0.0]"
1555426868752224857,,108,,1555426868,751852383,"""cf3/base_link""",,0.0,0.0,0.0,0.0,"[-1.0, 0.0, 0.0, 0.0, 0.0, 0.0, 0.0, 0.0, 0.0]",,0.000384558705906,0.00127324236289,0.000137650659671,"[0.0, 0.0, 0.0, 0.0, 0.0, 0.0, 0.0, 0.0, 0.0]",,-0.197630370744,-0.00630243566644,9.79500832379,"[0.0, 0.0, 0.0, 0.0, 0.0, 0.0, 0.0, 0.0, 0.0]"
1555426868765001870,,109,,1555426868,764724323,"""cf3/base_link""",,0.0,0.0,0.0,0.0,"[-1.0, 0.0, 0.0, 0.0, 0.0, 0.0, 0.0, 0.0, 0.0]",,-0.00122210719926,0.000626853895108,0.00211040250026,"[0.0, 0.0, 0.0, 0.0, 0.0, 0.0, 0.0, 0.0, 0.0]",,-0.210329938419,0.00127740562923,9.79673325241,"[0.0, 0.0, 0.0, 0.0, 0.0, 0.0, 0.0, 0.0, 0.0]"
1555426868771901659,,110,,1555426868,771502928,"""cf3/base_link""",,0.0,0.0,0.0,0.0,"[-1.0, 0.0, 0.0, 0.0, 0.0, 0.0, 0.0, 0.0, 0.0]",,-0.000712125114298,-0.00153608088806,-0.00154013479661,"[0.0, 0.0, 0.0, 0.0, 0.0, 0.0, 0.0, 0.0, 0.0]",,-0.212794101276,0.000135790109653,9.81410825372,"[0.0, 0.0, 0.0, 0.0, 0.0, 0.0, 0.0, 0.0, 0.0]"
1555426868792949155,,111,,1555426868,792577452,"""cf3/base_link""",,0.0,0.0,0.0,0.0,"[-1.0, 0.0, 0.0, 0.0, 0.0, 0.0, 0.0, 0.0, 0.0]",,0.000289435546184,-0.00011784092023,0.0013907081828,"[0.0, 0.0, 0.0, 0.0, 0.0, 0.0, 0.0, 0.0, 0.0]",,-0.202478096243,-0.00114899236527,9.80089003801,"[0.0, 0.0, 0.0, 0.0, 0.0, 0.0, 0.0, 0.0, 0.0]"
1555426868797754543,,112,,1555426868,797461286,"""cf3/base_link""",,0.0,0.0,0.0,0.0,"[-1.0, 0.0, 0.0, 0.0, 0.0, 0.0, 0.0, 0.0, 0.0]",,-0.000295886039635,0.00109273283607,0.00110108369262,"[0.0, 0.0, 0.0, 0.0, 0.0, 0.0, 0.0, 0.0, 0.0]",,-0.211832892112,0.00310455288389,9.80249860704,"[0.0, 0.0, 0.0, 0.0, 0.0, 0.0, 0.0, 0.0, 0.0]"
1555426868807124753,,113,,1555426868,806791840,"""cf3/base_link""",,0.0,0.0,0.0,0.0,"[-1.0, 0.0, 0.0, 0.0, 0.0, 0.0, 0.0, 0.0, 0.0]",,-5.6455183077e-05,0.00166256699583,0.000175147086817,"[0.0, 0.0, 0.0, 0.0, 0.0, 0.0, 0.0, 0.0, 0.0]",,-0.215880060699,0.00463123719353,9.81229561687,"[0.0, 0.0, 0.0, 0.0, 0.0, 0.0, 0.0, 0.0, 0.0]"
1555426868811845000,,114,,1555426868,811559378,"""cf3/base_link""",,0.0,0.0,0.0,0.0,"[-1.0, 0.0, 0.0, 0.0, 0.0, 0.0, 0.0, 0.0, 0.0]",,0.000933697906361,-0.000823621318181,-0.00143736876767,"[0.0, 0.0, 0.0, 0.0, 0.0, 0.0, 0.0, 0.0, 0.0]",,-0.211608943753,0.00749156575534,9.80587771297,"[0.0, 0.0, 0.0, 0.0, 0.0, 0.0, 0.0, 0.0, 0.0]"
1555426868824695292,,115,,1555426868,824351052,"""cf3/base_link""",,0.0,0.0,0.0,0.0,"[-1.0, 0.0, 0.0, 0.0, 0.0, 0.0, 0.0, 0.0, 0.0]",,-0.00065596804548,-0.00226589755833,0.00108791521927,"[0.0, 0.0, 0.0, 0.0, 0.0, 0.0, 0.0, 0.0, 0.0]",,-0.191591530871,0.016064820725,9.81351066828,"[0.0, 0.0, 0.0, 0.0, 0.0, 0.0, 0.0, 0.0, 0.0]"
1555426868831397683,,116,,1555426868,831058497,"""cf3/base_link""",,0.0,0.0,0.0,0.0,"[-1.0, 0.0, 0.0, 0.0, 0.0, 0.0, 0.0, 0.0, 0.0]",,0.000784182997322,0.000856039257725,-7.35330002145e-05,"[0.0, 0.0, 0.0, 0.0, 0.0, 0.0, 0.0, 0.0, 0.0]",,-0.209433688167,0.00387266117614,9.81726458073,"[0.0, 0.0, 0.0, 0.0, 0.0, 0.0, 0.0, 0.0, 0.0]"
1555426868844534830,,117,,1555426868,844170842,"""cf3/base_link""",,0.0,0.0,0.0,0.0,"[-1.0, 0.0, 0.0, 0.0, 0.0, 0.0, 0.0, 0.0, 0.0]",,-0.00141932468095,0.000145699960036,-0.000164456569133,"[0.0, 0.0, 0.0, 0.0, 0.0, 0.0, 0.0, 0.0, 0.0]",,-0.193157342132,-0.00411959725869,9.80540642738,"[0.0, 0.0, 0.0, 0.0, 0.0, 0.0, 0.0, 0.0, 0.0]"
1555426868851353467,,118,,1555426868,850968202,"""cf3/base_link""",,0.0,0.0,0.0,0.0,"[-1.0, 0.0, 0.0, 0.0, 0.0, 0.0, 0.0, 0.0, 0.0]",,0.00231971369815,-0.000598471788943,-0.000928438748375,"[0.0, 0.0, 0.0, 0.0, 0.0, 0.0, 0.0, 0.0, 0.0]",,-0.206567017604,-0.000939109371684,9.80348620176,"[0.0, 0.0, 0.0, 0.0, 0.0, 0.0, 0.0, 0.0, 0.0]"
1555426868863995871,,119,,1555426868,863763422,"""cf3/base_link""",,0.0,0.0,0.0,0.0,"[-1.0, 0.0, 0.0, 0.0, 0.0, 0.0, 0.0, 0.0, 0.0]",,0.00104708257494,-0.000127717364639,0.00248141360947,"[0.0, 0.0, 0.0, 0.0, 0.0, 0.0, 0.0, 0.0, 0.0]",,-0.208214324433,-0.00880341371172,9.82320067406,"[0.0, 0.0, 0.0, 0.0, 0.0, 0.0, 0.0, 0.0, 0.0]"
1555426868870781789,,120,,1555426868,870451715,"""cf3/base_link""",,0.0,0.0,0.0,0.0,"[-1.0, 0.0, 0.0, 0.0, 0.0, 0.0, 0.0, 0.0, 0.0]",,0.000418907112147,-0.00132400158909,-0.000174990457055,"[0.0, 0.0, 0.0, 0.0, 0.0, 0.0, 0.0, 0.0, 0.0]",,-0.201103233118,-0.0126307532564,9.83114470124,"[0.0, 0.0, 0.0, 0.0, 0.0, 0.0, 0.0, 0.0, 0.0]"
1555426868883829115,,121,,1555426868,883505259,"""cf3/base_link""",,0.0,0.0,0.0,0.0,"[-1.0, 0.0, 0.0, 0.0, 0.0, 0.0, 0.0, 0.0, 0.0]",,0.00204201309563,-0.000250282981989,-0.00107670705615,"[0.0, 0.0, 0.0, 0.0, 0.0, 0.0, 0.0, 0.0, 0.0]",,-0.210021826699,0.0024448242184,9.81836034894,"[0.0, 0.0, 0.0, 0.0, 0.0, 0.0, 0.0, 0.0, 0.0]"
1555426868890540828,,122,,1555426868,890185588,"""cf3/base_link""",,0.0,0.0,0.0,0.0,"[-1.0, 0.0, 0.0, 0.0, 0.0, 0.0, 0.0, 0.0, 0.0]",,0.000861025207632,-0.000579422384919,0.00117903394959,"[0.0, 0.0, 0.0, 0.0, 0.0, 0.0, 0.0, 0.0, 0.0]",,-0.21637341952,0.00654167301022,9.80411945522,"[0.0, 0.0, 0.0, 0.0, 0.0, 0.0, 0.0, 0.0, 0.0]"
1555426868905413341,,123,,1555426868,904675363,"""cf3/base_link""",,0.0,0.0,0.0,0.0,"[-1.0, 0.0, 0.0, 0.0, 0.0, 0.0, 0.0, 0.0, 0.0]",,0.00136470218069,0.00101916795237,-0.000974522033262,"[0.0, 0.0, 0.0, 0.0, 0.0, 0.0, 0.0, 0.0, 0.0]",,-0.208732351195,0.0110121480329,9.80151919842,"[0.0, 0.0, 0.0, 0.0, 0.0, 0.0, 0.0, 0.0, 0.0]"
1555426868919458594,,124,,1555426868,919261355,"""cf3/base_link""",,0.0,0.0,0.0,0.0,"[-1.0, 0.0, 0.0, 0.0, 0.0, 0.0, 0.0, 0.0, 0.0]",,-0.000128205979278,0.000333372372647,-0.00111712572718,"[0.0, 0.0, 0.0, 0.0, 0.0, 0.0, 0.0, 0.0, 0.0]",,-0.198648992255,0.0127141457435,9.8078499788,"[0.0, 0.0, 0.0, 0.0, 0.0, 0.0, 0.0, 0.0, 0.0]"
1555426868928296247,,125,,1555426868,928136424,"""cf3/base_link""",,0.0,0.0,0.0,0.0,"[-1.0, 0.0, 0.0, 0.0, 0.0, 0.0, 0.0, 0.0, 0.0]",,0.00143801089118,-0.00037322255371,0.000785319001974,"[0.0, 0.0, 0.0, 0.0, 0.0, 0.0, 0.0, 0.0, 0.0]",,-0.20742387224,0.00365483554808,9.80570171177,"[0.0, 0.0, 0.0, 0.0, 0.0, 0.0, 0.0, 0.0, 0.0]"
1555426868932909395,,126,,1555426868,932764271,"""cf3/base_link""",,0.0,0.0,0.0,0.0,"[-1.0, 0.0, 0.0, 0.0, 0.0, 0.0, 0.0, 0.0, 0.0]",,-0.000786195127357,-0.00104339068985,0.000872795261331,"[0.0, 0.0, 0.0, 0.0, 0.0, 0.0, 0.0, 0.0, 0.0]",,-0.206194020063,0.00358800027432,9.81099636555,"[0.0, 0.0, 0.0, 0.0, 0.0, 0.0, 0.0, 0.0, 0.0]"
1555426868943378276,,127,,1555426868,943269304,"""cf3/base_link""",,0.0,0.0,0.0,0.0,"[-1.0, 0.0, 0.0, 0.0, 0.0, 0.0, 0.0, 0.0, 0.0]",,-2.41893890455e-05,0.00125974125449,0.000409946088725,"[0.0, 0.0, 0.0, 0.0, 0.0, 0.0, 0.0, 0.0, 0.0]",,-0.21011452334,0.00837467119214,9.81650327325,"[0.0, 0.0, 0.0, 0.0, 0.0, 0.0, 0.0, 0.0, 0.0]"
1555426868949751675,,128,,1555426868,949613080,"""cf3/base_link""",,0.0,0.0,0.0,0.0,"[-1.0, 0.0, 0.0, 0.0, 0.0, 0.0, 0.0, 0.0, 0.0]",,-0.000806740543918,-0.00183997383595,0.000108083191623,"[0.0, 0.0, 0.0, 0.0, 0.0, 0.0, 0.0, 0.0, 0.0]",,-0.206147004794,0.00756284982373,9.80619521677,"[0.0, 0.0, 0.0, 0.0, 0.0, 0.0, 0.0, 0.0, 0.0]"
1555426868963487471,,129,,1555426868,963402779,"""cf3/base_link""",,0.0,0.0,0.0,0.0,"[-1.0, 0.0, 0.0, 0.0, 0.0, 0.0, 0.0, 0.0, 0.0]",,-0.000732183996815,0.000523527438511,0.000896510398749,"[0.0, 0.0, 0.0, 0.0, 0.0, 0.0, 0.0, 0.0, 0.0]",,-0.198892802875,0.014483646818,9.81445323944,"[0.0, 0.0, 0.0, 0.0, 0.0, 0.0, 0.0, 0.0, 0.0]"
1555426868970110234,,130,,1555426868,969910015,"""cf3/base_link""",,0.0,0.0,0.0,0.0,"[-1.0, 0.0, 0.0, 0.0, 0.0, 0.0, 0.0, 0.0, 0.0]",,0.000500426499122,0.000426567178775,0.000812863538775,"[0.0, 0.0, 0.0, 0.0, 0.0, 0.0, 0.0, 0.0, 0.0]",,-0.200482057817,0.00488903173828,9.7864813292,"[0.0, 0.0, 0.0, 0.0, 0.0, 0.0, 0.0, 0.0, 0.0]"
1555426868984133363,,131,,1555426868,984048802,"""cf3/base_link""",,0.0,0.0,0.0,0.0,"[-1.0, 0.0, 0.0, 0.0, 0.0, 0.0, 0.0, 0.0, 0.0]",,-0.000645968382732,0.000226915076305,-0.00201832786676,"[0.0, 0.0, 0.0, 0.0, 0.0, 0.0, 0.0, 0.0, 0.0]",,-0.198854010254,-0.000884737475208,9.79424233854,"[0.0, 0.0, 0.0, 0.0, 0.0, 0.0, 0.0, 0.0, 0.0]"
1555426868990549897,,132,,1555426868,990463464,"""cf3/base_link""",,0.0,0.0,0.0,0.0,"[-1.0, 0.0, 0.0, 0.0, 0.0, 0.0, 0.0, 0.0, 0.0]",,0.00106699952189,0.00125358477506,-0.00107819279576,"[0.0, 0.0, 0.0, 0.0, 0.0, 0.0, 0.0, 0.0, 0.0]",,-0.215340600237,-0.00335083971993,9.80475680172,"[0.0, 0.0, 0.0, 0.0, 0.0, 0.0, 0.0, 0.0, 0.0]"
1555426869003028212,,133,,1555426869,2704812,"""cf3/base_link""",,0.0,0.0,0.0,0.0,"[-1.0, 0.0, 0.0, 0.0, 0.0, 0.0, 0.0, 0.0, 0.0]",,0.00182819702032,-0.00068139297653,0.000903062646279,"[0.0, 0.0, 0.0, 0.0, 0.0, 0.0, 0.0, 0.0, 0.0]",,-0.217797764707,0.00447097352066,9.80463868797,"[0.0, 0.0, 0.0, 0.0, 0.0, 0.0, 0.0, 0.0, 0.0]"
1555426869009159256,,134,,1555426869,9040662,"""cf3/base_link""",,0.0,0.0,0.0,0.0,"[-1.0, 0.0, 0.0, 0.0, 0.0, 0.0, 0.0, 0.0, 0.0]",,0.000994288332164,0.000248569189714,-0.00082556088748,"[0.0, 0.0, 0.0, 0.0, 0.0, 0.0, 0.0, 0.0, 0.0]",,-0.214767171107,-0.00443071938091,9.8099619931,"[0.0, 0.0, 0.0, 0.0, 0.0, 0.0, 0.0, 0.0, 0.0]"
1555426869023329824,,135,,1555426869,23141920,"""cf3/base_link""",,0.0,0.0,0.0,0.0,"[-1.0, 0.0, 0.0, 0.0, 0.0, 0.0, 0.0, 0.0, 0.0]",,-0.00026747114785,0.000261547386181,0.00173984691123,"[0.0, 0.0, 0.0, 0.0, 0.0, 0.0, 0.0, 0.0, 0.0]",,-0.21033130886,-0.000976240190357,9.80819379508,"[0.0, 0.0, 0.0, 0.0, 0.0, 0.0, 0.0, 0.0, 0.0]"
1555426869029884432,,136,,1555426869,29698381,"""cf3/base_link""",,0.0,0.0,0.0,0.0,"[-1.0, 0.0, 0.0, 0.0, 0.0, 0.0, 0.0, 0.0, 0.0]",,0.00127596599126,0.000357410197284,-0.000538442831099,"[0.0, 0.0, 0.0, 0.0, 0.0, 0.0, 0.0, 0.0, 0.0]",,-0.208622880355,0.00373272028926,9.82320067406,"[0.0, 0.0, 0.0, 0.0, 0.0, 0.0, 0.0, 0.0, 0.0]"
1555426869052133085,,137,,1555426869,51932117,"""cf3/base_link""",,0.0,0.0,0.0,0.0,"[-1.0, 0.0, 0.0, 0.0, 0.0, 0.0, 0.0, 0.0, 0.0]",,-0.000481769547254,0.000748331686574,-0.000480568621549,"[0.0, 0.0, 0.0, 0.0, 0.0, 0.0, 0.0, 0.0, 0.0]",,-0.20116397107,0.00553905710927,9.82309425473,"[0.0, 0.0, 0.0, 0.0, 0.0, 0.0, 0.0, 0.0, 0.0]"
1555426869056801498,,138,,1555426869,56609770,"""cf3/base_link""",,0.0,0.0,0.0,0.0,"[-1.0, 0.0, 0.0, 0.0, 0.0, 0.0, 0.0, 0.0, 0.0]",,0.000760006032921,0.00044913717643,0.00038571753208,"[0.0, 0.0, 0.0, 0.0, 0.0, 0.0, 0.0, 0.0, 0.0]",,-0.204480895512,0.00653367705701,9.81792648554,"[0.0, 0.0, 0.0, 0.0, 0.0, 0.0, 0.0, 0.0, 0.0]"
1555426869065998698,,139,,1555426869,65623116,"""cf3/base_link""",,0.0,0.0,0.0,0.0,"[-1.0, 0.0, 0.0, 0.0, 0.0, 0.0, 0.0, 0.0, 0.0]",,0.000867258343966,0.00179148830954,0.00192910767901,"[0.0, 0.0, 0.0, 0.0, 0.0, 0.0, 0.0, 0.0, 0.0]",,-0.210539944824,-0.00899522351276,9.82964430571,"[0.0, 0.0, 0.0, 0.0, 0.0, 0.0, 0.0, 0.0, 0.0]"
1555426869070820689,,140,,1555426869,70482964,"""cf3/base_link""",,0.0,0.0,0.0,0.0,"[-1.0, 0.0, 0.0, 0.0, 0.0, 0.0, 0.0, 0.0, 0.0]",,-0.00113380624422,-0.000119973058312,-0.000719518702271,"[0.0, 0.0, 0.0, 0.0, 0.0, 0.0, 0.0, 0.0, 0.0]",,-0.217598904558,-0.0114866678556,9.83380050659,"[0.0, 0.0, 0.0, 0.0, 0.0, 0.0, 0.0, 0.0, 0.0]"
1555426869083574370,,141,,1555426869,83264653,"""cf3/base_link""",,0.0,0.0,0.0,0.0,"[-1.0, 0.0, 0.0, 0.0, 0.0, 0.0, 0.0, 0.0, 0.0]",,0.000752560170009,-0.000623642367303,0.00025082647231,"[0.0, 0.0, 0.0, 0.0, 0.0, 0.0, 0.0, 0.0, 0.0]",,-0.208167546708,-0.0104264009208,9.81452691436,"[0.0, 0.0, 0.0, 0.0, 0.0, 0.0, 0.0, 0.0, 0.0]"
1555426869090132019,,142,,1555426869,89870211,"""cf3/base_link""",,0.0,0.0,0.0,0.0,"[-1.0, 0.0, 0.0, 0.0, 0.0, 0.0, 0.0, 0.0, 0.0]",,-0.000819344200848,4.06334802301e-05,-0.00112581806132,"[0.0, 0.0, 0.0, 0.0, 0.0, 0.0, 0.0, 0.0, 0.0]",,-0.197104249243,0.00255775199679,9.81512917757,"[0.0, 0.0, 0.0, 0.0, 0.0, 0.0, 0.0, 0.0, 0.0]"
1555426869103289535,,143,,1555426869,103061334,"""cf3/base_link""",,0.0,0.0,0.0,0.0,"[-1.0, 0.0, 0.0, 0.0, 0.0, 0.0, 0.0, 0.0, 0.0]",,0.00190295902614,-0.00125992408674,-0.000466204423984,"[0.0, 0.0, 0.0, 0.0, 0.0, 0.0, 0.0, 0.0, 0.0]",,-0.199130656645,0.000594451661855,9.81809956312,"[0.0, 0.0, 0.0, 0.0, 0.0, 0.0, 0.0, 0.0, 0.0]"
1555426869109931616,,144,,1555426869,109602177,"""cf3/base_link""",,0.0,0.0,0.0,0.0,"[-1.0, 0.0, 0.0, 0.0, 0.0, 0.0, 0.0, 0.0, 0.0]",,-0.000436900029243,-0.000664391007632,-0.00113096480218,"[0.0, 0.0, 0.0, 0.0, 0.0, 0.0, 0.0, 0.0, 0.0]",,-0.199375051986,-0.00513887172856,9.8188690567,"[0.0, 0.0, 0.0, 0.0, 0.0, 0.0, 0.0, 0.0, 0.0]"
1555426869124736938,,145,,1555426869,124409636,"""cf3/base_link""",,0.0,0.0,0.0,0.0,"[-1.0, 0.0, 0.0, 0.0, 0.0, 0.0, 0.0, 0.0, 0.0]",,0.00160475000263,5.12482472031e-05,0.000462197588893,"[0.0, 0.0, 0.0, 0.0, 0.0, 0.0, 0.0, 0.0, 0.0]",,-0.197907748036,0.000180202592601,9.82088049889,"[0.0, 0.0, 0.0, 0.0, 0.0, 0.0, 0.0, 0.0, 0.0]"
1555426869131506154,,146,,1555426869,131148193,"""cf3/base_link""",,0.0,0.0,0.0,0.0,"[-1.0, 0.0, 0.0, 0.0, 0.0, 0.0, 0.0, 0.0, 0.0]",,-0.000595561492225,3.54879787882e-05,0.00160129608555,"[0.0, 0.0, 0.0, 0.0, 0.0, 0.0, 0.0, 0.0, 0.0]",,-0.198777722362,0.0061203028931,9.80138939023,"[0.0, 0.0, 0.0, 0.0, 0.0, 0.0, 0.0, 0.0, 0.0]"
1555426869144126256,,147,,1555426869,143936254,"""cf3/base_link""",,0.0,0.0,0.0,0.0,"[-1.0, 0.0, 0.0, 0.0, 0.0, 0.0, 0.0, 0.0, 0.0]",,-0.000441999989232,0.000953996512387,-0.00116152561598,"[0.0, 0.0, 0.0, 0.0, 0.0, 0.0, 0.0, 0.0, 0.0]",,-0.209892164692,0.0185549020499,9.80812012017,"[0.0, 0.0, 0.0, 0.0, 0.0, 0.0, 0.0, 0.0, 0.0]"
1555426869150755926,,148,,1555426869,150514689,"""cf3/base_link""",,0.0,0.0,0.0,0.0,"[-1.0, 0.0, 0.0, 0.0, 0.0, 0.0, 0.0, 0.0, 0.0]",,-0.000996095523631,-0.000678832999929,0.00108862639252,"[0.0, 0.0, 0.0, 0.0, 0.0, 0.0, 0.0, 0.0, 0.0]",,-0.211529037897,0.000596357110408,9.8068465966,"[0.0, 0.0, 0.0, 0.0, 0.0, 0.0, 0.0, 0.0, 0.0]"
1555426869163275285,,149,,1555426869,163161423,"""cf3/base_link""",,0.0,0.0,0.0,0.0,"[-1.0, 0.0, 0.0, 0.0, 0.0, 0.0, 0.0, 0.0, 0.0]",,0.00120413450294,0.00130140282071,0.000973337264674,"[0.0, 0.0, 0.0, 0.0, 0.0, 0.0, 0.0, 0.0, 0.0]",,-0.20336312715,1.13355820154e-06,9.81710553646,"[0.0, 0.0, 0.0, 0.0, 0.0, 0.0, 0.0, 0.0, 0.0]"
1555426869169911129,,150,,1555426869,169690753,"""cf3/base_link""",,0.0,0.0,0.0,0.0,"[-1.0, 0.0, 0.0, 0.0, 0.0, 0.0, 0.0, 0.0, 0.0]",,0.000317580952204,-8.80354516648e-05,0.000217767254499,"[0.0, 0.0, 0.0, 0.0, 0.0, 0.0, 0.0, 0.0, 0.0]",,-0.204021852538,-0.0019208972792,9.82127810955,"[0.0, 0.0, 0.0, 0.0, 0.0, 0.0, 0.0, 0.0, 0.0]"
1555426869188625142,,151,,1555426869,188386210,"""cf3/base_link""",,0.0,0.0,0.0,0.0,"[-1.0, 0.0, 0.0, 0.0, 0.0, 0.0, 0.0, 0.0, 0.0]",,0.000192438941061,-0.000668888993086,-0.00050884227672,"[0.0, 0.0, 0.0, 0.0, 0.0, 0.0, 0.0, 0.0, 0.0]",,-0.201407598965,-0.000552778829988,9.79805589259,"[0.0, 0.0, 0.0, 0.0, 0.0, 0.0, 0.0, 0.0, 0.0]"
1555426869193338097,,152,,1555426869,193065758,"""cf3/base_link""",,0.0,0.0,0.0,0.0,"[-1.0, 0.0, 0.0, 0.0, 0.0, 0.0, 0.0, 0.0, 0.0]",,-0.00138708729801,-0.00182162286152,0.000798670827719,"[0.0, 0.0, 0.0, 0.0, 0.0, 0.0, 0.0, 0.0, 0.0]",,-0.201339168269,0.00247700160602,9.77721583128,"[0.0, 0.0, 0.0, 0.0, 0.0, 0.0, 0.0, 0.0, 0.0]"
1555426869204264345,,153,,1555426869,203869117,"""cf3/base_link""",,0.0,0.0,0.0,0.0,"[-1.0, 0.0, 0.0, 0.0, 0.0, 0.0, 0.0, 0.0, 0.0]",,-0.00013242071941,0.0015952812166,0.000617773009932,"[0.0, 0.0, 0.0, 0.0, 0.0, 0.0, 0.0, 0.0, 0.0]",,-0.19807172589,0.0145266112906,9.79019606531,"[0.0, 0.0, 0.0, 0.0, 0.0, 0.0, 0.0, 0.0, 0.0]"
1555426869212292726,,154,,1555426869,212129062,"""cf3/base_link""",,0.0,0.0,0.0,0.0,"[-1.0, 0.0, 0.0, 0.0, 0.0, 0.0, 0.0, 0.0, 0.0]",,-0.00158158440226,-6.20216838965e-05,0.000447002551387,"[0.0, 0.0, 0.0, 0.0, 0.0, 0.0, 0.0, 0.0, 0.0]",,-0.205671571344,0.00223791315497,9.82098691821,"[0.0, 0.0, 0.0, 0.0, 0.0, 0.0, 0.0, 0.0, 0.0]"
1555426869223272909,,155,,1555426869,223014939,"""cf3/base_link""",,0.0,0.0,0.0,0.0,"[-1.0, 0.0, 0.0, 0.0, 0.0, 0.0, 0.0, 0.0, 0.0]",,-0.0010072685117,-3.93994803846e-05,0.000401743246981,"[0.0, 0.0, 0.0, 0.0, 0.0, 0.0, 0.0, 0.0, 0.0]",,-0.20104640549,-0.00799504185794,9.8119658339,"[0.0, 0.0, 0.0, 0.0, 0.0, 0.0, 0.0, 0.0, 0.0]"
1555426869229937819,,156,,1555426869,229696604,"""cf3/base_link""",,0.0,0.0,0.0,0.0,"[-1.0, 0.0, 0.0, 0.0, 0.0, 0.0, 0.0, 0.0, 0.0]",,-0.00018453035716,0.000517660519337,-0.000553222562416,"[0.0, 0.0, 0.0, 0.0, 0.0, 0.0, 0.0, 0.0, 0.0]",,-0.211246215384,-0.00049480863323,9.79061121762,"[0.0, 0.0, 0.0, 0.0, 0.0, 0.0, 0.0, 0.0, 0.0]"
1555426869242493199,,157,,1555426869,242245399,"""cf3/base_link""",,0.0,0.0,0.0,0.0,"[-1.0, 0.0, 0.0, 0.0, 0.0, 0.0, 0.0, 0.0, 0.0]",,9.52807891448e-05,0.0016613957511,-0.00207966015457,"[0.0, 0.0, 0.0, 0.0, 0.0, 0.0, 0.0, 0.0, 0.0]",,-0.221867371984,-0.00979569306015,9.80726584196,"[0.0, 0.0, 0.0, 0.0, 0.0, 0.0, 0.0, 0.0, 0.0]"
1555426869249137713,,158,,1555426869,248860811,"""cf3/base_link""",,0.0,0.0,0.0,0.0,"[-1.0, 0.0, 0.0, 0.0, 0.0, 0.0, 0.0, 0.0, 0.0]",,0.000717579067953,0.000125045905553,0.000578085212776,"[0.0, 0.0, 0.0, 0.0, 0.0, 0.0, 0.0, 0.0, 0.0]",,-0.21265484618,-0.00180665130771,9.80628350973,"[0.0, 0.0, 0.0, 0.0, 0.0, 0.0, 0.0, 0.0, 0.0]"
1555426869263191379,,159,,1555426869,263064493,"""cf3/base_link""",,0.0,0.0,0.0,0.0,"[-1.0, 0.0, 0.0, 0.0, 0.0, 0.0, 0.0, 0.0, 0.0]",,0.000828102723898,-0.00172258187715,9.65119566183e-05,"[0.0, 0.0, 0.0, 0.0, 0.0, 0.0, 0.0, 0.0, 0.0]",,-0.202861965951,-0.000344647146012,9.81738503337,"[0.0, 0.0, 0.0, 0.0, 0.0, 0.0, 0.0, 0.0, 0.0]"
1555426869269748192,,160,,1555426869,269481474,"""cf3/base_link""",,0.0,0.0,0.0,0.0,"[-1.0, 0.0, 0.0, 0.0, 0.0, 0.0, 0.0, 0.0, 0.0]",,0.000205479295291,0.00117831523419,-0.00143761401776,"[0.0, 0.0, 0.0, 0.0, 0.0, 0.0, 0.0, 0.0, 0.0]",,-0.213639060482,-0.00528136163601,9.80409782052,"[0.0, 0.0, 0.0, 0.0, 0.0, 0.0, 0.0, 0.0, 0.0]"
1555426869281962525,,161,,1555426869,281727888,"""cf3/base_link""",,0.0,0.0,0.0,0.0,"[-1.0, 0.0, 0.0, 0.0, 0.0, 0.0, 0.0, 0.0, 0.0]",,-0.000448291414724,0.000880844171584,0.00167666055355,"[0.0, 0.0, 0.0, 0.0, 0.0, 0.0, 0.0, 0.0, 0.0]",,-0.216829118617,0.00550248745771,9.79099421024,"[0.0, 0.0, 0.0, 0.0, 0.0, 0.0, 0.0, 0.0, 0.0]"
1555426869288251918,,162,,1555426869,288103511,"""cf3/base_link""",,0.0,0.0,0.0,0.0,"[-1.0, 0.0, 0.0, 0.0, 0.0, 0.0, 0.0, 0.0, 0.0]",,0.00121314854901,-0.000913007953494,-0.000473780486605,"[0.0, 0.0, 0.0, 0.0, 0.0, 0.0, 0.0, 0.0, 0.0]",,-0.201339953989,-0.00287128695199,9.81104197383,"[0.0, 0.0, 0.0, 0.0, 0.0, 0.0, 0.0, 0.0, 0.0]"
1555426869310690207,,163,,1555426869,310527290,"""cf3/base_link""",,0.0,0.0,0.0,0.0,"[-1.0, 0.0, 0.0, 0.0, 0.0, 0.0, 0.0, 0.0, 0.0]",,-0.00153762598963,0.000135407510489,-0.000619489370441,"[0.0, 0.0, 0.0, 0.0, 0.0, 0.0, 0.0, 0.0, 0.0]",,-0.213302388769,-0.002929109291,9.79931479812,"[0.0, 0.0, 0.0, 0.0, 0.0, 0.0, 0.0, 0.0, 0.0]"
1555426869315566620,,164,,1555426869,315267378,"""cf3/base_link""",,0.0,0.0,0.0,0.0,"[-1.0, 0.0, 0.0, 0.0, 0.0, 0.0, 0.0, 0.0, 0.0]",,0.00196621157273,-0.00128284521724,0.00120543227382,"[0.0, 0.0, 0.0, 0.0, 0.0, 0.0, 0.0, 0.0, 0.0]",,-0.210564941671,0.00289943467156,9.79799858987,"[0.0, 0.0, 0.0, 0.0, 0.0, 0.0, 0.0, 0.0, 0.0]"
1555426869324475017,,165,,1555426869,324095819,"""cf3/base_link""",,0.0,0.0,0.0,0.0,"[-1.0, 0.0, 0.0, 0.0, 0.0, 0.0, 0.0, 0.0, 0.0]",,0.00110257053754,0.000654209422893,1.83312494114e-05,"[0.0, 0.0, 0.0, 0.0, 0.0, 0.0, 0.0, 0.0, 0.0]",,-0.204864710402,0.0118434713501,9.79977555871,"[0.0, 0.0, 0.0, 0.0, 0.0, 0.0, 0.0, 0.0, 0.0]"
1555426869328911514,,166,,1555426869,328656009,"""cf3/base_link""",,0.0,0.0,0.0,0.0,"[-1.0, 0.0, 0.0, 0.0, 0.0, 0.0, 0.0, 0.0, 0.0]",,0.0015029270032,0.000662769834325,-0.00118080492571,"[0.0, 0.0, 0.0, 0.0, 0.0, 0.0, 0.0, 0.0, 0.0]",,-0.206592562627,0.000607294444344,9.81446259499,"[0.0, 0.0, 0.0, 0.0, 0.0, 0.0, 0.0, 0.0, 0.0]"
1555426869343524921,,167,,1555426869,343354790,"""cf3/base_link""",,0.0,0.0,0.0,0.0,"[-1.0, 0.0, 0.0, 0.0, 0.0, 0.0, 0.0, 0.0, 0.0]",,-0.00176254255729,0.00102466150234,0.0027406114842,"[0.0, 0.0, 0.0, 0.0, 0.0, 0.0, 0.0, 0.0, 0.0]",,-0.197375468686,0.00149955371438,9.81862464309,"[0.0, 0.0, 0.0, 0.0, 0.0, 0.0, 0.0, 0.0, 0.0]"
1555426869350540591,,168,,1555426869,350225478,"""cf3/base_link""",,0.0,0.0,0.0,0.0,"[-1.0, 0.0, 0.0, 0.0, 0.0, 0.0, 0.0, 0.0, 0.0]",,0.00204217733257,-2.47334604701e-05,-0.000537406760006,"[0.0, 0.0, 0.0, 0.0, 0.0, 0.0, 0.0, 0.0, 0.0]",,-0.200441529304,0.0141892303736,9.8237035346,"[0.0, 0.0, 0.0, 0.0, 0.0, 0.0, 0.0, 0.0, 0.0]"
1555426869363016568,,169,,1555426869,362817995,"""cf3/base_link""",,0.0,0.0,0.0,0.0,"[-1.0, 0.0, 0.0, 0.0, 0.0, 0.0, 0.0, 0.0, 0.0]",,0.00224390229243,-0.00149737285591,0.000108082484546,"[0.0, 0.0, 0.0, 0.0, 0.0, 0.0, 0.0, 0.0, 0.0]",,-0.204474737663,-0.00198824232852,9.82187101722,"[0.0, 0.0, 0.0, 0.0, 0.0, 0.0, 0.0, 0.0, 0.0]"
1555426869369576272,,170,,1555426869,369360145,"""cf3/base_link""",,0.0,0.0,0.0,0.0,"[-1.0, 0.0, 0.0, 0.0, 0.0, 0.0, 0.0, 0.0, 0.0]",,-0.000920474037184,-0.000622013521804,0.000581218783302,"[0.0, 0.0, 0.0, 0.0, 0.0, 0.0, 0.0, 0.0, 0.0]",,-0.20618747849,-0.0010717271777,9.81298909664,"[0.0, 0.0, 0.0, 0.0, 0.0, 0.0, 0.0, 0.0, 0.0]"
1555426869384426225,,171,,1555426869,384026815,"""cf3/base_link""",,0.0,0.0,0.0,0.0,"[-1.0, 0.0, 0.0, 0.0, 0.0, 0.0, 0.0, 0.0, 0.0]",,0.000435491986846,0.00118881209403,-0.000650874554839,"[0.0, 0.0, 0.0, 0.0, 0.0, 0.0, 0.0, 0.0, 0.0]",,-0.21581784267,-0.00301093119546,9.81883397341,"[0.0, 0.0, 0.0, 0.0, 0.0, 0.0, 0.0, 0.0, 0.0]"
1555426869388890324,,172,,1555426869,388684723,"""cf3/base_link""",,0.0,0.0,0.0,0.0,"[-1.0, 0.0, 0.0, 0.0, 0.0, 0.0, 0.0, 0.0, 0.0]",,0.00236376092616,0.000116465444015,-6.73898861704e-05,"[0.0, 0.0, 0.0, 0.0, 0.0, 0.0, 0.0, 0.0, 0.0]",,-0.22163808804,-0.00206491180244,9.80921296477,"[0.0, 0.0, 0.0, 0.0, 0.0, 0.0, 0.0, 0.0, 0.0]"
1555426869401523776,,173,,1555426869,401267722,"""cf3/base_link""",,0.0,0.0,0.0,0.0,"[-1.0, 0.0, 0.0, 0.0, 0.0, 0.0, 0.0, 0.0, 0.0]",,0.000520172869828,0.000232916795253,-0.00115369997954,"[0.0, 0.0, 0.0, 0.0, 0.0, 0.0, 0.0, 0.0, 0.0]",,-0.209315336868,0.00182269160781,9.80787044406,"[0.0, 0.0, 0.0, 0.0, 0.0, 0.0, 0.0, 0.0, 0.0]"
1555426869409879538,,174,,1555426869,409687327,"""cf3/base_link""",,0.0,0.0,0.0,0.0,"[-1.0, 0.0, 0.0, 0.0, 0.0, 0.0, 0.0, 0.0, 0.0]",,0.00160224366636,0.000269801348785,0.000866007061369,"[0.0, 0.0, 0.0, 0.0, 0.0, 0.0, 0.0, 0.0, 0.0]",,-0.206367225554,-0.00389144307235,9.80130752921,"[0.0, 0.0, 0.0, 0.0, 0.0, 0.0, 0.0, 0.0, 0.0]"
1555426869422671135,,175,,1555426869,422339565,"""cf3/base_link""",,0.0,0.0,0.0,0.0,"[-1.0, 0.0, 0.0, 0.0, 0.0, 0.0, 0.0, 0.0, 0.0]",,-0.00104160579976,0.00087975498031,-0.000605322926892,"[0.0, 0.0, 0.0, 0.0, 0.0, 0.0, 0.0, 0.0, 0.0]",,-0.186921158731,-0.0142253826116,9.80222963512,"[0.0, 0.0, 0.0, 0.0, 0.0, 0.0, 0.0, 0.0, 0.0]"
1555426869435389911,,176,,1555426869,435184764,"""cf3/base_link""",,0.0,0.0,0.0,0.0,"[-1.0, 0.0, 0.0, 0.0, 0.0, 0.0, 0.0, 0.0, 0.0]",,0.00104433957103,-0.00269525530211,0.000307781644214,"[0.0, 0.0, 0.0, 0.0, 0.0, 0.0, 0.0, 0.0, 0.0]",,-0.197071139384,-0.0125711048045,9.81735813618,"[0.0, 0.0, 0.0, 0.0, 0.0, 0.0, 0.0, 0.0, 0.0]"
1555426869444198761,,177,,1555426869,443939911,"""cf3/base_link""",,0.0,0.0,0.0,0.0,"[-1.0, 0.0, 0.0, 0.0, 0.0, 0.0, 0.0, 0.0, 0.0]",,0.000154899227794,-0.000720884937719,0.000977692469324,"[0.0, 0.0, 0.0, 0.0, 0.0, 0.0, 0.0, 0.0, 0.0]",,-0.201330744624,-0.00496055677591,9.81997885823,"[0.0, 0.0, 0.0, 0.0, 0.0, 0.0, 0.0, 0.0, 0.0]"
1555426869448921013,,178,,1555426869,448714049,"""cf3/base_link""",,0.0,0.0,0.0,0.0,"[-1.0, 0.0, 0.0, 0.0, 0.0, 0.0, 0.0, 0.0, 0.0]",,-0.000405139134973,0.00110848345736,0.000580888033779,"[0.0, 0.0, 0.0, 0.0, 0.0, 0.0, 0.0, 0.0, 0.0]",,-0.21191316342,0.00797362014942,9.80341252685,"[0.0, 0.0, 0.0, 0.0, 0.0, 0.0, 0.0, 0.0, 0.0]"
1555426869461581135,,179,,1555426869,461412356,"""cf3/base_link""",,0.0,0.0,0.0,0.0,"[-1.0, 0.0, 0.0, 0.0, 0.0, 0.0, 0.0, 0.0, 0.0]",,0.00245417784591,0.000413246594459,6.90969124495e-05,"[0.0, 0.0, 0.0, 0.0, 0.0, 0.0, 0.0, 0.0, 0.0]",,-0.200791887157,-8.48348853924e-05,9.81631031513,"[0.0, 0.0, 0.0, 0.0, 0.0, 0.0, 0.0, 0.0, 0.0]"
1555426869468361930,,180,,1555426869,468104530,"""cf3/base_link""",,0.0,0.0,0.0,0.0,"[-1.0, 0.0, 0.0, 0.0, 0.0, 0.0, 0.0, 0.0, 0.0]",,-0.000824104861371,-0.00251033101362,0.000821071484479,"[0.0, 0.0, 0.0, 0.0, 0.0, 0.0, 0.0, 0.0, 0.0]",,-0.21027797129,0.00637025480275,9.8228954494,"[0.0, 0.0, 0.0, 0.0, 0.0, 0.0, 0.0, 0.0, 0.0]"
1555426869482964189,,181,,1555426869,482722797,"""cf3/base_link""",,0.0,0.0,0.0,0.0,"[-1.0, 0.0, 0.0, 0.0, 0.0, 0.0, 0.0, 0.0, 0.0]",,0.00265166918587,0.0008875272365,-0.000881419846103,"[0.0, 0.0, 0.0, 0.0, 0.0, 0.0, 0.0, 0.0, 0.0]",,-0.196410696376,0.00553683927865,9.83503543854,"[0.0, 0.0, 0.0, 0.0, 0.0, 0.0, 0.0, 0.0, 0.0]"
1555426869489400530,,182,,1555426869,489162005,"""cf3/base_link""",,0.0,0.0,0.0,0.0,"[-1.0, 0.0, 0.0, 0.0, 0.0, 0.0, 0.0, 0.0, 0.0]",,0.000926264787091,0.000229907052615,0.000432882108484,"[0.0, 0.0, 0.0, 0.0, 0.0, 0.0, 0.0, 0.0, 0.0]",,-0.193743817862,0.00236496861151,9.82855087638,"[0.0, 0.0, 0.0, 0.0, 0.0, 0.0, 0.0, 0.0, 0.0]"
1555426869502230881,,183,,1555426869,501978214,"""cf3/base_link""",,0.0,0.0,0.0,0.0,"[-1.0, 0.0, 0.0, 0.0, 0.0, 0.0, 0.0, 0.0, 0.0]",,-0.000250974373328,0.000626264956798,0.00144069160729,"[0.0, 0.0, 0.0, 0.0, 0.0, 0.0, 0.0, 0.0, 0.0]",,-0.204589836448,-0.00310989446385,9.80762018323,"[0.0, 0.0, 0.0, 0.0, 0.0, 0.0, 0.0, 0.0, 0.0]"
1555426869508786830,,184,,1555426869,508505711,"""cf3/base_link""",,0.0,0.0,0.0,0.0,"[-1.0, 0.0, 0.0, 0.0, 0.0, 0.0, 0.0, 0.0, 0.0]",,0.00021360383841,-0.000642691576271,-0.000958990264524,"[0.0, 0.0, 0.0, 0.0, 0.0, 0.0, 0.0, 0.0, 0.0]",,-0.202198928241,-0.00258856465342,9.81068997145,"[0.0, 0.0, 0.0, 0.0, 0.0, 0.0, 0.0, 0.0, 0.0]"
1555426869521443105,,185,,1555426869,521178670,"""cf3/base_link""",,0.0,0.0,0.0,0.0,"[-1.0, 0.0, 0.0, 0.0, 0.0, 0.0, 0.0, 0.0, 0.0]",,0.000260878702582,0.000958248272474,0.000886170038634,"[0.0, 0.0, 0.0, 0.0, 0.0, 0.0, 0.0, 0.0, 0.0]",,-0.206417877059,-0.00560612421599,9.80113854468,"[0.0, 0.0, 0.0, 0.0, 0.0, 0.0, 0.0, 0.0, 0.0]"
1555426869528005104,,186,,1555426869,527752201,"""cf3/base_link""",,0.0,0.0,0.0,0.0,"[-1.0, 0.0, 0.0, 0.0, 0.0, 0.0, 0.0, 0.0, 0.0]",,0.000193208240915,-0.000699933935248,-0.000742156221722,"[0.0, 0.0, 0.0, 0.0, 0.0, 0.0, 0.0, 0.0, 0.0]",,-0.217231863867,0.00782511857338,9.80216297686,"[0.0, 0.0, 0.0, 0.0, 0.0, 0.0, 0.0, 0.0, 0.0]"
1555426869542397222,,187,,1555426869,542151591,"""cf3/base_link""",,0.0,0.0,0.0,0.0,"[-1.0, 0.0, 0.0, 0.0, 0.0, 0.0, 0.0, 0.0, 0.0]",,-0.0006430321436,-0.00136345499426,0.000163618382093,"[0.0, 0.0, 0.0, 0.0, 0.0, 0.0, 0.0, 0.0, 0.0]",,-0.207406860497,0.00679002321674,9.80750090003,"[0.0, 0.0, 0.0, 0.0, 0.0, 0.0, 0.0, 0.0, 0.0]"
1555426869548948043,,188,,1555426869,548724457,"""cf3/base_link""",,0.0,0.0,0.0,0.0,"[-1.0, 0.0, 0.0, 0.0, 0.0, 0.0, 0.0, 0.0, 0.0]",,-0.00027752827077,-0.000630478550978,-0.00127277409907,"[0.0, 0.0, 0.0, 0.0, 0.0, 0.0, 0.0, 0.0, 0.0]",,-0.204588191919,-0.0017574373378,9.80860953212,"[0.0, 0.0, 0.0, 0.0, 0.0, 0.0, 0.0, 0.0, 0.0]"
1555426869571378580,,189,,1555426869,571170672,"""cf3/base_link""",,0.0,0.0,0.0,0.0,"[-1.0, 0.0, 0.0, 0.0, 0.0, 0.0, 0.0, 0.0, 0.0]",,0.000972824788216,-0.0010804173415,-0.000512439202166,"[0.0, 0.0, 0.0, 0.0, 0.0, 0.0, 0.0, 0.0, 0.0]",,-0.211187633593,-0.0118308278883,9.80515909016,"[0.0, 0.0, 0.0, 0.0, 0.0, 0.0, 0.0, 0.0, 0.0]"
1555426869576155155,,190,,1555426869,575887599,"""cf3/base_link""",,0.0,0.0,0.0,0.0,"[-1.0, 0.0, 0.0, 0.0, 0.0, 0.0, 0.0, 0.0, 0.0]",,0.00150130296907,0.00091653885257,-0.00130745735101,"[0.0, 0.0, 0.0, 0.0, 0.0, 0.0, 0.0, 0.0, 0.0]",,-0.223322616052,0.00650289694837,9.81990635276,"[0.0, 0.0, 0.0, 0.0, 0.0, 0.0, 0.0, 0.0, 0.0]"
1555426869585076089,,191,,1555426869,584905847,"""cf3/base_link""",,0.0,0.0,0.0,0.0,"[-1.0, 0.0, 0.0, 0.0, 0.0, 0.0, 0.0, 0.0, 0.0]",,-0.000133473467769,-0.00115245682426,0.000376527675762,"[0.0, 0.0, 0.0, 0.0, 0.0, 0.0, 0.0, 0.0, 0.0]",,-0.217192267254,0.00408400062035,9.81604835987,"[0.0, 0.0, 0.0, 0.0, 0.0, 0.0, 0.0, 0.0, 0.0]"
1555426869589811008,,192,,1555426869,589571768,"""cf3/base_link""",,0.0,0.0,0.0,0.0,"[-1.0, 0.0, 0.0, 0.0, 0.0, 0.0, 0.0, 0.0, 0.0]",,0.00147297866443,0.000210985653923,0.000800414365995,"[0.0, 0.0, 0.0, 0.0, 0.0, 0.0, 0.0, 0.0, 0.0]",,-0.216351328008,0.00629018392239,9.79918908298,"[0.0, 0.0, 0.0, 0.0, 0.0, 0.0, 0.0, 0.0, 0.0]"
1555426869602539108,,193,,1555426869,602268297,"""cf3/base_link""",,0.0,0.0,0.0,0.0,"[-1.0, 0.0, 0.0, 0.0, 0.0, 0.0, 0.0, 0.0, 0.0]",,0.00167977234285,-2.31343914498e-05,0.0021133345782,"[0.0, 0.0, 0.0, 0.0, 0.0, 0.0, 0.0, 0.0, 0.0]",,-0.217639597524,0.0028274693797,9.80597419202,"[0.0, 0.0, 0.0, 0.0, 0.0, 0.0, 0.0, 0.0, 0.0]"
1555426869609079049,,194,,1555426869,608879988,"""cf3/base_link""",,0.0,0.0,0.0,0.0,"[-1.0, 0.0, 0.0, 0.0, 0.0, 0.0, 0.0, 0.0, 0.0]",,0.000951055266825,-0.000142866872883,-0.00135519815459,"[0.0, 0.0, 0.0, 0.0, 0.0, 0.0, 0.0, 0.0, 0.0]",,-0.209139226042,0.000814335985197,9.79567666054,"[0.0, 0.0, 0.0, 0.0, 0.0, 0.0, 0.0, 0.0, 0.0]"
1555426869621609650,,195,,1555426869,621335168,"""cf3/base_link""",,0.0,0.0,0.0,0.0,"[-1.0, 0.0, 0.0, 0.0, 0.0, 0.0, 0.0, 0.0, 0.0]",,-0.000994110116232,-0.000259994905006,-0.000377157088138,"[0.0, 0.0, 0.0, 0.0, 0.0, 0.0, 0.0, 0.0, 0.0]",,-0.201835085247,-0.000874860734257,9.8040808636,"[0.0, 0.0, 0.0, 0.0, 0.0, 0.0, 0.0, 0.0, 0.0]"
1555426869628227628,,196,,1555426869,627915106,"""cf3/base_link""",,0.0,0.0,0.0,0.0,"[-1.0, 0.0, 0.0, 0.0, 0.0, 0.0, 0.0, 0.0, 0.0]",,0.000936843765398,0.00185060281354,-0.001590404823,"[0.0, 0.0, 0.0, 0.0, 0.0, 0.0, 0.0, 0.0, 0.0]",,-0.217206117846,-0.000757346474711,9.80155954421,"[0.0, 0.0, 0.0, 0.0, 0.0, 0.0, 0.0, 0.0, 0.0]"
1555426869640911760,,197,,1555426869,640693441,"""cf3/base_link""",,0.0,0.0,0.0,0.0,"[-1.0, 0.0, 0.0, 0.0, 0.0, 0.0, 0.0, 0.0, 0.0]",,0.000444805541016,0.000973718468616,0.000521236118688,"[0.0, 0.0, 0.0, 0.0, 0.0, 0.0, 0.0, 0.0, 0.0]",,-0.206668631248,-0.0017119018604,9.80421476483,"[0.0, 0.0, 0.0, 0.0, 0.0, 0.0, 0.0, 0.0, 0.0]"
1555426869647419656,,198,,1555426869,647279143,"""cf3/base_link""",,0.0,0.0,0.0,0.0,"[-1.0, 0.0, 0.0, 0.0, 0.0, 0.0, 0.0, 0.0, 0.0]",,-0.000931355416914,0.00178752594715,-0.00128207318661,"[0.0, 0.0, 0.0, 0.0, 0.0, 0.0, 0.0, 0.0, 0.0]",,-0.212413666807,-0.00465500835213,9.79770038188,"[0.0, 0.0, 0.0, 0.0, 0.0, 0.0, 0.0, 0.0, 0.0]"
1555426869661823349,,199,,1555426869,661671041,"""cf3/base_link""",,0.0,0.0,0.0,0.0,"[-1.0, 0.0, 0.0, 0.0, 0.0, 0.0, 0.0, 0.0, 0.0]",,0.000350157081956,-0.000314906575409,0.000340797949761,"[0.0, 0.0, 0.0, 0.0, 0.0, 0.0, 0.0, 0.0, 0.0]",,-0.218309341259,0.00541367202066,9.78737653792,"[0.0, 0.0, 0.0, 0.0, 0.0, 0.0, 0.0, 0.0, 0.0]"
1555426869668428047,,200,,1555426869,668212257,"""cf3/base_link""",,0.0,0.0,0.0,0.0,"[-1.0, 0.0, 0.0, 0.0, 0.0, 0.0, 0.0, 0.0, 0.0]",,-0.00110810699977,0.00162565984834,-0.00155976325611,"[0.0, 0.0, 0.0, 0.0, 0.0, 0.0, 0.0, 0.0, 0.0]",,-0.202086880971,-0.000670416036664,9.78904942632,"[0.0, 0.0, 0.0, 0.0, 0.0, 0.0, 0.0, 0.0, 0.0]"
1555426869681051583,,201,,1555426869,680807131,"""cf3/base_link""",,0.0,0.0,0.0,0.0,"[-1.0, 0.0, 0.0, 0.0, 0.0, 0.0, 0.0, 0.0, 0.0]",,0.00252494172913,-9.36799747819e-05,0.00109124352045,"[0.0, 0.0, 0.0, 0.0, 0.0, 0.0, 0.0, 0.0, 0.0]",,-0.201401733477,0.00889224913437,9.80527486503,"[0.0, 0.0, 0.0, 0.0, 0.0, 0.0, 0.0, 0.0, 0.0]"
1555426869695502301,,202,,1555426869,695235732,"""cf3/base_link""",,0.0,0.0,0.0,0.0,"[-1.0, 0.0, 0.0, 0.0, 0.0, 0.0, 0.0, 0.0, 0.0]",,-0.00172996785795,-7.46370797276e-06,0.00075554731869,"[0.0, 0.0, 0.0, 0.0, 0.0, 0.0, 0.0, 0.0, 0.0]",,-0.20082201859,0.00697885630536,9.8268785727,"[0.0, 0.0, 0.0, 0.0, 0.0, 0.0, 0.0, 0.0, 0.0]"
1555426869704379413,,203,,1555426869,704187181,"""cf3/base_link""",,0.0,0.0,0.0,0.0,"[-1.0, 0.0, 0.0, 0.0, 0.0, 0.0, 0.0, 0.0, 0.0]",,0.0015281323665,-1.23315572144e-05,-0.00252626654775,"[0.0, 0.0, 0.0, 0.0, 0.0, 0.0, 0.0, 0.0, 0.0]",,-0.212839526832,-0.0028758276804,9.81927485347,"[0.0, 0.0, 0.0, 0.0, 0.0, 0.0, 0.0, 0.0, 0.0]"
1555426869710950837,,204,,1555426869,710766460,"""cf3/base_link""",,0.0,0.0,0.0,0.0,"[-1.0, 0.0, 0.0, 0.0, 0.0, 0.0, 0.0, 0.0, 0.0]",,-0.000627473977318,0.000106095979958,0.00124578514605,"[0.0, 0.0, 0.0, 0.0, 0.0, 0.0, 0.0, 0.0, 0.0]",,-0.210564959943,-0.00221144865121,9.80449016869,"[0.0, 0.0, 0.0, 0.0, 0.0, 0.0, 0.0, 0.0, 0.0]"
1555426869721731301,,205,,1555426869,721521027,"""cf3/base_link""",,0.0,0.0,0.0,0.0,"[-1.0, 0.0, 0.0, 0.0, 0.0, 0.0, 0.0, 0.0, 0.0]",,0.00245081482481,0.000971553544914,0.00118400188935,"[0.0, 0.0, 0.0, 0.0, 0.0, 0.0, 0.0, 0.0, 0.0]",,-0.204236061629,0.00178306572969,9.79220867693,"[0.0, 0.0, 0.0, 0.0, 0.0, 0.0, 0.0, 0.0, 0.0]"
1555426869728466068,,206,,1555426869,728192313,"""cf3/base_link""",,0.0,0.0,0.0,0.0,"[-1.0, 0.0, 0.0, 0.0, 0.0, 0.0, 0.0, 0.0, 0.0]",,-0.000768113134805,0.000315011255324,0.00170955033293,"[0.0, 0.0, 0.0, 0.0, 0.0, 0.0, 0.0, 0.0, 0.0]",,-0.20041784808,-0.00576884925831,9.81376677632,"[0.0, 0.0, 0.0, 0.0, 0.0, 0.0, 0.0, 0.0, 0.0]"
1555426869743221042,,207,,1555426869,742967977,"""cf3/base_link""",,0.0,0.0,0.0,0.0,"[-1.0, 0.0, 0.0, 0.0, 0.0, 0.0, 0.0, 0.0, 0.0]",,0.000809031408612,0.000107092641664,-0.00166713416105,"[0.0, 0.0, 0.0, 0.0, 0.0, 0.0, 0.0, 0.0, 0.0]",,-0.203892464619,-0.00573797664489,9.82024666071,"[0.0, 0.0, 0.0, 0.0, 0.0, 0.0, 0.0, 0.0, 0.0]"
1555426869747994253,,208,,1555426869,747741292,"""cf3/base_link""",,0.0,0.0,0.0,0.0,"[-1.0, 0.0, 0.0, 0.0, 0.0, 0.0, 0.0, 0.0, 0.0]",,6.37800057726e-05,0.00153369353579,0.000736337188733,"[0.0, 0.0, 0.0, 0.0, 0.0, 0.0, 0.0, 0.0, 0.0]",,-0.210740869772,-0.00377902721084,9.80973862946,"[0.0, 0.0, 0.0, 0.0, 0.0, 0.0, 0.0, 0.0, 0.0]"
1555426869760682802,,209,,1555426869,760488659,"""cf3/base_link""",,0.0,0.0,0.0,0.0,"[-1.0, 0.0, 0.0, 0.0, 0.0, 0.0, 0.0, 0.0, 0.0]",,0.000606062123142,-0.00161300281115,0.00022088089683,"[0.0, 0.0, 0.0, 0.0, 0.0, 0.0, 0.0, 0.0, 0.0]",,-0.200759453382,-0.00920320680365,9.81217516422,"[0.0, 0.0, 0.0, 0.0, 0.0, 0.0, 0.0, 0.0, 0.0]"
1555426869767332630,,210,,1555426869,767042782,"""cf3/base_link""",,0.0,0.0,0.0,0.0,"[-1.0, 0.0, 0.0, 0.0, 0.0, 0.0, 0.0, 0.0, 0.0]",,-0.000213142271501,-0.000265027196907,4.06814842614e-05,"[0.0, 0.0, 0.0, 0.0, 0.0, 0.0, 0.0, 0.0, 0.0]",,-0.208158337343,0.00457545167272,9.82878008723,"[0.0, 0.0, 0.0, 0.0, 0.0, 0.0, 0.0, 0.0, 0.0]"
1555426869781723595,,211,,1555426869,781483235,"""cf3/base_link""",,0.0,0.0,0.0,0.0,"[-1.0, 0.0, 0.0, 0.0, 0.0, 0.0, 0.0, 0.0, 0.0]",,-0.000499095438725,0.00218040605619,-0.000311228246699,"[0.0, 0.0, 0.0, 0.0, 0.0, 0.0, 0.0, 0.0, 0.0]",,-0.212723057605,-0.00386200000037,9.83312573791,"[0.0, 0.0, 0.0, 0.0, 0.0, 0.0, 0.0, 0.0, 0.0]"
1555426869788135082,,212,,1555426869,787906060,"""cf3/base_link""",,0.0,0.0,0.0,0.0,"[-1.0, 0.0, 0.0, 0.0, 0.0, 0.0, 0.0, 0.0, 0.0]",,-0.00166043152554,-0.00132796785259,-0.00104659376524,"[0.0, 0.0, 0.0, 0.0, 0.0, 0.0, 0.0, 0.0, 0.0]",,-0.228105748091,-0.00472434525203,9.82923500061,"[0.0, 0.0, 0.0, 0.0, 0.0, 0.0, 0.0, 0.0, 0.0]"
1555426869801029653,,213,,1555426869,800729060,"""cf3/base_link""",,0.0,0.0,0.0,0.0,"[-1.0, 0.0, 0.0, 0.0, 0.0, 0.0, 0.0, 0.0, 0.0]",,0.0028131542758,0.000706474349397,-0.000324085151003,"[0.0, 0.0, 0.0, 0.0, 0.0, 0.0, 0.0, 0.0, 0.0]",,-0.217604130507,-0.00107476655925,9.82992848039,"[0.0, 0.0, 0.0, 0.0, 0.0, 0.0, 0.0, 0.0, 0.0]"
1555426869807468630,,214,,1555426869,807237942,"""cf3/base_link""",,0.0,0.0,0.0,0.0,"[-1.0, 0.0, 0.0, 0.0, 0.0, 0.0, 0.0, 0.0, 0.0]",,0.000639102615602,0.000834579224781,0.000211322905304,"[0.0, 0.0, 0.0, 0.0, 0.0, 0.0, 0.0, 0.0, 0.0]",,-0.219763415884,-0.000902193897855,9.81336799622,"[0.0, 0.0, 0.0, 0.0, 0.0, 0.0, 0.0, 0.0, 0.0]"
1555426869830147617,,215,,1555426869,829872573,"""cf3/base_link""",,0.0,0.0,0.0,0.0,"[-1.0, 0.0, 0.0, 0.0, 0.0, 0.0, 0.0, 0.0, 0.0]",,0.000293138874538,0.00080699665211,-0.00151204572919,"[0.0, 0.0, 0.0, 0.0, 0.0, 0.0, 0.0, 0.0, 0.0]",,-0.18731493216,0.000642076312579,9.79244139612,"[0.0, 0.0, 0.0, 0.0, 0.0, 0.0, 0.0, 0.0, 0.0]"
1555426869834988718,,216,,1555426869,834693366,"""cf3/base_link""",,0.0,0.0,0.0,0.0,"[-1.0, 0.0, 0.0, 0.0, 0.0, 0.0, 0.0, 0.0, 0.0]",,0.000450082319037,-1.56360402562e-05,0.00121576788758,"[0.0, 0.0, 0.0, 0.0, 0.0, 0.0, 0.0, 0.0, 0.0]",,-0.200139995702,0.0014717898611,9.80974096835,"[0.0, 0.0, 0.0, 0.0, 0.0, 0.0, 0.0, 0.0, 0.0]"
1555426869844524230,,217,,1555426869,843927007,"""cf3/base_link""",,0.0,0.0,0.0,0.0,"[-1.0, 0.0, 0.0, 0.0, 0.0, 0.0, 0.0, 0.0, 0.0]",,0.00105540326286,-0.00112276764956,-0.000142786184824,"[0.0, 0.0, 0.0, 0.0, 0.0, 0.0, 0.0, 0.0, 0.0]",,-0.2091863144,0.000738913969617,9.80895802617,"[0.0, 0.0, 0.0, 0.0, 0.0, 0.0, 0.0, 0.0, 0.0]"
1555426869849161600,,218,,1555426869,848788019,"""cf3/base_link""",,0.0,0.0,0.0,0.0,"[-1.0, 0.0, 0.0, 0.0, 0.0, 0.0, 0.0, 0.0, 0.0]",,-0.000641073003708,0.000481494291091,-0.000491341712831,"[0.0, 0.0, 0.0, 0.0, 0.0, 0.0, 0.0, 0.0, 0.0]",,-0.209664872456,0.00111746679373,9.79345588803,"[0.0, 0.0, 0.0, 0.0, 0.0, 0.0, 0.0, 0.0, 0.0]"
1555426869862034570,,219,,1555426869,861760105,"""cf3/base_link""",,0.0,0.0,0.0,0.0,"[-1.0, 0.0, 0.0, 0.0, 0.0, 0.0, 0.0, 0.0, 0.0]",,0.00106100747446,5.77358743912e-05,0.00038698383397,"[0.0, 0.0, 0.0, 0.0, 0.0, 0.0, 0.0, 0.0, 0.0]",,-0.202300724611,0.00681968356075,9.79696480215,"[0.0, 0.0, 0.0, 0.0, 0.0, 0.0, 0.0, 0.0, 0.0]"
