rosbagTimestamp,transforms,-,header,seq,stamp,secs,nsecs,frame_id,child_frame_id,transform,translation,x,y,z,rotation,x,y,z,w
1555426868088759256,,,0,,1555426868,188531499,"""world""","""cf3_takeoff""",,,1.0,1.0,0.0,,0.0,0.0,0.0,1.0
1555426868189281507,,,0,,1555426868,288623044,"""world""","""cf3_takeoff""",,,1.0,1.0,0.0,,0.0,0.0,0.0,1.0
1555426868289019434,,,0,,1555426868,388732248,"""world""","""cf3_takeoff""",,,1.0,1.0,0.0,,0.0,0.0,0.0,1.0
1555426868312569364,,,0,,1555426868,305704116,"""cf3_takeoff""","""cf3""",,,-0.00060397235211,0.000719907286111,0.0589099787176,,-0.00714534828365,0.0070683934171,9.66829558617e-05,0.999949484957
1555426868336762740,,,0,,1555426868,330687999,"""cf3_takeoff""","""cf3""",,,0.000227909506066,-0.000108366715722,0.0647156685591,,0.00615777682678,-0.0148587384798,7.76608067317e-05,0.999870638455
1555426868362056465,,,0,,1555426868,355716943,"""cf3_takeoff""","""cf3""",,,-0.000601000385359,-0.000106580773718,0.0623605065048,,0.00669692632423,0.00132524665447,-2.75118739077e-05,0.9999766968
1555426868386660433,,,0,,1555426868,380729913,"""cf3_takeoff""","""cf3""",,,-0.000317268248182,-0.000644139188807,0.0616579577327,,0.0130475407834,-0.00693648073667,0.000181041642166,0.999890801107
1555426868389172451,,,0,,1555426868,488831737,"""world""","""cf3_takeoff""",,,1.0,1.0,0.0,,0.0,0.0,0.0,1.0
1555426868412352162,,,0,,1555426868,405740022,"""cf3_takeoff""","""cf3""",,,-6.16235774942e-05,-0.000113471542136,0.062500230968,,0.00317020558887,-0.00963360030929,-3.07321309838e-05,0.999948569976
1555426868414883525,,,0,,1555426868,414579401,"""world""","""cf3_vrpn""",,,0.155153676867,-0.0466094389558,0.0809699371457,,-0.00506595056504,0.00349811650813,-0.019294815138,-0.999794960022
1555426868424341324,,,0,,1555426868,423921856,"""world""","""cf3_vrpn""",,,0.155163183808,-0.0466933064163,0.0808757543564,,-0.00599268218502,0.00372021668591,-0.0192730780691,-0.99978941679
1555426868424371542,,,0,,1555426868,423997486,"""world""","""cf3_vrpn""",,,0.155152276158,-0.0466871187091,0.0809096693993,,-0.00587402516976,0.00379147613421,-0.0192956682295,-0.99978941679
1555426868434667052,,,0,,1555426868,434333237,"""world""","""cf3_vrpn""",,,0.155131071806,-0.0466029755771,0.080973751843,,-0.00509045599028,0.00338692730293,-0.0192145351321,-0.999796688557
1555426868437099110,,,0,,1555426868,430685997,"""cf3_takeoff""","""cf3""",,,-6.32062728982e-05,0.000148892053403,0.062646612525,,0.000245488413852,-0.00942818178298,-0.000137807950178,0.999955514077
1555426868445179907,,,0,,1555426868,444818350,"""world""","""cf3_vrpn""",,,0.15515050292,-0.0467146672308,0.0808865129948,,-0.00594490487128,0.00366695621051,-0.0192851498723,-0.999789655209
1555426868454710673,,,0,,1555426868,454385615,"""world""","""cf3_vrpn""",,,0.155156046152,-0.0466846935451,0.080895408988,,-0.00584590388462,0.00355432648212,-0.0193137023598,-0.999790132046
1555426868461319261,,,0,,1555426868,455688953,"""cf3_takeoff""","""cf3""",,,-7.9495832324e-05,0.00143417879008,0.0612692944705,,-0.00924675165815,-0.00936310802262,-0.000499533144883,0.99991328637
1555426868465207630,,,0,,1555426868,464764382,"""world""","""cf3_vrpn""",,,0.155154019594,-0.0466027520597,0.0809702649713,,-0.00495572201908,0.00317995855585,-0.0191729217768,-0.999798893929
1555426868474581884,,,0,,1555426868,474212492,"""world""","""cf3_vrpn""",,,0.155139893293,-0.0466089099646,0.0809649899602,,-0.00507771456614,0.0033166136127,-0.0192653611302,-0.999795973301
1555426868474620937,,,0,,1555426868,474253318,"""world""","""cf3_vrpn""",,,0.155160754919,-0.046695843339,0.0808924660087,,-0.0060049300082,0.00362967280671,-0.0192426983267,-0.999790251255
1555426868484975391,,,0,,1555426868,484625777,"""world""","""cf3_vrpn""",,,0.155153557658,-0.0466780737042,0.0809291526675,,-0.00599394133314,0.00358531530946,-0.0192524157465,-0.99979031086
1555426868486633290,,,0,,1555426868,480706930,"""cf3_takeoff""","""cf3""",,,0.00022952517611,-9.56106377998e-05,0.0665523633361,,0.00109314248799,-0.0103649572609,-0.000141953527762,0.999945674799
1555426868489254521,,,0,,1555426868,588944259,"""world""","""cf3_takeoff""",,,1.0,1.0,0.0,,0.0,0.0,0.0,1.0
1555426868494402108,,,0,,1555426868,493986870,"""world""","""cf3_vrpn""",,,0.155153006315,-0.0465850792825,0.0809725746512,,-0.00504267634824,0.00339261069894,-0.019302431494,-0.999795258045
1555426868504746232,,,0,,1555426868,504401116,"""world""","""cf3_vrpn""",,,0.155153006315,-0.0466876141727,0.0809032618999,,-0.00586535315961,0.00357470568269,-0.0193086043,-0.999790012836
1555426868512452207,,,0,,1555426868,505630970,"""cf3_takeoff""","""cf3""",,,-2.15163890971e-05,0.000160107869306,0.0678193494678,,0.000151470103856,-0.0116227311458,-0.000188246286571,0.999932424587
1555426868515096588,,,0,,1555426868,514732696,"""world""","""cf3_vrpn""",,,0.155156180263,-0.0466824956238,0.0809025466442,,-0.00584688549861,0.00360841117799,-0.0191501956433,-0.999792993069
1555426868524615867,,,0,,1555426868,524165596,"""world""","""cf3_vrpn""",,,0.155149787664,-0.0465996824205,0.0809929072857,,-0.00488323671743,0.00322194071487,-0.0190764963627,-0.999800980091
1555426868524651735,,,0,,1555426868,524204179,"""world""","""cf3_vrpn""",,,0.155160143971,-0.0466739423573,0.0809201970696,,-0.00591840222478,0.00351978675462,-0.0191186740994,-0.999793589115
1555426868534953906,,,0,,1555426868,534523978,"""world""","""cf3_vrpn""",,,0.155162110925,-0.046672899276,0.0808987021446,,-0.00592764141038,0.00373662007041,-0.0189267862588,-0.999796330929
1555426868538533560,,,0,,1555426868,530922889,"""cf3_takeoff""","""cf3""",,,-0.000307910260744,0.00016732684162,0.0656281337142,,2.63659304514e-05,-0.0104624078257,-0.000190627956131,0.999945248995
1555426868544284146,,,0,,1555426868,543921766,"""world""","""cf3_vrpn""",,,0.155147403479,-0.0465831905603,0.0809848830104,,-0.00484202709049,0.00308732665144,-0.0192341469228,-0.999798595905
1555426868554736139,,,0,,1555426868,554385968,"""world""","""cf3_vrpn""",,,0.155136018991,-0.0466056130826,0.0809858068824,,-0.00479576317593,0.00312765710987,-0.019152469933,-0.999800264835
1555426868561546492,,,0,,1555426868,555780887,"""cf3_takeoff""","""cf3""",,,-5.04114868818e-05,0.000160694587976,0.0659346282482,,-3.7203216129e-05,-0.0112131702132,-0.000201159561152,0.999937109505
1555426868565067929,,,0,,1555426868,564742571,"""world""","""cf3_vrpn""",,,0.155147120357,-0.0466785058379,0.080920048058,,-0.00597664760426,0.00367800146341,-0.0192089919001,-0.999790847301
1555426868574473063,,,0,,1555426868,574059352,"""world""","""cf3_vrpn""",,,0.15514858067,-0.0466838926077,0.0809248387814,,-0.00585979130119,0.00337467831559,-0.0192793644965,-0.999791324139
1555426868574512215,,,0,,1555426868,574096538,"""world""","""cf3_vrpn""",,,0.155137836933,-0.0466917678714,0.0809282585979,,-0.00600260635838,0.00357375689782,-0.0193008817732,-0.999789357185
1555426868584819090,,,0,,1555426868,584508565,"""world""","""cf3_vrpn""",,,0.155142709613,-0.0466753207147,0.080926053226,,-0.00601573148742,0.00362326297909,-0.0193499550223,-0.999788165092
1555426868587985464,,,0,,1555426868,580748081,"""cf3_takeoff""","""cf3""",,,-2.23455135711e-05,0.000406363367802,0.0694828778505,,0.000995875441521,-0.0112238664585,-0.0001494628332,0.999936503341
1555426868589396343,,,0,,1555426868,689061801,"""world""","""cf3_takeoff""",,,1.0,1.0,0.0,,0.0,0.0,0.0,1.0
1555426868594303452,,,0,,1555426868,593925351,"""world""","""cf3_vrpn""",,,0.15513920784,-0.0465913154185,0.0809804424644,,-0.00494319899008,0.00323243369348,-0.0192426573485,-0.999797403812
1555426868604692862,,,0,,1555426868,604299265,"""world""","""cf3_vrpn""",,,0.155156463385,-0.0466562919319,0.0809203833342,,-0.00598419224843,0.00356935430318,-0.0191939324141,-0.999791502953
1555426868611309068,,,0,,1555426868,605689048,"""cf3_takeoff""","""cf3""",,,-0.0010340756271,-9.25731728785e-05,0.0679575279355,,0.00162331823402,-0.00729993329056,-0.000147480111962,0.999972026639
1555426868614972506,,,0,,1555426868,614630188,"""world""","""cf3_vrpn""",,,0.155131444335,-0.0465885736048,0.0809764787555,,-0.00475609023124,0.00324057880789,-0.0191129501909,-0.999800801277
1555426868624857072,,,0,,1555426868,624147219,"""world""","""cf3_vrpn""",,,0.155140265822,-0.046663954854,0.0809358432889,,-0.00588283361867,0.00355664268136,-0.0192287787795,-0.999791562557
1555426868624886646,,,0,,1555426868,624189043,"""world""","""cf3_vrpn""",,,0.155163943768,-0.0466795861721,0.0809345394373,,-0.00591488881037,0.00330072781071,-0.0190914683044,-0.999794781208
1555426868635061665,,,0,,1555426868,634559797,"""world""","""cf3_vrpn""",,,0.155153334141,-0.0466615259647,0.0809481069446,,-0.00586828077212,0.00356800132431,-0.0192239936441,-0.999791681767
1555426868636375887,,,0,,1555426868,630697011,"""cf3_takeoff""","""cf3""",,,-7.95965461293e-05,-8.38976411615e-05,0.0658814013004,,0.00110685091593,-0.0131469666308,-0.000148989421979,0.999912951187
1555426868644366359,,,0,,1555426868,643992253,"""world""","""cf3_vrpn""",,,0.155139476061,-0.0465906709433,0.0809842571616,,-0.00497752334923,0.00323172775097,-0.0191188771278,-0.999799668789
1555426868654847741,,,0,,1555426868,654428371,"""world""","""cf3_vrpn""",,,0.155155718327,-0.0466728135943,0.0809280499816,,-0.00601067719981,0.00348400650546,-0.0190616119653,-0.999794244766
1555426868661854049,,,0,,1555426868,655654907,"""cf3_takeoff""","""cf3""",,,-6.94876725902e-05,0.000163786695339,0.0663460195065,,4.91212676819e-05,-0.0116678772496,-0.000206280486623,0.99993190552
1555426868664063103,,,0,,1555426868,663720015,"""world""","""cf3_vrpn""",,,0.155147075653,-0.0466787181795,0.0809344351292,,-0.00608621910214,0.00359273073263,-0.0192768443376,-0.999789178371
1555426868674623616,,,0,,1555426868,674199437,"""world""","""cf3_vrpn""",,,0.15512958169,-0.0465919971466,0.0809942409396,,-0.00477265473455,0.00306245987304,-0.0190793052316,-0.999801933765
1555426868674665532,,,0,,1555426868,674235775,"""world""","""cf3_vrpn""",,,0.155144616961,-0.0465880706906,0.0809928402305,,-0.00486846081913,0.00317717529833,-0.0191641766578,-0.999799489975
1555426868685004791,,,0,,1555426868,684615306,"""world""","""cf3_vrpn""",,,0.155166223645,-0.0466769635677,0.0809195488691,,-0.00595132727176,0.00355022423901,-0.0192100387067,-0.999791443348
1555426868687752004,,,0,,1555426868,680973052,"""cf3_takeoff""","""cf3""",,,-0.00108238961548,-8.11226127553e-05,0.0650587230921,,0.000497936548493,-0.0121404385833,-0.000172537585339,0.999926163295
1555426868689503743,,,0,,1555426868,789167068,"""world""","""cf3_takeoff""",,,1.0,1.0,0.0,,0.0,0.0,0.0,1.0
1555426868694350012,,,0,,1555426868,693990543,"""world""","""cf3_vrpn""",,,0.155157774687,-0.0466756522655,0.0809228718281,,-0.00591820338741,0.00365194492042,-0.0191786717623,-0.999791920185
1555426868704919488,,,0,,1555426868,704373760,"""world""","""cf3_vrpn""",,,0.155140981078,-0.0466074980795,0.0809867009521,,-0.00500696199015,0.00313746067695,-0.0191691964865,-0.999798834324
1555426868711428024,,,0,,1555426868,705646991,"""cf3_takeoff""","""cf3""",,,-9.99355179374e-05,0.000901853432879,0.06507281214,,-0.00177012627004,-0.0102416898383,-0.000330509548958,0.999945931141
1555426868715148079,,,0,,1555426868,714779658,"""world""","""cf3_vrpn""",,,0.155146256089,-0.046610403806,0.0809889882803,,-0.00482605025172,0.0031802537851,-0.0192466136068,-0.999798119068
1555426868724639491,,,0,,1555426868,724210783,"""world""","""cf3_vrpn""",,,0.155175253749,-0.0466976650059,0.0809252858162,,-0.00590961659327,0.00350928329863,-0.0191289130598,-0.999793469906
1555426868724676974,,,0,,1555426868,724252672,"""world""","""cf3_vrpn""",,,0.155141934752,-0.0466039478779,0.0809863060713,,-0.00499541917816,0.00320481834933,-0.0191214364022,-0.999799609184
1555426868734968597,,,0,,1555426868,734667319,"""world""","""cf3_vrpn""",,,0.15515576303,-0.0466064214706,0.0809895172715,,-0.00511847250164,0.00325137912296,-0.0190843064338,-0.999799489975
1555426868736165878,,,0,,1555426868,730664968,"""cf3_takeoff""","""cf3""",,,7.4575538747e-05,0.000157646180014,0.0623106174171,,0.00122432620099,-0.0107892865759,-0.000155055213084,0.999941032401
1555426868744464409,,,0,,1555426868,744115131,"""world""","""cf3_vrpn""",,,0.155163750052,-0.0466863438487,0.080908536911,,-0.00608011009172,0.00370253063738,-0.0191859938204,-0.999790668488
1555426868754997546,,,0,,1555426868,754566969,"""world""","""cf3_vrpn""",,,0.155162855983,-0.0466923937201,0.0809184536338,,-0.00601666886359,0.00378415756859,-0.0192229691893,-0.999789953232
1555426868762466883,,,0,,1555426868,755685091,"""cf3_takeoff""","""cf3""",,,-0.000117295821838,0.000401804281864,0.064352735877,,0.00067389083748,-0.0104690241556,-0.000198972060564,0.999944951392
1555426868764330725,,,0,,1555426868,763946580,"""world""","""cf3_vrpn""",,,0.155156582594,-0.0466936938465,0.0809265449643,,-0.00584283424541,0.0036889759358,-0.0192967094481,-0.999790012836
1555426868774858224,,,0,,1555426868,774465330,"""world""","""cf3_vrpn""",,,0.155152380466,-0.0465886741877,0.0809575617313,,-0.0049842922017,0.00359629397281,-0.0189371090382,-0.999801814556
1555426868774884149,,,0,,1555426868,774502630,"""world""","""cf3_vrpn""",,,0.155155390501,-0.0465945899487,0.0809614434838,,-0.00499235605821,0.00355519261211,-0.0191732384264,-0.999797463417
1555426868784325512,,,0,,1555426868,783924511,"""world""","""cf3_vrpn""",,,0.155176758766,-0.0466898828745,0.0809158757329,,-0.00598662625998,0.00374855054542,-0.0192970018834,-0.999788880348
1555426868785895655,,,0,,1555426868,780709028,"""cf3_takeoff""","""cf3""",,,-0.00014527219173,0.000652953865938,0.0630603432655,,-0.000276421787575,-0.0102935680409,-0.000248169242164,0.999946950823
1555426868789647603,,,0,,1555426868,889267084,"""world""","""cf3_takeoff""",,,1.0,1.0,0.0,,0.0,0.0,0.0,1.0
1555426868794633779,,,0,,1555426868,794239013,"""world""","""cf3_vrpn""",,,0.155150860548,-0.0466025620699,0.0809897482395,,-0.00499357422814,0.00325683620758,-0.0191797148436,-0.999798357487
1555426868805002841,,,0,,1555426868,804672253,"""world""","""cf3_vrpn""",,,0.155153185129,-0.0466123372316,0.08098012954,,-0.00496243964881,0.00330166053027,-0.019137153402,-0.999799132347
1555426868812324677,,,0,,1555426868,805609941,"""cf3_takeoff""","""cf3""",,,-0.00020852360467,0.000405502301874,0.0604809708893,,3.31229042254e-05,-0.0101244883843,-0.000216409601636,0.999948722088
1555426868814358508,,,0,,1555426868,814045050,"""world""","""cf3_vrpn""",,,0.155162170529,-0.046699270606,0.0809108018875,,-0.00588484993204,0.00352851720527,-0.019200829789,-0.999792098999
1555426868824823781,,,0,,1555426868,824413581,"""world""","""cf3_vrpn""",,,0.155143752694,-0.0466006584466,0.0809919685125,,-0.00492809619755,0.00320338481106,-0.0191255081445,-0.999799907207
1555426868824845393,,,0,,1555426868,824461596,"""world""","""cf3_vrpn""",,,0.155153125525,-0.0465943329036,0.0809921771288,,-0.00500575266778,0.00334499659948,-0.0191982649267,-0.999797642231
1555426868834175693,,,0,,1555426868,833779252,"""world""","""cf3_vrpn""",,,0.155168071389,-0.0467119589448,0.0809076577425,,-0.0060101528652,0.00364292901941,-0.0192798990756,-0.999789476395
1555426868836287108,,,0,,1555426868,830704927,"""cf3_takeoff""","""cf3""",,,-0.000172718719114,0.00015420501586,0.0634827911854,,0.00140461955625,-0.0115119080645,-0.000156495548512,0.999932737001
1555426868844580251,,,0,,1555426868,844255729,"""world""","""cf3_vrpn""",,,0.155169382691,-0.0466803871095,0.0809257403016,,-0.00578281562775,0.00356006948277,-0.0192944481969,-0.999790787697
1555426868855077303,,,0,,1555426868,854648257,"""world""","""cf3_vrpn""",,,0.155150964856,-0.0465897955,0.0810025632381,,-0.0047580646351,0.00313392258249,-0.0193078462034,-0.999797344208
1555426868862611081,,,0,,1555426868,855681896,"""cf3_takeoff""","""cf3""",,,-0.00016989800497,0.000154589899466,0.0636133179069,,0.000968303393263,-0.0109642864276,-0.000173227212394,0.999939406566
1555426868864373734,,,0,,1555426868,863977046,"""world""","""cf3_vrpn""",,,0.155144646764,-0.04658870399,0.0809675306082,,-0.00489496532828,0.00312527362257,-0.0192955899984,-0.99979698658
1555426868874810506,,,0,,1555426868,874384533,"""world""","""cf3_vrpn""",,,0.155158653855,-0.046702567488,0.0809078887105,,-0.00590687524527,0.0034183326643,-0.0192805770785,-0.999790847301
1555426868874841703,,,0,,1555426868,874433410,"""world""","""cf3_vrpn""",,,0.155147433281,-0.0465851165354,0.081006243825,,-0.00502723269165,0.00310233933851,-0.0192423574626,-0.999797463417
1555426868885075064,,,0,,1555426868,884754212,"""world""","""cf3_vrpn""",,,0.155143767595,-0.0466127991676,0.0809797495604,,-0.00503044342622,0.00332944188267,-0.0191604681313,-0.999798297882
1555426868887078374,,,0,,1555426868,880610942,"""cf3_takeoff""","""cf3""",,,-0.000222829490667,0.00015362771228,0.0611809641123,,-0.00166584848249,-0.0104616289343,-0.000288522696481,0.999943846435
1555426868889848023,,,0,,1555426868,989405609,"""world""","""cf3_takeoff""",,,1.0,1.0,0.0,,0.0,0.0,0.0,1.0
1555426868894440049,,,0,,1555426868,894091471,"""world""","""cf3_vrpn""",,,0.155170723796,-0.0467022396624,0.0809028893709,,-0.00587309477851,0.00350273214281,-0.0192989446223,-0.999790430069
1555426868905377869,,,0,,1555426868,904425815,"""world""","""cf3_vrpn""",,,0.15518027544,-0.0466778501868,0.0809230282903,,-0.00591406458989,0.00347887934186,-0.0192342586815,-0.999791443348
1555426868913515263,,,0,,1555426868,905766010,"""cf3_takeoff""","""cf3""",,,-0.000226371281315,0.000390070519643,0.0610262751579,,0.000549986361367,-0.0103658527203,-0.000189834009383,0.999946103835
1555426868915093214,,,0,,1555426868,914744686,"""world""","""cf3_vrpn""",,,0.155163198709,-0.0465997382998,0.0810097306967,,-0.00511743873358,0.00332885514945,-0.0190792866051,-0.999799370766
1555426868924287104,,,0,,1555426868,924001174,"""world""","""cf3_vrpn""",,,0.155145928264,-0.0466126017272,0.0809644982219,,-0.00499190576375,0.00306149479002,-0.0190852321684,-0.999800741673
1555426868924310416,,,0,,1555426868,924030552,"""world""","""cf3_vrpn""",,,0.155166402459,-0.0466997809708,0.0809154212475,,-0.00586932478473,0.00347696593963,-0.0193062704057,-0.999790370464
1555426868934222908,,,0,,1555426868,930583953,"""cf3_takeoff""","""cf3""",,,-0.000211153295822,0.00114364712499,0.0617344044149,,-0.00167516849603,-0.0101252418877,-0.000298406112789,0.999947290731
1555426868934437615,,,0,,1555426868,934297142,"""world""","""cf3_vrpn""",,,0.155160233378,-0.0466123968363,0.0810013264418,,-0.00506779877469,0.00339201232418,-0.0192206390202,-0.999796688557
1555426868944627940,,,0,,1555426868,944488458,"""world""","""cf3_vrpn""",,,0.155167460442,-0.0465962998569,0.0809770748019,,-0.00513378437608,0.00344915897585,-0.0191682688892,-0.999797165394
1555426868953783866,,,0,,1555426868,953629835,"""world""","""cf3_vrpn""",,,0.15516859293,-0.0467037670314,0.080897539854,,-0.00592374103144,0.00356346205808,-0.0193479191512,-0.999788999557
1555426868959026232,,,0,,1555426868,955459117,"""cf3_takeoff""","""cf3""",,,-0.000204291922273,0.000384506536648,0.0620693303645,,0.00120408709942,-0.0101661604558,-0.000170863963635,0.999947583707
1555426868963927505,,,0,,1555426868,963821539,"""world""","""cf3_vrpn""",,,0.155151739717,-0.0466897822917,0.0809344947338,,-0.00595573103055,0.00359792076051,-0.0192359760404,-0.999790787697
1555426868974274789,,,0,,1555426868,974108737,"""world""","""cf3_vrpn""",,,0.155147358775,-0.0465963035822,0.0809839516878,,-0.00500101968646,0.00310370000079,-0.0192719325423,-0.999797046185
1555426868974287672,,,0,,1555426868,974124347,"""world""","""cf3_vrpn""",,,0.155155241489,-0.0466913990676,0.0809103474021,,-0.00600975984707,0.00336384191178,-0.0192399024963,-0.999791264534
1555426868982755026,,,0,,1555426868,980484008,"""cf3_takeoff""","""cf3""",,,-0.00020921502437,0.000137175142299,0.0619327947497,,0.000885661375008,-0.0108755888741,-0.000168291153792,0.999940452651
1555426868984491453,,,0,,1555426868,984324540,"""world""","""cf3_vrpn""",,,0.155176609755,-0.0466953404248,0.0809097066522,,-0.00617098296061,0.00366377364844,-0.0193175189197,-0.999787688255
1555426868989752590,,,0,,1555426869,89560978,"""world""","""cf3_takeoff""",,,1.0,1.0,0.0,,0.0,0.0,0.0,1.0
1555426868994796957,,,0,,1555426868,994639455,"""world""","""cf3_vrpn""",,,0.155162498355,-0.0465968027711,0.0809799805284,,-0.00500546721742,0.00336683681235,-0.0192610397935,-0.999796330929
1555426869004141455,,,0,,1555426869,3954594,"""world""","""cf3_vrpn""",,,0.155149906874,-0.0465925559402,0.0809874534607,,-0.00501477438956,0.00325817754492,-0.0192182529718,-0.999797463417
1555426869007464352,,,0,,1555426869,5446910,"""cf3_takeoff""","""cf3""",,,0.00013315367687,0.000126477447338,0.0664215236902,,0.00135644783465,-0.0114315846909,-0.000154225617455,0.999933725371
1555426869014301782,,,0,,1555426869,14173641,"""world""","""cf3_vrpn""",,,0.155168771744,-0.0466872937977,0.0809051394463,,-0.00587885081768,0.00353858713061,-0.0192337855697,-0.999791502953
1555426869024707774,,,0,,1555426869,24517672,"""world""","""cf3_vrpn""",,,0.155162766576,-0.0466073527932,0.0809859260917,,-0.0050199823454,0.0031383249443,-0.0192124638706,-0.999797940254
1555426869024722622,,,0,,1555426869,24533448,"""world""","""cf3_vrpn""",,,0.15515768528,-0.0466064810753,0.0809830799699,,-0.00499186245725,0.00330608291551,-0.0191919002682,-0.99979788065
1555426869032624286,,,0,,1555426869,30472040,"""cf3_takeoff""","""cf3""",,,9.46047512116e-05,0.000629063753877,0.0648647993803,,-8.586740058e-05,-0.010870909218,-0.000210271294197,0.999940884125
1555426869033864278,,,0,,1555426869,33713061,"""world""","""cf3_vrpn""",,,0.15515807271,-0.046594850719,0.0809813588858,,-0.0049449140206,0.00314967217855,-0.0190301779658,-0.999801695347
1555426869044241488,,,0,,1555426869,44017476,"""world""","""cf3_vrpn""",,,0.15518297255,-0.0466578751802,0.0809054374695,,-0.00578066986054,0.00378441624343,-0.0190760139376,-0.999794244766
1555426869054591378,,,0,,1555426869,54267615,"""world""","""cf3_vrpn""",,,0.155159890652,-0.046587523073,0.0809891968966,,-0.00518108066171,0.00349847762845,-0.0192819107324,-0.999794542789
1555426869058727400,,,0,,1555426869,55525064,"""cf3_takeoff""","""cf3""",,,9.75164439296e-05,0.000375482079107,0.0651562288404,,0.000605332282737,-0.0105621680369,-0.000173828137083,0.999944020415
1555426869065077492,,,0,,1555426869,64731808,"""world""","""cf3_vrpn""",,,0.155161693692,-0.0465922132134,0.0809896588326,,-0.00492631457746,0.003181994427,-0.0192150976509,-0.999798178673
1555426869074546987,,,0,,1555426869,74143289,"""world""","""cf3_vrpn""",,,0.155160322785,-0.0466705746949,0.0809065997601,,-0.00596620934084,0.00342163210735,-0.0192245487124,-0.999791622162
1555426869074575087,,,0,,1555426869,74184230,"""world""","""cf3_vrpn""",,,0.155166953802,-0.0466710813344,0.0809184610844,,-0.00583030888811,0.00351120578125,-0.0192348342389,-0.999791920185
1555426869084114856,,,0,,1555426869,83745663,"""world""","""cf3_vrpn""",,,0.155158102512,-0.046569224447,0.0809859931469,,-0.00494286883622,0.00328373420052,-0.0191021673381,-0.999799907207
1555426869086472856,,,0,,1555426869,80703020,"""cf3_takeoff""","""cf3""",,,6.4632804424e-05,0.000627301167697,0.0636540278792,,3.6765529012e-05,-0.0098503324635,-0.000188922195684,0.999951465776
1555426869089967820,,,0,,1555426869,189645230,"""world""","""cf3_takeoff""",,,1.0,1.0,0.0,,0.0,0.0,0.0,1.0
1555426869094710832,,,0,,1555426869,94329523,"""world""","""cf3_vrpn""",,,0.155163571239,-0.0465999022126,0.0809720158577,,-0.00484408298507,0.00305021600798,-0.0191856138408,-0.99979954958
1555426869105107922,,,0,,1555426869,104729629,"""world""","""cf3_vrpn""",,,0.155186071992,-0.0466729067266,0.0809241533279,,-0.00576938688755,0.00344723509625,-0.0192370899022,-0.999792337418
1555426869112965241,,,0,,1555426869,105787038,"""cf3_takeoff""","""cf3""",,,-0.00016120505461,0.00112293846905,0.0650331005454,,-0.00131271661502,-0.0103214950138,-0.000234115385006,0.999945842886
1555426869114752794,,,0,,1555426869,114358134,"""world""","""cf3_vrpn""",,,0.155157014728,-0.0465813949704,0.0809857621789,,-0.00503418128937,0.00332689168863,-0.0191741455346,-0.999797940254
1555426869125286048,,,0,,1555426869,124887767,"""world""","""cf3_vrpn""",,,0.155151322484,-0.0465792864561,0.0809772089124,,-0.00491100270301,0.00315829529427,-0.019155189395,-0.99979954958
1555426869125480508,,,0,,1555426869,125018867,"""world""","""cf3_vrpn""",,,0.155150637031,-0.0466660410166,0.0809113308787,,-0.00593177834526,0.0034360953141,-0.0192176327109,-0.999791800976
1555426869134713596,,,0,,1555426869,134351327,"""world""","""cf3_vrpn""",,,0.155146300793,-0.0465802960098,0.0809713453054,,-0.00478671491146,0.00312852533534,-0.0190949756652,-0.999801337719
1555426869139079716,,,0,,1555426869,130708932,"""cf3_takeoff""","""cf3""",,,-0.000699548865668,-0.000157999515068,0.0640356466174,,0.00197119913005,-0.00880175234226,-0.00014060823255,0.999959311052
1555426869144933867,,,0,,1555426869,144647094,"""world""","""cf3_vrpn""",,,0.155157402158,-0.0465743727982,0.0809708759189,,-0.0047919084318,0.00313912145793,-0.0192678011954,-0.999797940254
1555426869154195290,,,0,,1555426869,153967488,"""world""","""cf3_vrpn""",,,0.155157610774,-0.046597506851,0.0809716433287,,-0.00491131702438,0.00303162378259,-0.0192000772804,-0.999799013138
1555426869159458231,,,0,,1555426869,155622005,"""cf3_takeoff""","""cf3""",,,-0.000668859516736,0.000106672981929,0.0652462244034,,0.000709064254878,-0.00909668410802,-0.000171941165198,0.999958358134
1555426869164437517,,,0,,1555426869,164199493,"""world""","""cf3_vrpn""",,,0.155153408647,-0.046592283994,0.0809679850936,,-0.00486760679632,0.00320240925066,-0.0192735344172,-0.999797344208
1555426869174952370,,,0,,1555426869,174659527,"""world""","""cf3_vrpn""",,,0.15515846014,-0.0465843752027,0.08098179847,,-0.00480297626927,0.0031736374367,-0.0193664822727,-0.999795973301
1555426869174960677,,,0,,1555426869,174679968,"""world""","""cf3_vrpn""",,,0.155150532722,-0.0465783700347,0.0809773355722,,-0.00485799415037,0.00310126272961,-0.0190648809075,-0.999801635742
1555426869184183841,,,0,,1555426869,183972997,"""world""","""cf3_vrpn""",,,0.155162647367,-0.0466797538102,0.0809217020869,,-0.00600105617195,0.00357208936475,-0.0192151386291,-0.999790966511
1555426869184485294,,,0,,1555426869,180552005,"""cf3_takeoff""","""cf3""",,,-0.000225538984523,0.000136396920425,0.0636985898018,,0.000510414545727,-0.0105324189447,-0.00018213903917,0.99994438568
1555426869190056544,,,0,,1555426869,289775055,"""world""","""cf3_takeoff""",,,1.0,1.0,0.0,,0.0,0.0,0.0,1.0
1555426869194608063,,,0,,1555426869,194366309,"""world""","""cf3_vrpn""",,,0.155165821314,-0.0466821193695,0.080925039947,,-0.0059373928234,0.00353884883225,-0.0192136578262,-0.999791502953
1555426869204897336,,,0,,1555426869,204723548,"""world""","""cf3_vrpn""",,,0.155141711235,-0.0466015823185,0.080973342061,,-0.00490178680047,0.00332480738871,-0.0191729404032,-0.999798715115
1555426869208535654,,,0,,1555426869,205497026,"""cf3_takeoff""","""cf3""",,,-0.000247875694185,0.00011943973368,0.0626869723201,,0.000271675020012,-0.0105137144275,-0.000181328200902,0.99994467603
1555426869214171283,,,0,,1555426869,213958627,"""world""","""cf3_vrpn""",,,0.155154004693,-0.0465766601264,0.0809690058231,,-0.00504623120651,0.00336338905618,-0.0191316287965,-0.999798595905
1555426869224539393,,,0,,1555426869,224294862,"""world""","""cf3_vrpn""",,,0.15517115593,-0.0466724969447,0.0808932334185,,-0.00585181033239,0.00344648002647,-0.019121536985,-0.999794185162
1555426869224556091,,,0,,1555426869,224314812,"""world""","""cf3_vrpn""",,,0.155155450106,-0.0466514602304,0.0809170454741,,-0.00591425877064,0.00349203776568,-0.0192326363176,-0.999791443348
1555426869234162738,,,0,,1555426869,230545997,"""cf3_takeoff""","""cf3""",,,-0.000254246930126,0.00012260308722,0.0616749450564,,0.000246641428651,-0.010344151316,-0.000175947644423,0.999946451938
1555426869234783137,,,0,,1555426869,234589313,"""world""","""cf3_vrpn""",,,0.155130460858,-0.0465760417283,0.0809788182378,,-0.00502972491086,0.00321531994268,-0.019161824137,-0.999798595905
1555426869244269209,,,0,,1555426869,244006814,"""world""","""cf3_vrpn""",,,0.155157014728,-0.0466816313565,0.0808901786804,,-0.00600403454155,0.00342602911405,-0.0191374476999,-0.999792993069
1555426869254475745,,,0,,1555426869,254303730,"""world""","""cf3_vrpn""",,,0.15516769886,-0.0466742105782,0.0808955654502,,-0.00601505488157,0.00358681892976,-0.0191763397306,-0.999791622162
1555426869259829450,,,0,,1555426869,255582094,"""cf3_takeoff""","""cf3""",,,-0.000987368286587,-6.27246772638e-05,0.0614844113588,,0.000871516296714,-0.00776617745117,-0.000170471161411,0.999969448477
1555426869264790117,,,0,,1555426869,264636748,"""world""","""cf3_vrpn""",,,0.155135169625,-0.0465822592378,0.0809697583318,,-0.00509621948004,0.00331759569235,-0.0190747957677,-0.99979954958
1555426869274225545,,,0,,1555426869,273975225,"""world""","""cf3_vrpn""",,,0.155150532722,-0.0466721989214,0.0808930248022,,-0.0059757148847,0.00357796042226,-0.0190445706248,-0.99979442358
1555426869274235085,,,0,,1555426869,273998265,"""world""","""cf3_vrpn""",,,0.155157268047,-0.0466491989791,0.0809081345797,,-0.00602826569229,0.00340250437148,-0.0191938132048,-0.99979186058
1555426869283745513,,,0,,1555426869,280566930,"""cf3_takeoff""","""cf3""",,,-0.000281496060779,0.000151767308125,0.0628234148026,,-0.000498299927514,-0.0105752428177,-0.000200936086346,0.999943936209
1555426869284435988,,,0,,1555426869,284299346,"""world""","""cf3_vrpn""",,,0.1551425457,-0.046579644084,0.0809785425663,,-0.00498241512105,0.00324439769611,-0.0192918982357,-0.999796271324
1555426869290147171,,,0,,1555426869,389918013,"""world""","""cf3_takeoff""",,,1.0,1.0,0.0,,0.0,0.0,0.0,1.0
1555426869295021925,,,0,,1555426869,294735734,"""world""","""cf3_vrpn""",,,0.155127078295,-0.0465890094638,0.0809604749084,,-0.00514401309192,0.00329542835243,-0.0190375018865,-0.999800145626
1555426869304376685,,,0,,1555426869,304143482,"""world""","""cf3_vrpn""",,,0.155155524611,-0.0466968305409,0.0809010267258,,-0.00599056156352,0.00359576707706,-0.0191711708903,-0.99979186058
1555426869309807296,,,0,,1555426869,305542945,"""cf3_takeoff""","""cf3""",,,-0.000278814666672,0.000535089056939,0.0614242553711,,0.00107527777799,-0.0103901265876,-0.000146086806901,0.999945432364
1555426869314804738,,,0,,1555426869,314546754,"""world""","""cf3_vrpn""",,,0.155161902308,-0.0466644205153,0.0809109956026,,-0.00593035900965,0.00358505290933,-0.0192341636866,-0.999791026115
1555426869324237863,,,0,,1555426869,323946101,"""world""","""cf3_vrpn""",,,0.155150488019,-0.0465709976852,0.0809821933508,,-0.00478877173737,0.003206145484,-0.0191139318049,-0.999800682068
1555426869334807708,,,0,,1555426869,330543994,"""cf3_takeoff""","""cf3""",,,-0.000259108986938,0.000532986363396,0.0612652488053,,-0.000554189549091,-0.0102839026689,-0.000196016266824,0.999946946491
1555426869334826556,,,0,,1555426869,334323060,"""world""","""cf3_vrpn""",,,0.155184209347,-0.0466767214239,0.0808990821242,,-0.00583503395319,0.00345409102738,-0.0191641990095,-0.999793410301
1555426869334848391,,,0,,1555426869,334366186,"""world""","""cf3_vrpn""",,,0.155158728361,-0.0466706007719,0.080904789269,,-0.00574571825564,0.00331246480346,-0.0191484279931,-0.999794721603
1555426869343958136,,,0,,1555426869,343746190,"""world""","""cf3_vrpn""",,,0.155148178339,-0.0465683862567,0.0809889137745,,-0.00478976918384,0.00297260493971,-0.0191675852984,-0.999800384045
1555426869354246404,,,0,,1555426869,354036279,"""world""","""cf3_vrpn""",,,0.155170157552,-0.0466620437801,0.0809049457312,,-0.00593084376305,0.00349644012749,-0.0191070027649,-0.999793767929
1555426869360012656,,,0,,1555426869,355575084,"""cf3_takeoff""","""cf3""",,,-0.00100653839763,0.000175403009052,0.0611980706453,,0.000874253149145,-0.0077715328395,-0.000171216203814,0.999969404354
1555426869364559391,,,0,,1555426869,364348826,"""world""","""cf3_vrpn""",,,0.155171811581,-0.0466589555144,0.0809178799391,,-0.00584611203521,0.00349102262408,-0.0192289333791,-0.999791920185
1555426869375122137,,,0,,1555426869,374810450,"""world""","""cf3_vrpn""",,,0.15514947474,-0.046578861773,0.0809743106365,,-0.00485769333318,0.00316991726868,-0.0191738903522,-0.99979943037
1555426869375138275,,,0,,1555426869,374885665,"""world""","""cf3_vrpn""",,,0.155132621527,-0.0465831570327,0.0809672549367,,-0.00484255701303,0.00316423573531,-0.0191271435469,-0.999800384045
1555426869384605567,,,0,,1555426869,384297683,"""world""","""cf3_vrpn""",,,0.155156418681,-0.0466925166547,0.080893792212,,-0.00596409942955,0.00355525780469,-0.0192216280848,-0.999791145325
1555426869384850071,,,0,,1555426869,380577087,"""cf3_takeoff""","""cf3""",,,-0.000785434502177,0.00108534260653,0.0644167587161,,0.00119007020613,-0.0108641311662,-0.000132437695918,0.99994026664
1555426869390315699,,,0,,1555426869,490078318,"""world""","""cf3_takeoff""",,,1.0,1.0,0.0,,0.0,0.0,0.0,1.0
1555426869394365683,,,0,,1555426869,394035756,"""world""","""cf3_vrpn""",,,0.155148774385,-0.0466032661498,0.0809741169214,,-0.00484428880736,0.00294969556853,-0.0191606916487,-0.99980032444
1555426869404601025,,,0,,1555426869,404345213,"""world""","""cf3_vrpn""",,,0.155161082745,-0.0465928092599,0.0809774696827,,-0.00488639669493,0.00315368035808,-0.0191844552755,-0.999799072742
1555426869409733315,,,0,,1555426869,405559062,"""cf3_takeoff""","""cf3""",,,-0.000201884904527,0.000349026406184,0.0657079741359,,0.000149487276578,-0.0105561024737,-0.000166974038884,0.999944257683
1555426869414905946,,,0,,1555426869,414686243,"""world""","""cf3_vrpn""",,,0.15518078208,-0.0466782152653,0.0809252262115,,-0.00591253768653,0.00360055477358,-0.0192510597408,-0.999790728092
1555426869424230183,,,0,,1555426869,423985019,"""world""","""cf3_vrpn""",,,0.155168771744,-0.0466791018844,0.0809209793806,,-0.00582210812718,0.00351018342189,-0.0191982891411,-0.999792575836
1555426869424332635,,,0,,1555426869,424009454,"""world""","""cf3_vrpn""",,,0.155164659023,-0.046675696969,0.0809122100472,,-0.00598005205393,0.00359250814654,-0.019384752959,-0.999787807465
1555426869434853649,,,0,,1555426869,430558919,"""cf3_takeoff""","""cf3""",,,-0.00024202374334,0.000351190217771,0.0629834905267,,0.000195858675578,-0.0103781816382,-0.000168421321675,0.999946111858
1555426869434925654,,,0,,1555426869,434395483,"""world""","""cf3_vrpn""",,,0.155142918229,-0.0465917438269,0.0809727534652,,-0.00492097949609,0.00304406508803,-0.0191526245326,-0.999799907207
1555426869444925495,,,0,,1555426869,444667414,"""world""","""cf3_vrpn""",,,0.155156075954,-0.0465938486159,0.0809672176838,,-0.00498959328979,0.00299357553013,-0.0191142689437,-0.999800443649
1555426869454422691,,,0,,1555426869,454122094,"""world""","""cf3_vrpn""",,,0.155161142349,-0.0465867631137,0.0809747800231,,-0.00491115171462,0.00303932628594,-0.019231332466,-0.999798417091
1555426869460347037,,,0,,1555426869,455615043,"""cf3_takeoff""","""cf3""",,,-0.000237496089539,0.000164680473972,0.0629585310817,,-8.63028566594e-05,-0.0106388458346,-0.000172121264728,0.99994338734
1555426869464704456,,,0,,1555426869,464481299,"""world""","""cf3_vrpn""",,,0.155149713159,-0.0466005019844,0.0809806734324,,-0.00490277586505,0.00304402410984,-0.0192217249423,-0.99979865551
1555426869473992875,,,0,,1555426869,473727137,"""world""","""cf3_vrpn""",,,0.155135259032,-0.0466076768935,0.0809560716152,,-0.00493591278791,0.0031719522085,-0.0190486665815,-0.999801337719
1555426869484604455,,,0,,1555426869,484067997,"""world""","""cf3_vrpn""",,,0.155151829123,-0.0466020852327,0.0809592306614,,-0.00516555132344,0.00315516698174,-0.019125290215,-0.999798834324
1555426869484624865,,,0,,1555426869,484118841,"""world""","""cf3_vrpn""",,,0.155153080821,-0.0466063469648,0.0809629112482,,-0.0048421160318,0.00304171047173,-0.0192740503699,-0.999797940254
1555426869484643643,,,0,,1555426869,480583906,"""cf3_takeoff""","""cf3""",,,-6.49903304293e-05,0.000327836256474,0.0611880384386,,0.000208711479277,-0.0102548617865,-0.000157027216339,0.999947383412
1555426869490410596,,,0,,1555426869,590168568,"""world""","""cf3_takeoff""",,,1.0,1.0,0.0,,0.0,0.0,0.0,1.0
1555426869494776188,,,0,,1555426869,494507342,"""world""","""cf3_vrpn""",,,0.155147656798,-0.0466081649065,0.0809655487537,,-0.00499068200588,0.00324173970148,-0.0192945171148,-0.999796152115
1555426869504214831,,,0,,1555426869,503952097,"""world""","""cf3_vrpn""",,,0.155168443918,-0.0466784350574,0.0809006690979,,-0.00608017155901,0.00367923034355,-0.0192384943366,-0.999789714813
1555426869509260238,,,0,,1555426869,505584955,"""cf3_takeoff""","""cf3""",,,-6.60424702801e-05,0.000134881440317,0.0613741725683,,0.000498823276452,-0.0106246244129,-0.000148485525825,0.999943421641
1555426869514641292,,,0,,1555426869,514338199,"""world""","""cf3_vrpn""",,,0.155162140727,-0.0466833785176,0.0808980688453,,-0.00604920228943,0.00359419127926,-0.019184300676,-0.999791264534
1555426869525028289,,,0,,1555426869,524724079,"""world""","""cf3_vrpn""",,,0.155167162418,-0.0466740950942,0.0809027254581,,-0.0058556785807,0.00355384405702,-0.0192169584334,-0.99979186058
1555426869525041499,,,0,,1555426869,524777279,"""world""","""cf3_vrpn""",,,0.155159205198,-0.0466131940484,0.0809644907713,,-0.00497129699215,0.00329500762746,-0.0192127302289,-0.999797701836
1555426869534473566,,,0,,1555426869,534184884,"""world""","""cf3_vrpn""",,,0.155149877071,-0.0465877763927,0.0809754505754,,-0.0049164337106,0.00311101973057,-0.0192629285157,-0.999797582626
1555426869534654339,,,0,,1555426869,530669927,"""cf3_takeoff""","""cf3""",,,-8.27166513773e-05,0.000123125922983,0.0601982958615,,0.000351702513234,-0.0105266514875,-0.000147217293464,0.999944520581
1555426869544794419,,,0,,1555426869,544463332,"""world""","""cf3_vrpn""",,,0.155146032572,-0.0465782918036,0.0809729099274,,-0.00497175380588,0.00315058184788,-0.0191609337926,-0.999799132347
1555426869554049471,,,0,,1555426869,553752511,"""world""","""cf3_vrpn""",,,0.155155107379,-0.0466884337366,0.0808823257685,,-0.00580096757039,0.00353775592521,-0.0193058159202,-0.999790608883
1555426869560194558,,,0,,1555426869,555654048,"""cf3_takeoff""","""cf3""",,,-0.000297358521493,0.00109750404954,0.0597919262946,,-0.00210777934106,-0.0097079066094,-0.000215366606422,0.999950632498
1555426869564319297,,,0,,1555426869,564102938,"""world""","""cf3_vrpn""",,,0.15514986217,-0.0466429367661,0.080896422267,,-0.00590116484091,0.00376511435024,-0.0190359428525,-0.999794304371
1555426869574734546,,,0,,1555426869,574434349,"""world""","""cf3_vrpn""",,,0.155152201653,-0.0465813614428,0.0809586793184,,-0.00483147613704,0.00300897331908,-0.0191838517785,-0.999799847603
1555426869574788375,,,0,,1555426869,574459345,"""world""","""cf3_vrpn""",,,0.155165687203,-0.0466662943363,0.0808921381831,,-0.00607088953257,0.00348490197212,-0.0191240739077,-0.999792635441
1555426869584051484,,,0,,1555426869,583721412,"""world""","""cf3_vrpn""",,,0.155153304338,-0.04659159109,0.0809694975615,,-0.00505352951586,0.00307134026662,-0.019249483943,-0.999797224998
1555426869584581962,,,0,,1555426869,580564022,"""cf3_takeoff""","""cf3""",,,-0.000234358740272,0.000198376845219,0.0608461759984,,-0.000499563905882,-0.00988735409969,-0.000179466441088,0.999950978027
1555426869590569776,,,0,,1555426869,690264667,"""world""","""cf3_takeoff""",,,1.0,1.0,0.0,,0.0,0.0,0.0,1.0
1555426869594506284,,,0,,1555426869,594242272,"""world""","""cf3_vrpn""",,,0.155150547624,-0.0465732589364,0.0809718295932,,-0.00487355934456,0.00298663089052,-0.0190861560404,-0.999801516533
1555426869604900604,,,0,,1555426869,604653480,"""world""","""cf3_vrpn""",,,0.155169263482,-0.0466782189906,0.0808937251568,,-0.00605171266943,0.00352323753759,-0.0192509684712,-0.999790251255
1555426869609686543,,,0,,1555426869,605663061,"""cf3_takeoff""","""cf3""",,,-0.000246740382863,0.000160659881658,0.0609437562525,,0.000775347031489,-0.0098448158425,-0.000144508493155,0.999951227588
1555426869614117934,,,0,,1555426869,613918002,"""world""","""cf3_vrpn""",,,0.155159845948,-0.0466925241053,0.080896794796,,-0.00604448420927,0.00369777181186,-0.0191589388996,-0.999791383743
1555426869624521409,,,0,,1555426869,624237295,"""world""","""cf3_vrpn""",,,0.15515422821,-0.046579670161,0.0809893682599,,-0.00506033096462,0.00344505114481,-0.0192432012409,-0.99979609251
1555426869624541879,,,0,,1555426869,624265293,"""world""","""cf3_vrpn""",,,0.155149638653,-0.0465855337679,0.0809639543295,,-0.00486666848883,0.00307806720957,-0.01909837313,-0.9998010993
1555426869634771866,,,0,,1555426869,634570463,"""world""","""cf3_vrpn""",,,0.155161291361,-0.0466515868902,0.0808769762516,,-0.00578583078459,0.00364193017595,-0.0190594214946,-0.999794960022
1555426869634928211,,,0,,1555426869,630652904,"""cf3_takeoff""","""cf3""",,,-0.000252954778261,0.00067072204547,0.06133640185,,-0.00128045608475,-0.0099895852183,-0.000183560473123,0.999949266176
1555426869644221537,,,0,,1555426869,643968465,"""world""","""cf3_vrpn""",,,0.15514716506,-0.0465807728469,0.0809682384133,,-0.00498666800559,0.00313362712041,-0.0192006658763,-0.999798297882
1555426869654621992,,,0,,1555426869,654375128,"""world""","""cf3_vrpn""",,,0.155147090554,-0.0465818829834,0.0809775963426,,-0.00488566420972,0.0033126831986,-0.0191112738103,-0.999799966812
1555426869660701505,,,0,,1555426869,655561923,"""cf3_takeoff""","""cf3""",,,-0.000262719549937,-1.97459053197e-06,0.061267927289,,0.00157464189706,-0.0100811980823,-0.0001212180787,0.999947936272
1555426869664918793,,,0,,1555426869,664722922,"""world""","""cf3_vrpn""",,,0.155160933733,-0.0466819256544,0.0808863639832,,-0.00586521020159,0.00341337127611,-0.018966358155,-0.999797105789
1555426869674600344,,,0,,1555426869,674144118,"""world""","""cf3_vrpn""",,,0.155170544982,-0.0466695055366,0.0809175744653,,-0.00601531891152,0.00351764215156,-0.0191727224737,-0.99979197979
1555426869674621899,,,0,,1555426869,674180207,"""world""","""cf3_vrpn""",,,0.155156984925,-0.0465765483677,0.0809900611639,,-0.00480132270604,0.00327427615412,-0.0192015673965,-0.999798834324
1555426869684784303,,,0,,1555426869,684513612,"""world""","""cf3_vrpn""",,,0.155168533325,-0.0466654375196,0.0809103623033,,-0.00602257996798,0.00364515534602,-0.0190871581435,-0.999793112278
1555426869685258818,,,0,,1555426869,680583000,"""cf3_takeoff""","""cf3""",,,-0.000298754428513,-4.48248392786e-05,0.0662798807025,,0.00119342326045,-0.0112191614082,-0.000148767762629,0.999936339987
1555426869690626035,,,0,,1555426869,790393228,"""world""","""cf3_takeoff""",,,1.0,1.0,0.0,,0.0,0.0,0.0,1.0
1555426869694037601,,,0,,1555426869,693794947,"""world""","""cf3_vrpn""",,,0.155161768198,-0.0466891750693,0.0809089168906,,-0.00598126417026,0.00353494961746,-0.0190757103264,-0.999793887138
1555426869704449135,,,0,,1555426869,704203154,"""world""","""cf3_vrpn""",,,0.155158907175,-0.0465874522924,0.0809804946184,,-0.0049519254826,0.0031497287564,-0.0191984567791,-0.999798476696
1555426869709888069,,,0,,1555426869,705617904,"""cf3_takeoff""","""cf3""",,,-0.000234760271269,0.000303569424432,0.0672201961279,,-0.000116700766878,-0.0107527236997,-0.000163853777976,0.999942167561
1555426869714805991,,,0,,1555426869,714537563,"""world""","""cf3_vrpn""",,,0.15514819324,-0.04659095034,0.080976434052,,-0.00502715958282,0.0033695618622,-0.0191173404455,-0.999798893929
1555426869724209187,,,0,,1555426869,723861533,"""world""","""cf3_vrpn""",,,0.155160874128,-0.0466722771525,0.0809002667665,,-0.00594240333885,0.00353876128793,-0.0191558841616,-0.999792635441
1555426869734577082,,,0,,1555426869,734388554,"""world""","""cf3_vrpn""",,,0.155168011785,-0.0466675311327,0.0808998271823,,-0.00598035240546,0.00361447152682,-0.0193005017936,-0.999789357185
1555426869734770813,,,0,,1555426869,730591058,"""cf3_takeoff""","""cf3""",,,-0.000974931230303,0.000136870250572,0.0654648244381,,0.000681620927732,-0.00807112475468,-0.000157684985078,0.999967183198
1555426869734780032,,,0,,1555426869,734484415,"""world""","""cf3_vrpn""",,,0.155149459839,-0.0465934537351,0.0809801891446,,-0.00496017094702,0.00327910785563,-0.0191675331444,-0.999798595905
1555426869744523615,,,0,,1555426869,744245002,"""world""","""cf3_vrpn""",,,0.155145660043,-0.0465881302953,0.0809564813972,,-0.00503614638001,0.00330573273823,-0.0191820971668,-0.999797821045
1555426869754899731,,,0,,1555426869,754653787,"""world""","""cf3_vrpn""",,,0.155149415135,-0.046678699553,0.0808843821287,,-0.00594588415697,0.00353112537414,-0.0191901624203,-0.999791920185
1555426869759480703,,,0,,1555426869,755590915,"""cf3_takeoff""","""cf3""",,,-0.000512635859195,0.000174717220943,0.0654784440994,,-0.00166658079922,-0.0108422527961,-0.000203935505979,0.999939811425
1555426869764248339,,,0,,1555426869,764015424,"""world""","""cf3_vrpn""",,,0.155157327652,-0.0466738529503,0.0809122696519,,-0.00587020488456,0.00362675148062,-0.0192088205367,-0.999791741371
1555426869774659459,,,0,,1555426869,774387901,"""world""","""cf3_vrpn""",,,0.155148163438,-0.0465974733233,0.0809747874737,,-0.00504365796223,0.00334082823247,-0.0191753767431,-0.99979788065
1555426869774669196,,,0,,1555426869,774414243,"""world""","""cf3_vrpn""",,,0.155159950256,-0.0466017015278,0.0809820592403,,-0.00489394273609,0.00312157347798,-0.0190364234149,-0.999801933765
1555426869784808674,,,0,,1555426869,780538082,"""cf3_takeoff""","""cf3""",,,-0.000254278216744,0.000876381760463,0.0664239525795,,0.000620057543083,-0.0104123744242,-0.000139366620218,0.999945587802
1555426869784981750,,,0,,1555426869,784709204,"""world""","""cf3_vrpn""",,,0.155176967382,-0.0466752722859,0.0809068456292,,-0.00586971594021,0.00364259537309,-0.0189144331962,-0.999797284603
1555426869790785399,,,0,,1555426869,890486203,"""world""","""cf3_takeoff""",,,1.0,1.0,0.0,,0.0,0.0,0.0,1.0
1555426869794321735,,,0,,1555426869,794076080,"""world""","""cf3_vrpn""",,,0.155173555017,-0.046673964709,0.0809374377131,,-0.00605067750439,0.0036934951786,-0.0192242879421,-0.999790132046
1555426869804749438,,,0,,1555426869,804500316,"""world""","""cf3_vrpn""",,,0.15514588356,-0.0465922765434,0.081001535058,,-0.00485579483211,0.00322560174391,-0.0191470123827,-0.999799728394
1555426869809889900,,,0,,1555426869,805629968,"""cf3_takeoff""","""cf3""",,,-0.000240546040004,7.7320379205e-05,0.0683040544391,,0.000100995082028,-0.0110614147443,-0.000162382563073,0.999938802395
1555426869814085438,,,0,,1555426869,813816260,"""world""","""cf3_vrpn""",,,0.155162602663,-0.0466925613582,0.0809022113681,,-0.00598030351102,0.00352172693238,-0.0191656239331,-0.999792277813
1555426869824680134,,,0,,1555426869,824191192,"""world""","""cf3_vrpn""",,,0.155178233981,-0.0466764345765,0.0809303149581,,-0.00609260890633,0.00358728854917,-0.0191676728427,-0.999791324139
1555426869824694454,,,0,,1555426869,824237897,"""world""","""cf3_vrpn""",,,0.155148595572,-0.0465801171958,0.0809961184859,,-0.00484507484362,0.00329328142107,-0.0191358346492,-0.999799787998
1555426869834994774,,,0,,1555426869,834670207,"""world""","""cf3_vrpn""",,,0.155178904533,-0.0466800145805,0.0808961838484,,-0.00585481990129,0.00348263606429,-0.0190076380968,-0.999796152115
1555426869836634586,,,0,,1555426869,830617904,"""cf3_takeoff""","""cf3""",,,-0.000256103841821,0.00046487923828,0.0653329566121,,-0.00103929446253,-0.0106804136492,-0.000198085954246,0.999942403038
1555426869844568900,,,0,,1555426869,844130884,"""world""","""cf3_vrpn""",,,0.155182704329,-0.0466883778572,0.0808920636773,,-0.00603434722871,0.00367277278565,-0.0192087255418,-0.999790608883
1555426869855125814,,,0,,1555426869,854688688,"""world""","""cf3_vrpn""",,,0.15514613688,-0.0465872846544,0.0809988081455,,-0.00486165098846,0.00302924052812,-0.0190634969622,-0.999801874161
1555426869863549490,,,0,,1555426869,855731010,"""cf3_takeoff""","""cf3""",,,-0.000647839508019,-6.20067003183e-05,0.0636349245906,,0.000677707636236,-0.0109917012985,-0.000149384524016,0.99993934861
1555426869864662388,,,0,,1555426869,864343744,"""world""","""cf3_vrpn""",,,0.155151203275,-0.0466608889401,0.0809250250459,,-0.00593788409606,0.00385888945311,-0.0192960686982,-0.999788820744
1555426869875262583,,,0,,1555426869,874790619,"""world""","""cf3_vrpn""",,,0.155172899365,-0.0466990694404,0.0808932036161,,-0.00605551153421,0.00370585732162,-0.0192294213921,-0.999789893627
1555426869875520413,,,0,,1555426869,874996453,"""world""","""cf3_vrpn""",,,0.155179858208,-0.046692404896,0.0809146463871,,-0.00607160246,0.0035878252238,-0.0192344784737,-0.99979019165
1555426869884805310,,,0,,1555426869,884436578,"""world""","""cf3_vrpn""",,,0.155144378543,-0.0465907566249,0.0809879079461,,-0.00502649880946,0.00337041332386,-0.0192040428519,-0.999797284603
1555426869887608097,,,0,,1555426869,880681991,"""cf3_takeoff""","""cf3""",,,-0.000274595542578,-0.00012132775737,0.0625007152557,,0.000439327168486,-0.0101908525417,-0.000151072352555,0.999947963993
1555426869891070221,,,0,,1555426869,990586295,"""world""","""cf3_takeoff""",,,1.0,1.0,0.0,,0.0,0.0,0.0,1.0
1555426869894072609,,,0,,1555426869,893738639,"""world""","""cf3_vrpn""",,,0.155164137483,-0.0466918647289,0.0809115171432,,-0.00591690791771,0.00349833490327,-0.019234970212,-0.999791383743
1555426869904656787,,,0,,1555426869,904218351,"""world""","""cf3_vrpn""",,,0.15518464148,-0.0466828197241,0.0809148624539,,-0.00601139618084,0.00346219819039,-0.0192061495036,-0.999791502953
1555426869912772275,,,0,,1555426869,905662059,"""cf3_takeoff""","""cf3""",,,-0.0010310378857,-0.000102348887594,0.0626376643777,,0.000594179440013,-0.00793057509477,-0.000160494449116,0.999968363085
1555426869914787908,,,0,,1555426869,914562203,"""world""","""cf3_vrpn""",,,0.155147328973,-0.0465967580676,0.0809961259365,,-0.00491904700175,0.00323132402264,-0.0192473605275,-0.999797463417
1555426869924195994,,,0,,1555426869,923973476,"""world""","""cf3_vrpn""",,,0.155130594969,-0.0466182902455,0.080965846777,,-0.00506055820733,0.00335320574231,-0.0192474015057,-0.999796330929
1555426869924207681,,,0,,1555426869,924026500,"""world""","""cf3_vrpn""",,,0.155170977116,-0.0467178784311,0.0808884426951,,-0.00604782486334,0.00347897037864,-0.0192812997848,-0.999789834023
1555426869933984356,,,0,,1555426869,930635929,"""cf3_takeoff""","""cf3""",,,-0.000492104212753,-6.6669905209e-05,0.0645117461681,,0.000995232793135,-0.0101869215296,-0.000144199933527,0.999947606301
1555426869934606499,,,0,,1555426869,934426767,"""world""","""cf3_vrpn""",,,0.155157715082,-0.0466073490679,0.0809781104326,,-0.00495901191607,0.00315141445026,-0.0191905405372,-0.999798595905
1555426869943933364,,,0,,1555426869,943774652,"""world""","""cf3_vrpn""",,,0.155148848891,-0.0465828180313,0.0809699594975,,-0.00481700291857,0.00313469511457,-0.0191243235022,-0.999800562859
1555426869954274116,,,0,,1555426869,954102585,"""world""","""cf3_vrpn""",,,0.155154585838,-0.0466749742627,0.0809065774083,,-0.00590089801699,0.00353006529622,-0.0192724782974,-0.999790608883
1555426869959648580,,,0,,1555426869,955573081,"""cf3_takeoff""","""cf3""",,,-0.000229556681006,9.0907291451e-05,0.0648876279593,,3.19508680679e-05,-0.0105490920048,-0.000157507362508,0.999944343865
1555426869964688926,,,0,,1555426869,964403419,"""world""","""cf3_vrpn""",,,0.155161857605,-0.0466923825443,0.0808955654502,,-0.00595671497285,0.00348469684832,-0.0191757790744,-0.999792397022
1555426869974975088,,,0,,1555426869,974796198,"""world""","""cf3_vrpn""",,,0.155143633485,-0.0465962588787,0.0809836983681,,-0.00502402149141,0.00337578961626,-0.019233148545,-0.999796748161
1555426869975146143,,,0,,1555426869,974881689,"""world""","""cf3_vrpn""",,,0.155132398009,-0.0466093234718,0.0809798315167,,-0.00510686542839,0.00324910390191,-0.0191983021796,-0.999797344208
1555426869983650406,,,0,,1555426869,980568885,"""cf3_takeoff""","""cf3""",,,-0.000319599406794,0.000106530882476,0.0640934258699,,0.000276841945162,-0.0106611495818,-0.000151756229217,0.999943118491
1555426869984345404,,,0,,1555426869,984184227,"""world""","""cf3_vrpn""",,,0.155180186033,-0.0466910302639,0.0809200555086,,-0.00598589284346,0.00363919581287,-0.0192236937582,-0.999790728092
1555426869990857842,,,0,,1555426870,90682113,"""world""","""cf3_takeoff""",,,1.0,1.0,0.0,,0.0,0.0,0.0,1.0
1555426869995013848,,,0,,1555426869,994611785,"""world""","""cf3_vrpn""",,,0.155169337988,-0.0465944595635,0.0809836313128,,-0.0047955326736,0.00327317090705,-0.0192835852504,-0.999797284603
1555426870004481515,,,0,,1555426870,4118880,"""world""","""cf3_vrpn""",,,0.155141845345,-0.0466040633619,0.0809859707952,,-0.00511552812532,0.00330717116594,-0.0192677434534,-0.999795794487
1555426870013170740,,,0,,1555426870,5666017,"""cf3_takeoff""","""cf3""",,,-0.000295834906865,-0.000101090845419,0.0641226023436,,0.000638849035399,-0.0103885916167,-0.000133816211269,0.999945824097
1555426870014885810,,,0,,1555426870,14546710,"""world""","""cf3_vrpn""",,,0.155147746205,-0.0466193407774,0.080960907042,,-0.00495334435254,0.00324570434168,-0.0192179866135,-0.999797821045
1555426870024446956,,,0,,1555426870,23985853,"""world""","""cf3_vrpn""",,,0.155176177621,-0.0466837622225,0.0809149742126,,-0.00595652172342,0.00365231442265,-0.0192385688424,-0.999790489674
1555426870024470249,,,0,,1555426870,24023943,"""world""","""cf3_vrpn""",,,0.155141487718,-0.0466004274786,0.0809773504734,,-0.00479190517217,0.00321091897786,-0.0192477628589,-0.999798119068
1555426870034804428,,,0,,1555426870,34435080,"""world""","""cf3_vrpn""",,,0.15514062345,-0.0465991832316,0.0809742584825,,-0.00490900408477,0.00325355003588,-0.0192650444806,-0.999797105789
1555426870042766975,,,0,,1555426870,30711889,"""cf3_takeoff""","""cf3""",,,-0.00157233700156,0.000619507976808,0.0632514879107,,0.000827654437009,-0.0115934999956,-0.000132056128605,0.999932441872
1555426870044180973,,,0,,1555426870,43823172,"""world""","""cf3_vrpn""",,,0.155177384615,-0.0466665737331,0.0809140130877,,-0.00587234040722,0.00351293501444,-0.0193602982908,-0.999789178371
1555426870054542072,,,0,,1555426870,54207930,"""world""","""cf3_vrpn""",,,0.155172675848,-0.0465956926346,0.0809651687741,,-0.00490548228845,0.00321940612048,-0.0193564910442,-0.999795496464
1555426870062659780,,,0,,1555426870,55708885,"""cf3_takeoff""","""cf3""",,,-0.000140094445669,-8.58044368215e-05,0.0668192431331,,-0.000131944473304,-0.0108959276621,-0.000178162057556,0.999940613041
1555426870064869130,,,0,,1555426870,64550355,"""world""","""cf3_vrpn""",,,0.15514986217,-0.0466226488352,0.0809673219919,,-0.0050316657871,0.00323779252358,-0.0192428883165,-0.999796926975
1555426870074263734,,,0,,1555426870,73953809,"""world""","""cf3_vrpn""",,,0.155151203275,-0.0466046482325,0.0809669420123,,-0.0048019438982,0.00330074364319,-0.0192477293313,-0.999797821045
1555426870074393549,,,0,,1555426870,74047245,"""world""","""cf3_vrpn""",,,0.15515512228,-0.0465817861259,0.0809538513422,,-0.00508673628792,0.00348690920509,-0.0190786775202,-0.999799013138
1555426870084952909,,,0,,1555426870,84656268,"""world""","""cf3_vrpn""",,,0.15516191721,-0.0466749221087,0.0809101909399,,-0.00596991041675,0.00375548168086,-0.0192337408662,-0.99979019165
1555426870085274912,,,0,,1555426870,80596923,"""cf3_takeoff""","""cf3""",,,-5.91085445194e-05,6.06526045885e-05,0.0674341693521,,-0.00081702399242,-0.0100310380088,-0.000205351059533,0.999949333006
1555426870092052952,,,0,,1555426870,190805478,"""world""","""cf3_takeoff""",,,1.0,1.0,0.0,,0.0,0.0,0.0,1.0
1555426870094540161,,,0,,1555426870,94148805,"""world""","""cf3_vrpn""",,,0.155156448483,-0.0466011576355,0.0809654220939,,-0.00496521312743,0.00336142932065,-0.0191911067814,-0.999797940254
1555426870104874813,,,0,,1555426870,104585524,"""world""","""cf3_vrpn""",,,0.1551630795,-0.0465979129076,0.0809828341007,,-0.0050179627724,0.00325492816046,-0.0193436555564,-0.999795019627
1555426870109878770,,,0,,1555426870,105551004,"""cf3_takeoff""","""cf3""",,,-8.80540465005e-05,-0.000105421771877,0.0649877265096,,0.000647994256811,-0.0106439708281,-0.000159505455359,0.999943128656
1555426870114190179,,,0,,1555426870,113939661,"""world""","""cf3_vrpn""",,,0.15516717732,-0.0466848649085,0.0808977633715,,-0.00604150258005,0.00362240476534,-0.0191470757127,-0.999791920185
1555426870124619411,,,0,,1555426870,124332157,"""world""","""cf3_vrpn""",,,0.155156105757,-0.0466176643968,0.0809561014175,,-0.00471977656707,0.00306692509912,-0.0192693565041,-0.999798476696
1555426870124631846,,,0,,1555426870,124357283,"""world""","""cf3_vrpn""",,,0.155158832669,-0.0465817712247,0.0809847339988,,-0.00492550898343,0.00325746624731,-0.019200315699,-0.999798238277
1555426870135205861,,,0,,1555426870,134695904,"""world""","""cf3_vrpn""",,,0.155177935958,-0.0466820038855,0.0809115767479,,-0.00601084018126,0.00353537942283,-0.0192616842687,-0.999790132046
1555426870136345716,,,0,,1555426870,130593061,"""cf3_takeoff""","""cf3""",,,-0.000294756551739,-0.000130380867631,0.0632820427418,,0.000385143208931,-0.00991783464315,-0.000163601908768,0.999950729514
1555426870144490604,,,0,,1555426870,144234993,"""world""","""cf3_vrpn""",,,0.155172020197,-0.0466831326485,0.080880574882,,-0.00600722292438,0.00360216223635,-0.019104225561,-0.999793052673
1555426870154906333,,,0,,1555426870,154620354,"""world""","""cf3_vrpn""",,,0.155133679509,-0.0465861074626,0.0809710100293,,-0.00509443599731,0.00327906943858,-0.0191479492933,-0.999798357487
1555426870160138851,,,0,,1555426870,155534982,"""cf3_takeoff""","""cf3""",,,-0.000340629048878,9.9615448562e-05,0.0635212063789,,-0.000140872881227,-0.0109211692556,-0.000157317518636,0.999940339954
1555426870164201156,,,0,,1555426870,163962032,"""world""","""cf3_vrpn""",,,0.155152902007,-0.0465833432972,0.0809783637524,,-0.00488442601636,0.00324310734868,-0.0191938988864,-0.99979865551
1555426870174659332,,,0,,1555426870,174367930,"""world""","""cf3_vrpn""",,,0.155169352889,-0.046696357429,0.0808998197317,,-0.00579688558355,0.00361983361654,-0.019256465137,-0.999791204929
1555426870174684426,,,0,,1555426870,174394507,"""world""","""cf3_vrpn""",,,0.155165329576,-0.0466138273478,0.0809640586376,,-0.00504844635725,0.00326103717089,-0.0191353727132,-0.999798893929
1555426870185002105,,,0,,1555426870,184745709,"""world""","""cf3_vrpn""",,,0.155167013407,-0.0465927757323,0.0809731334448,,-0.00496822735295,0.0035428465344,-0.019208021462,-0.999796926975
1555426870186198874,,,0,,1555426870,180612087,"""cf3_takeoff""","""cf3""",,,-0.000129673629999,-8.50317956065e-05,0.0623978227377,,0.000829353144836,-0.0105754079711,-0.000142165089114,0.999943724771
1555426870191247551,,,0,,1555426870,290894532,"""world""","""cf3_takeoff""",,,1.0,1.0,0.0,,0.0,0.0,0.0,1.0
1555426870194922734,,,0,,1555426870,194071600,"""world""","""cf3_vrpn""",,,0.15517988801,-0.0466874055564,0.0809054523706,,-0.00584609713405,0.00350211327896,-0.0192165765911,-0.999792158604
1555426870204856541,,,0,,1555426870,204559670,"""world""","""cf3_vrpn""",,,0.155169010162,-0.0467013083398,0.0808978304267,,-0.00575437629595,0.00353976199403,-0.019188804552,-0.999793052673
1555426870210041889,,,0,,1555426870,205559015,"""cf3_takeoff""","""cf3""",,,-0.000129673629999,-8.50317956065e-05,0.0623978227377,,5.04324198869e-05,-0.0103805915406,-0.00017647313284,0.999946103364
1555426870214201693,,,0,,1555426870,213910494,"""world""","""cf3_vrpn""",,,0.155163899064,-0.0466106049716,0.080971814692,,-0.00484537612647,0.00328604923561,-0.0191699210554,-0.999799132347
1555426870224511152,,,0,,1555426870,224236738,"""world""","""cf3_vrpn""",,,0.155167073011,-0.0466734915972,0.0809068605304,,-0.0058576464653,0.00368168833666,-0.0192580986768,-0.999790608883
1555426870224532897,,,0,,1555426870,224277839,"""world""","""cf3_vrpn""",,,0.155163988471,-0.0466844253242,0.0808941498399,,-0.00600041169673,0.00366655644029,-0.019282490015,-0.99978941679
